+GPSRD:$GNGGA,154122.000,4900.7856,N,00825.4793,E,1,7,2.87,128.9,M,47.9,M,,*46
$GPGSA,A,3,21,01,22,03,31,,,,,,,,3.00,2.87,0.89*0E
$BDGSA,A,3,21,16,,,,,,,,,,,3.00,2.87,0.89*18
$GPGSV,3,1,11,04,69,182,,03,64,070,22,22,44,088,23,19,39,276,16*7A
$GPGSV,3,2,11,01,36,144,26,17,36,245,,09,35,214,,06,26,310,*71
$GPGSV,3,3,11,31,23,053,19,21,18,145,22,12,01,338,*44
$BDGSV,3,1,12,14,83,023,,28,51,269,,09,32,049,,27,18,321,*6C
$BDGSV,3,2,12,05,17,122,,26,17,095,,11,14,176,,16,13,040,17*64
$BDGSV,3,3,12,06,09,039,,21,08,070,17,24,03,138,,02,01,101,*68
$GNRMC,154122.000,A,4900.7856,N,00825.4793,E,0.095,278.20,280721,,,A*4B
$GNVTG,278.20,T,,M,0.095,N,0.175,K,A*23
+GPSRD:$GNGGA,154127.000,4900.7862,N,00825.4766,E,1,7,2.87,129.5,M,47.9,M,,*43
$GPGSA,A,3,21,01,22,03,31,,,,,,,,3.00,2.87,0.89*0E
$BDGSA,A,3,21,16,,,,,,,,,,,3.00,2.87,0.89*18
$GPGSV,3,1,11,04,69,182,,03,64,070,21,22,44,088,23,19,39,276,15*7A
$GPGSV,3,2,11,01,36,144,26,17,36,245,,09,35,214,,06,26,310,*71
$GPGSV,3,3,11,31,23,053,19,21,18,145,22,12,01,338,*44
$BDGSV,3,1,12,14,83,023,,28,51,269,,09,32,049,,27,18,321,*6C
$BDGSV,3,2,12,05,17,122,,26,17,095,,11,14,176,,16,13,040,17*64
$BDGSV,3,3,12,06,09,039,,21,08,070,17,24,03,137,,02,01,101,*67
$GNRMC,154127.000,A,4900.7862,N,00825.4766,E,0.365,311.51,280721,,,A*47
$GNVTG,311.51,T,,M,0.365,N,0.676,K,A*23
+GPSRD:$GNGGA,154132.000,4900.7865,N,00825.4718,E,1,7,2.87,129.9,M,47.9,M,,*45
$GPGSA,A,3,21,01,22,03,31,,,,,,,,3.00,2.87,0.89*0E
$BDGSA,A,3,21,16,,,,,,,,,,,3.00,2.87,0.89*18
$GPGSV,3,1,11,04,69,182,,03,64,070,23,22,44,088,24,19,39,276,14*7E
$GPGSV,3,2,11,01,36,144,26,17,36,245,,09,35,214,,06,26,310,*71
$GPGSV,3,3,11,31,23,053,18,21,18,145,23,12,01,338,*44
$BDGSV,3,1,12,14,83,023,,28,51,268,,09,32,049,,26,18,094,*61
$BDGSV,3,2,12,27,18,320,,05,17,122,,11,14,176,,16,13,040,19*69
$BDGSV,3,3,12,06,09,039,,21,08,070,17,24,03,137,,02,01,101,*67
$GNRMC,154132.000,A,4900.7865,N,00825.4718,E,0.833,262.12,280721,,,A*47
$GNVTG,262.12,T,,M,0.833,N,1.544,K,A*2A
+GPSRD:$GNGGA,154137.000,4900.7866,N,00825.4704,E,1,7,2.87,129.9,M,47.9,M,,*4E
$GPGSA,A,3,21,01,22,03,31,,,,,,,,3.00,2.87,0.88*0F
$BDGSA,A,3,21,16,,,,,,,,,,,3.00,2.87,0.88*19
$GPGSV,3,1,11,04,69,182,,03,64,070,25,22,44,088,24,19,39,276,13*7F
$GPGSV,3,2,11,01,36,144,26,17,36,245,,09,35,214,,06,26,310,*71
$GPGSV,3,3,11,31,23,053,18,21,18,145,23,12,01,338,*44
$BDGSV,3,1,12,14,83,023,,28,51,268,,09,32,049,,26,18,094,*61
$BDGSV,3,2,12,27,18,320,,05,17,122,,11,14,176,,16,13,040,19*69
$BDGSV,3,3,12,06,09,039,,21,08,070,16,24,03,137,,02,01,101,*66
$GNRMC,154137.000,A,4900.7866,N,00825.4704,E,0.934,320.21,280721,,,A*4D
$GNVTG,320.21,T,,M,0.934,N,1.730,K,A*2A
+GPSRD:$GNGGA,154142.000,4900.7864,N,00825.4679,E,1,7,2.87,129.9,M,47.9,M,,*45
$GPGSA,A,3,21,01,22,03,31,,,,,,,,3.00,2.87,0.88*0F
$BDGSA,A,3,21,16,,,,,,,,,,,3.00,2.87,0.88*19
$GPGSV,3,1,11,04,69,182,,03,64,070,26,22,44,088,25,19,39,276,13*7D
$GPGSV,3,2,11,01,36,144,26,17,36,245,,09,35,214,,06,26,310,*71
$GPGSV,3,3,11,31,23,053,18,21,18,145,23,12,01,338,*44
$BDGSV,3,1,12,14,83,023,,28,51,268,,09,32,049,,26,18,094,*61
$BDGSV,3,2,12,27,18,320,,05,17,122,,11,14,176,,16,13,040,19*69
$BDGSV,3,3,12,06,09,039,,21,08,070,16,24,03,137,,02,01,101,*66
$GNRMC,154142.000,A,4900.7864,N,00825.4679,E,1.152,272.66,280721,,,A*4A
$GNVTG,272.66,T,,M,1.152,N,2.135,K,A*26
+GPSRD:$GNGGA,154147.000,4900.7853,N,00825.4670,E,1,7,2.87,130.0,M,47.9,M,,*4C
$GPGSA,A,3,21,01,22,03,31,,,,,,,,3.01,2.87,0.88*0E
$BDGSA,A,3,21,16,,,,,,,,,,,3.01,2.87,0.88*18
$GPGSV,3,1,11,04,69,182,,03,64,071,25,22,44,088,26,19,39,276,15*7A
$GPGSV,3,2,11,01,36,145,26,17,36,245,,09,35,214,,06,26,310,*70
$GPGSV,3,3,11,31,23,053,18,21,18,145,23,12,01,338,*44
$BDGSV,3,1,12,14,83,023,,28,51,268,,09,32,049,,26,18,094,*61
$BDGSV,3,2,12,27,18,320,,05,17,122,,11,14,176,,16,13,040,19*69
$BDGSV,3,3,12,06,09,039,,21,08,070,16,24,03,137,,02,01,101,*66
$GNRMC,154147.000,A,4900.7853,N,00825.4670,E,1.900,274.74,280721,,,A*48
$GNVTG,274.74,T,,M,1.900,N,3.521,K,A*2C
+GPSRD:$GNGGA,154152.000,4900.7851,N,00825.4668,E,1,7,2.87,130.0,M,47.9,M,,*43
$GPGSA,A,3,21,01,22,03,31,,,,,,,,3.01,2.87,0.88*0E
$BDGSA,A,3,21,16,,,,,,,,,,,3.01,2.87,0.88*18
$GPGSV,3,1,11,04,69,182,,03,64,071,24,22,44,088,26,19,39,276,15*7B
$GPGSV,3,2,11,01,36,145,26,17,36,245,,09,35,214,,06,26,310,*70
$GPGSV,3,3,11,31,23,053,18,21,18,145,23,12,01,338,*44
$BDGSV,3,1,12,14,83,023,,28,51,268,,09,32,049,,26,18,094,*61
$BDGSV,3,2,12,27,18,320,,05,17,122,,11,14,176,,16,13,040,19*69
$BDGSV,3,3,12,06,09,039,,21,08,070,15,24,03,137,,02,01,101,*65
$GNRMC,154152.000,A,4900.7851,N,00825.4668,E,0.678,20.76,280721,,,A*77
$GNVTG,20.76,T,,M,0.678,N,1.256,K,A*19
+GPSRD:$GNGGA,154157.000,4900.7850,N,00825.4643,E,1,7,2.87,129.9,M,47.9,M,,*4F
$GPGSA,A,3,21,01,22,03,31,,,,,,,,3.01,2.87,0.88*0E
$BDGSA,A,3,21,16,,,,,,,,,,,3.01,2.87,0.88*18
$GPGSV,3,1,11,04,69,182,,03,64,071,24,22,44,088,27,19,39,276,14*7B
$GPGSV,3,2,11,01,36,145,26,17,36,245,,09,35,215,,06,26,310,*71
$GPGSV,3,3,11,31,23,053,18,21,18,145,24,12,01,337,*4C
$BDGSV,3,1,12,14,83,023,,28,51,268,,09,32,049,,26,18,094,*61
$BDGSV,3,2,12,27,18,320,,05,17,122,,11,14,176,,16,13,040,19*69
$BDGSV,3,3,12,06,09,039,,21,08,070,16,24,03,137,,02,01,101,*66
$GNRMC,154157.000,A,4900.7850,N,00825.4643,E,1.637,294.99,280721,,,A*4C
$GNVTG,294.99,T,,M,1.637,N,3.034,K,A*2B
+GPSRD:$GNGGA,154202.000,4900.7847,N,00825.4608,E,1,7,2.88,129.6,M,47.9,M,,*45
$GPGSA,A,3,21,01,22,03,31,,,,,,,,3.01,2.88,0.88*01
$BDGSA,A,3,21,16,,,,,,,,,,,3.01,2.88,0.88*17
$GPGSV,3,1,11,04,69,182,,03,64,071,24,22,44,088,27,19,39,276,14*7B
$GPGSV,3,2,11,01,36,145,28,17,36,244,,09,35,215,,06,26,310,*7E
$GPGSV,3,3,11,31,23,053,16,21,18,145,24,12,01,337,*42
$BDGSV,3,1,12,14,83,023,,28,51,268,,09,32,049,,26,18,094,*61
$BDGSV,3,2,12,27,18,320,,05,17,122,,11,14,176,,16,13,040,19*69
$BDGSV,3,3,12,06,09,039,,21,08,070,16,24,03,137,,02,01,101,*66
$GNRMC,154202.000,A,4900.7847,N,00825.4608,E,1.117,278.08,280721,,,A*49
$GNVTG,278.08,T,,M,1.117,N,2.069,K,A*2D
+GPSRD:$GNGGA,154207.000,4900.7847,N,00825.4601,E,1,7,2.88,129.1,M,47.9,M,,*4E
$GPGSA,A,3,21,01,22,03,31,,,,,,,,3.01,2.88,0.88*01
$BDGSA,A,3,21,16,,,,,,,,,,,3.01,2.88,0.88*17
$GPGSV,3,1,11,04,69,182,,03,64,071,25,22,43,088,27,19,39,275,12*78
$GPGSV,3,2,11,01,36,145,29,17,36,244,,09,35,215,,06,26,310,*7F
$GPGSV,3,3,11,31,23,053,17,21,18,146,24,12,01,337,*40
$BDGSV,3,1,12,14,83,023,,28,51,268,,09,32,049,,26,18,094,*61
$BDGSV,3,2,12,27,18,320,,05,17,122,,11,14,176,,16,13,040,19*69
$BDGSV,3,3,12,06,09,039,,21,08,070,16,24,03,137,,02,01,101,*66
$GNRMC,154207.000,A,4900.7847,N,00825.4601,E,0.302,294.56,280721,,,A*4B
$GNVTG,294.56,T,,M,0.302,N,0.560,K,A*2D
+GPSRD:$GNGGA,154212.000,4900.7841,N,00825.4586,E,1,7,2.88,128.8,M,47.9,M,,*48
$GPGSA,A,3,21,01,22,03,31,,,,,,,,3.01,2.88,0.88*01
$BDGSA,A,3,21,16,,,,,,,,,,,3.01,2.88,0.88*17
$GPGSV,3,1,11,04,69,182,,03,64,071,24,22,43,088,27,19,39,275,14*7F
$GPGSV,3,2,11,01,36,145,29,17,36,244,,09,35,215,,06,26,310,*7F
$GPGSV,3,3,11,31,23,053,17,21,18,146,24,12,01,337,*40
$BDGSV,3,1,12,14,83,023,,28,51,268,,09,32,049,,26,18,094,*61
$BDGSV,3,2,12,27,18,320,,05,17,122,,11,14,176,,16,13,040,20*63
$BDGSV,3,3,12,06,09,039,,21,08,070,16,24,03,137,,02,01,101,*66
$GNRMC,154212.000,A,4900.7841,N,00825.4586,E,0.446,317.60,280721,,,A*4D
$GNVTG,317.60,T,,M,0.446,N,0.826,K,A*2A
+GPSRD:$GNGGA,154217.000,4900.7848,N,00825.4591,E,1,7,2.88,128.7,M,47.9,M,,*4D
$GPGSA,A,3,21,01,22,03,31,,,,,,,,3.01,2.88,0.88*01
$BDGSA,A,3,21,16,,,,,,,,,,,3.01,2.88,0.88*17
$GPGSV,3,1,11,04,69,182,,03,64,071,21,22,43,088,27,19,39,275,15*7B
$GPGSV,3,2,11,01,36,145,29,17,36,244,,09,35,215,,06,26,310,*7F
$GPGSV,3,3,11,31,23,053,17,21,18,146,24,12,01,337,*40
$BDGSV,3,1,12,14,83,023,,28,51,268,,09,32,049,,26,18,094,*61
$BDGSV,3,2,12,27,18,320,,05,17,122,,11,14,176,,16,13,040,20*63
$BDGSV,3,3,12,06,09,039,,21,08,070,16,24,03,137,,02,01,101,*66
$GNRMC,154217.000,A,4900.7848,N,00825.4591,E,0.642,310.01,280721,,,A*41
$GNVTG,310.01,T,,M,0.642,N,1.190,K,A*29
+GPSRD:$GNGGA,154222.000,4900.7853,N,00825.4575,E,1,7,2.88,128.3,M,47.9,M,,*4F
$GPGSA,A,3,21,01,22,03,31,,,,,,,,3.01,2.88,0.88*01
$BDGSA,A,3,21,16,,,,,,,,,,,3.01,2.88,0.88*17
$GPGSV,3,1,11,04,69,182,,03,64,071,22,22,43,088,27,19,39,275,13*7E
$GPGSV,3,2,11,01,36,145,29,17,36,244,,09,35,215,,06,26,310,*7F
$GPGSV,3,3,11,31,23,053,17,21,18,146,24,12,01,337,*40
$BDGSV,3,1,12,14,83,023,,28,51,268,,09,32,049,,26,18,094,*61
$BDGSV,3,2,12,27,18,320,,05,17,122,,11,14,176,,16,13,040,20*63
$BDGSV,3,3,12,06,09,039,,21,08,070,16,24,03,137,,02,01,101,*66
$GNRMC,154222.000,A,4900.7853,N,00825.4575,E,1.207,285.19,280721,,,A*47
$GNVTG,285.19,T,,M,1.207,N,2.237,K,A*24
+GPSRD:$GNGGA,154227.000,4900.7855,N,00825.4598,E,1,7,2.88,128.0,M,47.9,M,,*4C
$GPGSA,A,3,21,01,22,03,31,,,,,,,,3.01,2.88,0.88*01
$BDGSA,A,3,21,16,,,,,,,,,,,3.01,2.88,0.88*17
$GPGSV,3,1,11,04,69,182,,03,64,071,24,22,43,088,27,19,39,275,*7A
$GPGSV,3,2,11,01,36,145,29,17,36,244,17,09,35,215,,06,26,310,*79
$GPGSV,3,3,11,31,23,053,18,21,18,146,24,12,01,337,*4F
$BDGSV,3,1,12,14,83,023,,28,51,268,,09,32,049,,26,18,094,*61
$BDGSV,3,2,12,27,18,320,,05,17,122,,11,14,176,,16,13,040,21*62
$BDGSV,3,3,12,06,09,039,,21,08,070,16,24,03,137,,02,01,101,*66
$GNRMC,154227.000,A,4900.7855,N,00825.4598,E,0.780,274.31,280721,,,A*48
$GNVTG,274.31,T,,M,0.780,N,1.445,K,A*2B
+GPSRD:$GNGGA,154232.000,4900.7851,N,00825.4604,E,1,7,2.88,127.5,M,47.9,M,,*40
$GPGSA,A,3,21,01,22,03,31,,,,,,,,3.01,2.88,0.88*01
$BDGSA,A,3,21,16,,,,,,,,,,,3.01,2.88,0.88*17
$GPGSV,3,1,11,04,69,182,,03,64,071,24,22,43,088,27,19,39,275,*7A
$GPGSV,3,2,11,01,36,145,29,17,36,244,18,09,35,215,,06,26,310,*76
$GPGSV,3,3,11,31,23,053,18,21,18,146,25,12,01,337,*4E
$BDGSV,3,1,12,14,83,023,,28,51,268,,09,31,049,,26,18,094,*62
$BDGSV,3,2,12,27,18,320,,05,17,122,,11,14,176,,16,13,040,21*62
$BDGSV,3,3,12,06,09,039,,21,08,070,16,24,03,137,,02,01,101,*66
$GNRMC,154232.000,A,4900.7851,N,00825.4604,E,1.015,273.68,280721,,,A*4F
$GNVTG,273.68,T,,M,1.015,N,1.882,K,A*2D
+GPSRD:$GNGGA,154237.000,4900.7847,N,00825.4618,E,1,7,2.88,127.5,M,47.9,M,,*4F
$GPGSA,A,3,21,01,22,03,31,,,,,,,,3.01,2.88,0.88*01
$BDGSA,A,3,21,16,,,,,,,,,,,3.01,2.88,0.88*17
$GPGSV,3,1,11,04,69,182,,03,64,071,24,22,43,088,27,19,39,275,*7A
$GPGSV,3,2,11,01,36,145,28,17,36,244,17,09,35,215,,06,26,310,*78
$GPGSV,3,3,11,31,23,053,18,21,18,146,25,12,01,337,*4E
$BDGSV,3,1,12,14,83,026,,28,51,268,,09,31,049,,26,18,094,*67
$BDGSV,3,2,12,27,18,320,,05,17,122,,11,14,176,,16,13,040,21*62
$BDGSV,3,3,12,06,09,039,,21,08,070,16,24,03,137,,02,01,101,*66
$GNRMC,154237.000,A,4900.7847,N,00825.4618,E,0.197,109.89,280721,,,A*4B
$GNVTG,109.89,T,,M,0.197,N,0.365,K,A*25
+GPSRD:$GNGGA,154242.000,4900.7848,N,00825.4632,E,1,7,2.88,127.6,M,47.9,M,,*49
$GPGSA,A,3,21,01,22,03,31,,,,,,,,3.01,2.88,0.88*01
$BDGSA,A,3,21,16,,,,,,,,,,,3.01,2.88,0.88*17
$GPGSV,3,1,11,04,69,182,,03,64,071,24,22,43,088,27,19,39,275,*7A
$GPGSV,3,2,11,01,36,145,27,17,36,244,16,09,35,215,,06,26,310,*76
$GPGSV,3,3,11,31,23,053,17,21,18,146,25,12,01,337,*41
$BDGSV,3,1,12,14,83,026,,28,51,268,,09,31,049,,26,18,094,*67
$BDGSV,3,2,12,27,18,320,,05,17,122,,11,14,176,,16,13,040,21*62
$BDGSV,3,3,12,06,09,039,,21,07,070,16,24,03,137,,02,01,101,*69
$GNRMC,154242.000,A,4900.7848,N,00825.4632,E,0.524,205.58,280721,,,A*41
$GNVTG,205.58,T,,M,0.524,N,0.971,K,A*25
+GPSRD:$GNGGA,154247.000,4900.7853,N,00825.4660,E,1,7,2.88,127.7,M,47.9,M,,*40
$GPGSA,A,3,21,01,22,03,31,,,,,,,,3.02,2.88,0.88*02
$BDGSA,A,3,21,16,,,,,,,,,,,3.02,2.88,0.88*14
$GPGSV,3,1,11,04,69,182,,03,64,071,24,22,43,088,27,19,39,275,*7A
$GPGSV,3,2,11,01,36,145,27,17,36,244,13,09,35,215,,06,26,310,*73
$GPGSV,3,3,11,31,23,053,17,21,18,146,25,12,01,337,*41
$BDGSV,3,1,12,14,83,026,,28,51,267,,09,31,049,,27,19,320,*64
$BDGSV,3,2,12,26,18,094,,05,17,122,,11,14,176,,16,13,040,21*6F
$BDGSV,3,3,12,06,09,039,,21,07,070,16,24,04,137,,02,01,101,*6E
$GNRMC,154247.000,A,4900.7853,N,00825.4660,E,0.590,83.73,280721,,,A*73
$GNVTG,83.73,T,,M,0.590,N,1.093,K,A*1B
+GPSRD:$GNGGA,154252.000,4900.7858,N,00825.4672,E,1,7,2.88,128.2,M,47.9,M,,*46
$GPGSA,A,3,21,01,22,03,31,,,,,,,,3.02,2.88,0.88*02
$BDGSA,A,3,21,16,,,,,,,,,,,3.02,2.88,0.88*14
$GPGSV,3,1,11,04,69,182,,03,64,071,25,22,43,088,26,19,39,275,*7A
$GPGSV,3,2,11,01,36,145,27,17,36,244,,09,35,215,,06,26,310,*71
$GPGSV,3,3,11,31,23,053,15,21,18,146,26,12,01,337,*40
$BDGSV,3,1,12,14,83,026,,28,51,267,,09,31,049,,27,19,320,*64
$BDGSV,3,2,12,26,18,094,,05,17,122,,11,14,176,,16,13,040,21*6F
$BDGSV,3,3,12,06,09,039,,21,07,070,15,24,04,137,,02,01,101,*6D
$GNRMC,154252.000,A,4900.7858,N,00825.4672,E,0.592,18.11,280721,,,A*7B
$GNVTG,18.11,T,,M,0.592,N,1.097,K,A*1B
+GPSRD:$GNGGA,154257.000,4900.7872,N,00825.4702,E,1,7,2.89,128.8,M,47.9,M,,*46
$GPGSA,A,3,21,01,22,03,31,,,,,,,,3.02,2.89,0.88*03
$BDGSA,A,3,21,16,,,,,,,,,,,3.02,2.89,0.88*15
$GPGSV,3,1,11,04,69,182,,03,64,071,25,22,43,088,27,19,39,275,*7B
$GPGSV,3,2,11,01,36,145,26,17,36,244,13,09,35,215,,06,26,310,*72
$GPGSV,3,3,11,31,23,053,15,21,18,146,26,12,01,337,*40
$BDGSV,3,1,12,14,83,026,,28,51,267,,09,31,049,,27,19,320,*64
$BDGSV,3,2,12,26,18,094,,05,17,122,,11,14,176,,16,13,040,21*6F
$BDGSV,3,3,12,06,09,039,,21,07,070,16,24,04,137,,02,01,101,*6E
$GNRMC,154257.000,A,4900.7872,N,00825.4702,E,0.895,64.09,280721,,,A*78
$GNVTG,64.09,T,,M,0.895,N,1.658,K,A*16
+GPSRD:$GNGGA,154302.000,4900.7866,N,00825.4725,E,1,7,2.89,129.2,M,47.9,M,,*4C
$GPGSA,A,3,21,01,22,03,31,,,,,,,,3.02,2.89,0.88*03
$BDGSA,A,3,21,16,,,,,,,,,,,3.02,2.89,0.88*15
$GPGSV,3,1,11,04,69,182,,03,64,071,25,22,43,088,26,19,39,275,*7A
$GPGSV,3,2,11,17,36,244,14,01,35,145,26,09,35,215,,06,26,310,*76
$GPGSV,3,3,11,31,23,053,13,21,18,146,26,12,01,337,*46
$BDGSV,3,1,12,14,83,026,,28,51,267,,09,31,049,,27,19,320,*64
$BDGSV,3,2,12,26,18,094,,05,17,122,,11,14,176,,16,13,040,21*6F
$BDGSV,3,3,12,06,09,039,,21,07,070,16,24,04,137,,02,01,101,*6E
$GNRMC,154302.000,A,4900.7866,N,00825.4725,E,0.579,175.74,280721,,,A*4D
$GNVTG,175.74,T,,M,0.579,N,1.074,K,A*2A
+GPSRD:$GNGGA,154307.000,4900.7858,N,00825.4741,E,1,7,2.89,129.6,M,47.9,M,,*42
$GPGSA,A,3,21,01,22,03,31,,,,,,,,3.02,2.89,0.88*03
$BDGSA,A,3,21,16,,,,,,,,,,,3.02,2.89,0.88*15
$GPGSV,3,1,11,04,70,181,,03,63,072,25,22,43,088,26,19,39,275,*75
$GPGSV,3,2,11,17,36,244,14,01,35,145,26,09,35,215,,06,27,310,*77
$GPGSV,3,3,11,31,23,053,13,21,18,146,26,12,01,337,*46
$BDGSV,3,1,12,14,83,026,,28,51,267,,09,31,049,,27,19,320,*64
$BDGSV,3,2,12,26,18,094,,05,17,122,,11,14,176,,16,13,040,21*6F
$BDGSV,3,3,12,06,09,039,,21,07,070,14,24,04,137,,02,01,101,*6C
$GNRMC,154307.000,A,4900.7858,N,00825.4741,E,0.467,185.02,280721,,,A*47
$GNVTG,185.02,T,,M,0.467,N,0.866,K,A*20
+GPSRD:$GNGGA,154312.000,4900.7857,N,00825.4716,E,1,7,2.89,130.1,M,47.9,M,,*44
$GPGSA,A,3,21,01,22,03,31,,,,,,,,3.02,2.89,0.88*03
$BDGSA,A,3,21,16,,,,,,,,,,,3.02,2.89,0.88*15
$GPGSV,3,1,11,04,70,181,,03,63,072,25,22,43,088,26,19,39,275,*75
$GPGSV,3,2,11,09,36,215,,17,36,244,14,01,35,145,26,06,27,310,*74
$GPGSV,3,3,11,31,23,053,13,21,18,146,26,12,01,337,*46
$BDGSV,3,1,12,14,83,026,,28,51,267,,09,31,049,,27,19,320,*64
$BDGSV,3,2,12,26,18,094,,05,17,122,,11,14,176,,16,13,040,21*6F
$BDGSV,3,3,12,06,09,039,,21,07,070,15,24,04,137,,02,01,101,*6D
$GNRMC,154312.000,A,4900.7857,N,00825.4716,E,0.625,280.86,280721,,,A*40
$GNVTG,280.86,T,,M,0.625,N,1.158,K,A*2B
+GPSRD:$GNGGA,154317.000,4900.7861,N,00825.4693,E,1,7,2.89,130.5,M,47.9,M,,*4C
$GPGSA,A,3,21,01,22,03,31,,,,,,,,3.02,2.89,0.88*03
$BDGSA,A,3,21,16,,,,,,,,,,,3.02,2.89,0.88*15
$GPGSV,3,1,11,04,70,181,,03,63,072,25,22,43,088,26,19,39,275,*75
$GPGSV,3,2,11,09,36,215,,17,36,244,13,01,35,145,26,06,27,310,*73
$GPGSV,3,3,11,31,23,053,12,21,18,146,26,12,01,337,*47
$BDGSV,3,1,12,14,83,026,,28,51,267,,09,31,049,,27,19,320,*64
$BDGSV,3,2,12,26,18,094,,05,17,122,,11,14,176,,16,13,040,21*6F
$BDGSV,3,3,12,06,09,039,,21,07,070,15,24,04,137,,02,01,101,*6D
$GNRMC,154317.000,A,4900.7861,N,00825.4693,E,0.854,323.66,280721,,,A*42
$GNVTG,323.66,T,,M,0.854,N,1.582,K,A*26
+GPSRD:$GNGGA,154322.000,4900.7864,N,00825.4664,E,1,6,2.91,130.9,M,47.9,M,,*43
$GPGSA,A,3,21,01,22,03,,,,,,,,,3.04,2.91,0.88*0E
$BDGSA,A,3,21,16,,,,,,,,,,,3.04,2.91,0.88*1A
$GPGSV,3,1,11,04,70,181,,03,63,072,25,22,43,088,25,19,38,274,*76
$GPGSV,3,2,11,09,36,215,,01,35,145,26,17,35,244,13,06,27,310,*70
$GPGSV,3,3,11,31,23,053,,21,17,146,26,12,01,337,*4B
$BDGSV,3,1,12,14,83,026,,28,51,267,,09,31,049,,27,19,320,*64
$BDGSV,3,2,12,26,18,094,,05,17,122,,11,14,176,,16,13,040,21*6F
$BDGSV,3,3,12,06,09,039,,21,07,070,16,24,04,137,,02,01,101,*6E
$GNRMC,154322.000,A,4900.7864,N,00825.4664,E,0.858,236.69,280721,,,A*4F
$GNVTG,236.69,T,,M,0.858,N,1.589,K,A*2B
+GPSRD:$GNGGA,154327.000,4900.7867,N,00825.4647,E,1,6,2.91,131.1,M,47.9,M,,*4D
$GPGSA,A,3,21,01,22,03,,,,,,,,,3.04,2.91,0.88*0E
$BDGSA,A,3,21,16,,,,,,,,,,,3.04,2.91,0.88*1A
$GPGSV,3,1,11,04,70,181,,03,63,072,24,22,43,089,24,19,38,274,*77
$GPGSV,3,2,11,09,36,215,,01,35,145,26,17,35,244,12,06,27,310,*71
$GPGSV,3,3,11,31,23,053,,21,17,146,26,12,01,337,*4B
$BDGSV,3,1,12,14,83,026,,28,51,267,,09,31,049,,27,19,320,*64
$BDGSV,3,2,12,26,18,094,,05,17,122,,11,14,176,,16,13,040,20*6E
$BDGSV,3,3,12,06,09,039,,21,07,070,16,24,04,137,,02,01,101,*6E
$GNRMC,154327.000,A,4900.7867,N,00825.4647,E,0.786,339.32,280721,,,A*44
$GNVTG,339.32,T,,M,0.786,N,1.457,K,A*25
+GPSRD:$GNGGA,154332.000,4900.7873,N,00825.4639,E,1,6,3.34,131.4,M,47.9,M,,*4E
$GPGSA,A,3,21,01,22,03,,,,,,,,,3.82,3.34,1.86*01
$BDGSA,A,3,21,16,,,,,,,,,,,3.82,3.34,1.86*15
$GPGSV,3,1,11,04,70,181,,03,63,072,23,22,43,089,23,19,38,274,*77
$GPGSV,3,2,11,09,36,215,,01,35,145,27,17,35,244,13,06,27,310,*71
$GPGSV,3,3,11,31,23,052,,21,17,146,25,12,01,337,*49
$BDGSV,3,1,12,14,83,026,,28,51,267,,09,31,049,,27,19,320,*64
$BDGSV,3,2,12,26,18,094,,05,17,122,,11,14,176,,16,13,040,21*6F
$BDGSV,3,3,12,06,09,039,,21,07,070,16,24,04,137,,02,01,101,*6E
$GNRMC,154332.000,A,4900.7873,N,00825.4639,E,0.430,73.89,280721,,,A*7F
$GNVTG,73.89,T,,M,0.430,N,0.796,K,A*19
+GPSRD:$GNGGA,154337.000,4900.7877,N,00825.4646,E,1,7,2.89,131.5,M,47.9,M,,*40
$GPGSA,A,3,21,01,22,31,03,,,,,,,,3.02,2.89,0.88*03
$BDGSA,A,3,21,16,,,,,,,,,,,3.02,2.89,0.88*15
$GPGSV,3,1,11,04,70,181,,03,63,072,23,22,43,089,21,19,38,274,*75
$GPGSV,3,2,11,09,36,215,,01,35,145,28,17,35,244,,06,27,310,*7C
$GPGSV,3,3,11,31,23,052,18,21,17,146,25,12,01,337,*40
$BDGSV,3,1,12,14,83,026,15,28,51,267,,09,31,049,,27,19,320,*60
$BDGSV,3,2,12,26,18,094,,05,17,122,,11,14,176,,16,13,040,21*6F
$BDGSV,3,3,12,06,09,039,,21,07,070,17,24,04,137,,02,01,101,*6F
$GNRMC,154337.000,A,4900.7877,N,00825.4646,E,0.349,95.81,280721,,,A*7F
$GNVTG,95.81,T,,M,0.349,N,0.648,K,A*12
+GPSRD:$GNGGA,154342.000,4900.7876,N,00825.4650,E,1,7,2.89,131.6,M,47.9,M,,*47
$GPGSA,A,3,21,01,22,31,03,,,,,,,,3.02,2.89,0.88*03
$BDGSA,A,3,21,16,,,,,,,,,,,3.02,2.89,0.88*15
$GPGSV,3,1,11,04,70,181,,03,63,072,25,22,43,089,22,19,38,274,*70
$GPGSV,3,2,11,09,36,215,,01,35,145,28,17,35,244,,06,27,310,*7C
$GPGSV,3,3,11,31,23,052,18,21,17,146,25,12,01,337,*40
$BDGSV,3,1,12,14,83,026,15,28,51,267,,09,31,049,,27,19,320,*60
$BDGSV,3,2,12,26,18,094,,05,17,122,,11,14,176,,16,13,040,21*6F
$BDGSV,3,3,12,06,09,039,,21,07,070,16,24,04,137,,02,01,101,*6E
$GNRMC,154342.000,A,4900.7876,N,00825.4650,E,0.405,107.09,280721,,,A*4E
$GNVTG,107.09,T,,M,0.405,N,0.751,K,A*2E
+GPSRD:$GNGGA,154347.000,4900.7876,N,00825.4651,E,1,7,3.32,131.6,M,47.9,M,,*42
$GPGSA,A,3,21,01,22,31,03,,,,,,,,3.80,3.32,1.86*07
$BDGSA,A,3,21,16,,,,,,,,,,,3.80,3.32,1.86*11
$GPGSV,3,1,11,04,70,181,,03,63,072,26,22,43,089,23,19,38,274,*72
$GPGSV,3,2,11,09,36,215,,01,35,145,28,17,35,244,,06,27,310,*7C
$GPGSV,3,3,11,31,23,052,18,21,17,146,25,12,01,337,*40
$BDGSV,3,1,12,14,83,026,16,28,51,267,,09,31,048,,27,19,320,*62
$BDGSV,3,2,12,26,18,094,,05,17,122,,16,13,040,21,11,13,176,*68
$BDGSV,3,3,12,06,09,039,,21,07,070,14,24,04,137,,02,01,101,*6C
$GNRMC,154347.000,A,4900.7876,N,00825.4651,E,0.262,66.65,280721,,,A*71
$GNVTG,66.65,T,,M,0.262,N,0.486,K,A*1C
+GPSRD:$GNGGA,154352.000,4900.7872,N,00825.4670,E,1,7,2.89,132.0,M,47.9,M,,*45
$GPGSA,A,3,21,01,22,31,03,,,,,,,,3.02,2.89,0.88*03
$BDGSA,A,3,21,16,,,,,,,,,,,3.02,2.89,0.88*15
$GPGSV,3,1,11,04,70,181,,03,63,072,25,22,43,089,23,19,38,274,*71
$GPGSV,3,2,11,09,36,215,,01,35,145,28,17,35,244,,06,27,310,*7C
$GPGSV,3,3,11,31,23,052,18,21,17,146,25,12,01,337,*40
$BDGSV,3,1,12,14,82,028,16,28,51,267,,09,31,048,,27,19,320,*6D
$BDGSV,3,2,12,26,18,094,,05,17,122,,11,13,176,,16,12,040,20*68
$BDGSV,3,3,12,06,09,039,,21,07,070,15,24,04,137,,02,01,101,*6D
$GNRMC,154352.000,A,4900.7872,N,00825.4670,E,0.071,269.64,280721,,,A*4E
$GNVTG,269.64,T,,M,0.071,N,0.131,K,A*29
+GPSRD:$GNGGA,154357.000,4900.7861,N,00825.4719,E,1,7,2.89,132.3,M,47.9,M,,*4F
$GPGSA,A,3,21,01,22,31,03,,,,,,,,3.02,2.89,0.88*03
$BDGSA,A,3,21,16,,,,,,,,,,,3.02,2.89,0.88*15
$GPGSV,3,1,11,04,70,181,,03,63,072,25,22,43,089,23,19,38,274,*71
$GPGSV,3,2,11,09,36,215,,01,35,145,28,17,35,244,,06,27,310,*7C
$GPGSV,3,3,11,31,23,052,18,21,17,146,24,12,01,337,*41
$BDGSV,3,1,12,14,82,028,16,28,51,267,,09,31,048,,27,19,320,*6D
$BDGSV,3,2,12,26,18,094,,05,17,122,,11,13,176,,16,12,040,20*68
$BDGSV,3,3,12,06,09,039,,21,07,071,14,24,04,137,,02,01,101,*6D
$GNRMC,154357.000,A,4900.7861,N,00825.4719,E,0.723,131.11,280721,,,A*4B
$GNVTG,131.11,T,,M,0.723,N,1.339,K,A*2E
+GPSRD:$GNGGA,154402.000,4900.7850,N,00825.4824,E,1,7,2.90,132.2,M,47.9,M,,*42
$GPGSA,A,3,21,01,22,31,03,,,,,,,,3.03,2.90,0.88*0A
$BDGSA,A,3,21,16,,,,,,,,,,,3.03,2.90,0.88*1C
$GPGSV,3,1,11,04,70,181,,03,63,072,24,22,43,089,23,19,38,274,*70
$GPGSV,3,2,11,09,36,215,,01,35,145,28,17,35,244,,06,27,310,*7C
$GPGSV,3,3,11,31,23,052,18,21,17,146,22,12,01,337,*47
$BDGSV,3,1,12,14,82,028,16,28,51,267,,09,31,048,,27,19,320,*6D
$BDGSV,3,2,12,26,18,094,,05,17,122,,11,13,176,,16,12,040,20*68
$BDGSV,3,3,12,06,09,039,,21,07,071,13,24,04,137,,02,01,101,*6A
$GNRMC,154402.000,A,4900.7850,N,00825.4824,E,2.501,103.34,280721,,,A*49
$GNVTG,103.34,T,,M,2.501,N,4.634,K,A*25
+GPSRD:$GNGGA,154407.000,4900.7849,N,00825.4848,E,1,7,2.90,132.1,M,47.9,M,,*46
$GPGSA,A,3,21,01,22,31,03,,,,,,,,3.03,2.90,0.88*0A
$BDGSA,A,3,21,16,,,,,,,,,,,3.03,2.90,0.88*1C
$GPGSV,3,1,11,04,70,181,,03,63,072,24,22,43,089,24,19,38,274,*77
$GPGSV,3,2,11,09,36,215,,01,35,145,27,17,35,244,,06,27,310,*73
$GPGSV,3,3,11,31,23,052,17,21,17,146,21,12,01,337,*4B
$BDGSV,3,1,12,14,82,028,15,28,51,266,,09,31,048,,27,19,320,*6F
$BDGSV,3,2,12,26,18,094,,05,17,122,,11,13,176,,16,12,040,20*68
$BDGSV,3,3,12,06,09,039,,21,07,071,14,24,04,137,,02,01,101,*6D
$GNRMC,154407.000,A,4900.7849,N,00825.4848,E,0.596,81.23,280721,,,A*7F
$GNVTG,81.23,T,,M,0.596,N,1.105,K,A*14
+GPSRD:$GNGGA,154412.000,4900.7841,N,00825.4833,E,1,7,2.90,132.0,M,47.9,M,,*47
$GPGSA,A,3,21,01,22,31,03,,,,,,,,3.03,2.90,0.88*0A
$BDGSA,A,3,21,16,,,,,,,,,,,3.03,2.90,0.88*1C
$GPGSV,3,1,11,04,70,181,,03,63,072,25,22,43,089,23,19,38,274,*71
$GPGSV,3,2,11,09,36,215,,01,35,145,26,17,35,244,,06,27,310,*72
$GPGSV,3,3,11,31,23,052,17,21,17,146,20,12,01,337,*4A
$BDGSV,3,1,12,14,82,028,14,28,51,266,,09,31,048,,27,19,320,*6E
$BDGSV,3,2,12,26,18,094,,05,17,122,,11,13,176,,16,12,040,19*62
$BDGSV,3,3,12,06,09,039,,21,07,071,16,24,04,137,,02,01,101,*6F
$GNRMC,154412.000,A,4900.7841,N,00825.4833,E,0.429,33.13,280721,,,A*70
$GNVTG,33.13,T,,M,0.429,N,0.795,K,A*15
+GPSRD:$GNGGA,154417.000,4900.7839,N,00825.4828,E,1,7,2.90,131.9,M,47.9,M,,*4D
$GPGSA,A,3,21,01,22,31,03,,,,,,,,3.03,2.90,0.88*0A
$BDGSA,A,3,21,16,,,,,,,,,,,3.03,2.90,0.88*1C
$GPGSV,3,1,11,04,70,181,,03,63,072,25,22,43,089,24,19,38,274,*76
$GPGSV,3,2,11,09,36,215,,01,35,145,26,17,35,244,,06,27,310,*72
$GPGSV,3,3,11,31,23,052,17,21,17,146,20,12,01,337,*4A
$BDGSV,3,1,12,14,82,028,12,28,51,266,,09,31,048,,27,19,320,*68
$BDGSV,3,2,12,26,18,094,,05,17,122,,11,13,176,,16,12,040,19*62
$BDGSV,3,3,12,06,09,039,,21,07,071,15,24,04,137,,02,01,101,*6C
$GNRMC,154417.000,A,4900.7839,N,00825.4828,E,1.203,299.60,280721,,,A*49
$GNVTG,299.60,T,,M,1.203,N,2.229,K,A*2C
+GPSRD:$GNGGA,154422.000,4900.7829,N,00825.4842,E,1,7,2.90,132.1,M,47.9,M,,*4D
$GPGSA,A,3,21,01,22,31,03,,,,,,,,3.03,2.90,0.88*0A
$BDGSA,A,3,21,16,,,,,,,,,,,3.03,2.90,0.88*1C
$GPGSV,3,1,11,04,71,181,,03,63,072,27,22,43,089,24,19,38,274,*75
$GPGSV,3,2,11,09,36,215,,01,35,145,26,17,35,244,,06,27,310,*72
$GPGSV,3,3,11,31,23,052,18,21,17,146,22,12,01,337,*47
$BDGSV,3,1,12,14,82,028,12,28,51,266,,09,31,048,,27,19,320,*68
$BDGSV,3,2,12,26,18,094,,05,17,122,,11,13,176,,16,12,040,19*62
$BDGSV,3,3,12,06,09,039,,21,07,071,16,24,04,137,,02,01,101,*6F
$GNRMC,154422.000,A,4900.7829,N,00825.4842,E,0.391,220.94,280721,,,A*40
$GNVTG,220.94,T,,M,0.391,N,0.725,K,A*25
+GPSRD:$GNGGA,154427.000,4900.7828,N,00825.4852,E,1,7,2.90,131.8,M,47.9,M,,*42
$GPGSA,A,3,21,01,22,31,03,,,,,,,,3.03,2.90,0.88*0A
$BDGSA,A,3,21,16,,,,,,,,,,,3.03,2.90,0.88*1C
$GPGSV,3,1,11,04,71,181,17,03,63,072,27,22,43,089,24,19,38,274,*73
$GPGSV,3,2,11,09,36,215,,01,35,145,26,17,35,244,,06,27,310,*72
$GPGSV,3,3,11,31,23,052,18,21,17,146,22,12,01,337,*47
$BDGSV,3,1,12,14,82,028,,28,51,266,,09,31,048,,27,19,320,*6B
$BDGSV,3,2,12,26,18,094,,05,17,122,,11,13,176,,16,12,040,19*62
$BDGSV,3,3,12,06,09,039,,21,07,071,15,24,04,137,,02,01,101,*6C
$GNRMC,154427.000,A,4900.7828,N,00825.4852,E,0.493,328.95,280721,,,A*48
$GNVTG,328.95,T,,M,0.493,N,0.913,K,A*23
+GPSRD:$GNGGA,154432.000,4900.7823,N,00825.4862,E,1,7,2.90,131.6,M,47.9,M,,*40
$GPGSA,A,3,21,01,22,31,03,,,,,,,,3.03,2.90,0.88*0A
$BDGSA,A,3,21,16,,,,,,,,,,,3.03,2.90,0.88*1C
$GPGSV,3,1,11,04,71,181,18,03,63,072,26,22,43,089,24,19,38,274,*7D
$GPGSV,3,2,11,09,36,215,,01,35,145,26,17,35,244,,06,27,310,*72
$GPGSV,3,3,11,31,23,052,18,21,17,146,22,12,01,336,*46
$BDGSV,3,1,12,14,82,028,,28,51,266,,09,31,048,,27,19,320,*6B
$BDGSV,3,2,12,26,18,094,,05,17,122,,11,13,176,,16,12,040,19*62
$BDGSV,3,3,12,06,09,039,,21,07,071,16,24,04,137,,02,01,101,*6F
$GNRMC,154432.000,A,4900.7823,N,00825.4862,E,0.185,187.76,280721,,,A*4C
$GNVTG,187.76,T,,M,0.185,N,0.343,K,A*24
+GPSRD:$GNGGA,154437.000,4900.7817,N,00825.4838,E,1,7,2.90,131.4,M,47.9,M,,*4F
$GPGSA,A,3,21,01,22,31,03,,,,,,,,3.03,2.90,0.88*0A
$BDGSA,A,3,21,16,,,,,,,,,,,3.03,2.90,0.88*1C
$GPGSV,3,1,11,04,71,181,18,03,63,072,26,22,43,089,25,19,38,273,*7B
$GPGSV,3,2,11,09,36,215,,01,35,145,26,17,35,243,,06,27,310,*75
$GPGSV,3,3,11,31,23,052,19,21,17,146,23,12,01,336,*46
$BDGSV,3,1,12,14,82,028,,28,51,266,,09,31,048,,27,19,320,*6B
$BDGSV,3,2,12,26,18,094,,05,17,122,,11,13,176,,16,12,040,18*63
$BDGSV,3,3,12,06,09,039,,21,07,071,15,24,04,137,,02,01,101,*6C
$GNRMC,154437.000,A,4900.7817,N,00825.4838,E,0.241,207.89,280721,,,A*41
$GNVTG,207.89,T,,M,0.241,N,0.447,K,A*27
+GPSRD:$GNGGA,154442.000,4900.7807,N,00825.4827,E,1,7,2.90,131.3,M,47.9,M,,*45
$GPGSA,A,3,21,01,22,31,03,,,,,,,,3.03,2.90,0.88*0A
$BDGSA,A,3,21,16,,,,,,,,,,,3.03,2.90,0.88*1C
$GPGSV,3,1,11,04,71,181,17,03,63,072,26,22,42,089,26,19,38,273,*76
$GPGSV,3,2,11,09,36,215,,01,35,145,26,17,35,243,,06,27,310,*75
$GPGSV,3,3,11,31,23,052,20,21,17,146,23,12,01,336,*4C
$BDGSV,3,1,12,14,82,028,,28,51,266,,09,31,048,,27,19,320,*6B
$BDGSV,3,2,12,26,18,094,,05,17,122,,11,13,176,,16,12,040,19*62
$BDGSV,3,3,12,06,09,039,,21,07,071,14,24,04,137,,02,01,101,*6D
$GNRMC,154442.000,A,4900.7807,N,00825.4827,E,0.511,194.31,280721,,,A*44
$GNVTG,194.31,T,,M,0.511,N,0.947,K,A*22
+GPSRD:$GNGGA,154447.000,4900.7811,N,00825.4788,E,1,7,2.90,131.0,M,47.9,M,,*4E
$GPGSA,A,3,21,01,22,31,03,,,,,,,,3.03,2.90,0.88*0A
$BDGSA,A,3,21,16,,,,,,,,,,,3.03,2.90,0.88*1C
$GPGSV,3,1,11,04,71,181,17,03,63,072,26,22,42,089,27,19,38,273,*77
$GPGSV,3,2,11,09,36,215,,01,35,145,26,17,35,243,,06,27,310,*75
$GPGSV,3,3,11,31,23,052,21,21,17,146,23,12,01,336,*4D
$BDGSV,3,1,12,14,82,028,,28,51,266,16,09,31,048,,27,19,320,*6C
$BDGSV,3,2,12,26,18,094,,05,17,122,,11,13,176,,16,12,040,19*62
$BDGSV,3,3,12,06,09,039,,21,07,071,15,24,04,137,,02,01,101,*6C
$GNRMC,154447.000,A,4900.7811,N,00825.4788,E,0.289,284.95,280721,,,A*46
$GNVTG,284.95,T,,M,0.289,N,0.536,K,A*22
+GPSRD:$GNGGA,154452.000,4900.7818,N,00825.4752,E,1,7,2.90,130.5,M,47.9,M,,*40
$GPGSA,A,3,21,01,22,31,03,,,,,,,,3.03,2.90,0.88*0A
$BDGSA,A,3,21,16,,,,,,,,,,,3.03,2.90,0.88*1C
$GPGSV,3,1,11,04,71,181,17,03,63,072,23,22,42,089,27,19,38,273,*72
$GPGSV,3,2,11,09,36,215,,01,35,145,26,17,35,243,,06,27,310,*75
$GPGSV,3,3,11,31,23,051,22,21,17,146,24,12,01,336,*4A
$BDGSV,3,1,12,14,82,028,,28,51,266,15,09,31,048,,27,19,320,*6F
$BDGSV,3,2,12,26,18,094,,05,17,122,,11,13,176,,16,12,040,19*62
$BDGSV,3,3,12,06,09,039,,21,07,071,15,24,04,137,,02,01,101,*6C
$GNRMC,154452.000,A,4900.7818,N,00825.4752,E,0.705,264.20,280721,,,A*4D
$GNVTG,264.20,T,,M,0.705,N,1.305,K,A*24
+GPSRD:$GNGGA,154457.000,4900.7819,N,00825.4734,E,1,7,2.90,130.6,M,47.9,M,,*47
$GPGSA,A,3,21,01,22,31,03,,,,,,,,3.03,2.90,0.88*0A
$BDGSA,A,3,21,16,,,,,,,,,,,3.03,2.90,0.88*1C
$GPGSV,3,1,11,04,71,181,17,03,63,072,20,22,42,089,26,19,38,273,*70
$GPGSV,3,2,11,09,36,215,,01,35,145,25,17,35,243,,06,27,310,*76
$GPGSV,3,3,11,31,23,051,23,21,17,146,24,12,01,336,*4B
$BDGSV,3,1,12,14,82,028,,28,51,266,14,09,31,048,,27,19,320,*6E
$BDGSV,3,2,12,26,18,094,,05,17,122,,11,13,176,,16,12,040,18*63
$BDGSV,3,3,12,06,09,039,,21,07,071,16,24,04,137,,02,01,101,*6F
$GNRMC,154457.000,A,4900.7819,N,00825.4734,E,0.347,312.10,280721,,,A*48
$GNVTG,312.10,T,,M,0.347,N,0.644,K,A*24
+GPSRD:$GNGGA,154502.000,4900.7827,N,00825.4710,E,1,7,2.90,131.5,M,47.9,M,,*4F
$GPGSA,A,3,21,01,22,31,03,,,,,,,,3.03,2.90,0.88*0A
$BDGSA,A,3,21,16,,,,,,,,,,,3.03,2.90,0.88*1C
$GPGSV,3,1,11,04,71,181,17,03,63,072,20,22,42,089,26,19,38,273,*70
$GPGSV,3,2,11,09,36,215,,01,35,145,25,17,35,243,,06,27,310,*76
$GPGSV,3,3,11,31,23,051,24,21,17,146,24,12,01,336,*4C
$BDGSV,3,1,12,14,82,028,,28,51,266,15,09,31,048,,27,19,320,*6F
$BDGSV,3,2,12,26,18,094,,05,17,122,,11,13,176,,16,12,040,18*63
$BDGSV,3,3,12,06,09,039,,21,07,071,15,24,04,137,,02,01,101,*6C
$GNRMC,154502.000,A,4900.7827,N,00825.4710,E,0.640,340.73,280721,,,A*42
$GNVTG,340.73,T,,M,0.640,N,1.185,K,A*2F
+GPSRD:$GNGGA,154507.000,4900.7833,N,00825.4622,E,1,7,2.90,132.2,M,47.9,M,,*4B
$GPGSA,A,3,21,01,22,31,03,,,,,,,,3.03,2.90,0.88*0A
$BDGSA,A,3,21,16,,,,,,,,,,,3.03,2.90,0.88*1C
$GPGSV,3,1,11,04,71,181,16,03,63,072,20,22,42,089,26,19,38,273,*71
$GPGSV,3,2,11,09,36,215,,01,35,145,26,17,35,243,,06,27,310,*75
$GPGSV,3,3,11,31,23,051,24,21,17,146,24,12,01,336,*4C
$BDGSV,3,1,12,14,82,031,,28,51,266,14,09,31,048,,27,19,320,*66
$BDGSV,3,2,12,26,18,094,,05,17,122,,11,13,176,,16,12,040,18*63
$BDGSV,3,3,12,06,09,039,,21,07,071,14,24,04,137,,02,01,101,*6D
$GNRMC,154507.000,A,4900.7833,N,00825.4622,E,1.776,275.70,280721,,,A*43
$GNVTG,275.70,T,,M,1.776,N,3.291,K,A*2A
