/2b5s/wÑë/"v¾r7r·Üs³£££oc™¿#‘Ò‘£#ÿ
SmartAQnet Scooter Sensors!
Initializing A9G...
Resp:

+CREG: 2

^STN: 37
+CIEV: "Complete the Charge",100%


----
Msg: Init Error!, Try again!
Msg: Check PWR and RESET of the A9G or SIM Serivices
Reseting A9G again...
Resp:

----
Resp:

+CREG: 2

^STN: 37
+CIEV: "Complete the Charge",100%

+CTZV:21/12/21,23:32:21,+01

+CREG: 1

A9/A9G
V02.02.20190915R
Ai_Thinker_Co._Ltd.
READY
----
Init Ready Done!
Resp:

----
Msg: SIM PIN Timeout!

*****Error No.0
Resp:
AT+CREG=1

OK
----
Msg: Netwoek Set!
Resp:
AT+CREG?

+CREG: 1
----
Msg: Network Registered!
Resp:
AT+GPS=1

OK
----
Msg: GPS Set!
Resp:
AT+CGATT=1

+CGATT:1

OK
----
Msg: PS Attached!
Resp:
AT+CGDCONT?

OK
----
Msg: Context Set!
Resp:
AT+CGDCONT=1,"IP","pinternet.interkom.de"

OK
----
Msg: Context Changed!
Resp:
AT+CGACT=1,1

OK
----
Msg: Context Selected!
Resp:
AT+CGACT?

+CGACT: 1, 1
----
Msg: Context is Correct!
Resp:
AT+CIPSTATUS
+CIPSTATUS:
STATE:IP INITIAL
----
Msg: Status INITIAL!
Resp:
AT+CIPSTART="TCP","api.thingspeak.com",80
CONNECT OK
----
Msg: Connected!
Resp:
AT+GPSRD=5

OK
----
Msg: GPS Read Set!
Msg: Getting data from GPS using AT Cmd
Resp:
$GNGGA,000016.263,4900.5098,N,00825.4555,E,0,0,,156.0,M,47.9,M,,*52
$GPGSA,A,1,,,,,,,,,,,,,,,*1E
$BDGSA,A,1,,,,,,,,,,,,,,,*0F
$GPGSV,1,1,00*79
$BDGSV,1,1,00*68
$GNRMC,000016.263,V,4900.5098,N,00825.4555,E,0.000,0.00,060180,,,N*50
$GNVTG,0.00,T,,M,0.000,N,0.000,K,N*2C
---
Msg: Getting data from GPS using AT done
Resp:
AT+GPSRD=0

OK
----
Msg: GPS Read Off!
Msg: Getting data from Sensors
Guru Meditation Error: Core  1 panic'ed (LoadProhibited). Exception was unhandled.
Core 1 register dump:
PC      : 0x400d22e4  PS      : 0x00060530  A0      : 0x800d1dca  A1      : 0x3ffb1f00  
A2      : 0x3ffc016c  A3      : 0x00000000  A4      : 0x00000000  A5      : 0x3ffc0a8c  
A6      : 0x00000000  A7      : 0x00000001  A8      : 0x800d6968  A9      : 0x3ffb1ef0  
A10     : 0x00000000  A11     : 0x3f4007dc  A12     : 0x0000012c  A13     : 0x3ffb1c50  
A14     : 0x0000000a  A15     : 0x00000012  SAR     : 0x0000000a  EXCCAUSE: 0x0000001c  
EXCVADDR: 0x00000000  LBEG    : 0x400014fd  LEND    : 0x4000150d  LCOUNT  : 0xffffffff  

ELF file SHA256: 0000000000000000

Backtrace: 0x400d22e4:0x3ffb1f00 0x400d1dc7:0x3ffb1f30 0x400d70a9:0x3ffb1fb0 0x40086d6d:0x3ffb1fd0

Rebooting...
Aµ)‚Î1¥Š!ícÕÝ1!Â…Õ!š¥ë!ÿ
SmartAQnet Scooter Sensors!
Initializing A9G...
Resp:

CLOSED

OK

----
Msg: Init Error!, Try again!
Msg: Check PWR and RESET of the A9G or SIM Serivices
Reseting A9G again...
Resp:
AT+RST=1

OK
----
Resp:

----
Msg: Init2 Error!
Msg: Check PWR and RESET of the A9G or SIM Serivices

*****Error No.0
Resp:

----
Msg: Netwrok Setting Timeout!

*****Error No.1
Resp:
AT+CREG=1

OK
----
Msg: Netwoek Set!
Resp:
AT+CREG?

+CREG: 1
----
Msg: Network Registered!
Resp:
AT+GPS=1

OK
----
Msg: GPS Set!
Resp:
AT+CGATT=1

+CGATT:1

OK
----
Msg: PS Attached!
Resp:
AT+CGDCONT?

OK
----
Msg: Context Set!
Resp:
AT+CGDCONT=1,"IP","pinternet.interkom.de"

OK
----
Msg: Context Changed!
Resp:
AT+CGACT=1,1

OK
----
Msg: Context Selected!
Resp:
AT+CGACT?

+CGACT: 1, 1
----
Msg: Context is Correct!
Resp:
AT+CIPSTATUS
+CIPSTATUS:
STATE:IP INITIAL
----
Msg: Status INITIAL!
Resp:
AT+CIPSTART="TCP","api.thingspeak.com",80
CONNECT OK
----
Msg: Connected!
Resp:
AT+GPSRD=5

OK
----
Msg: GPS Read Set!
Msg: Getting data from GPS using AT Cmd
Resp:
$GNGGA,000005.263,4900.5282,N,00825.4656,E,0,0,,152.7,M,47.9,M,,*5A
$GPGSA,A,1,,,,,,,,,,,,,,,*1E
$BDGSA,A,1,,,,,,,,,,,,,,,*0F
$GPGSV,1,1,00*79
$BDGSV,1,1,00*68
$GNRMC,000005.263,V,4900.5282,N,00825.4656,E,0.000,0.00,060180,,,N*5B
$GNVTG,0.00,T,,M,0.000,N,0.000,K,N*2C
---
Msg: Getting data from GPS using AT done
Resp:
AT+GPSRD=0

OK
----
Msg: GPS Read Off!
Msg: Getting data from Sensors
Guru Meditation Error: Core  1 panic'ed (LoadProhibited). Exception was unhandled.
Core 1 register dump:
PC      : 0x400d22e4  PS      : 0x00060530  A0      : 0x800d1dca  A1      : 0x3ffb1f00  
A2      : 0x3ffc016c  A3      : 0x00000000  A4      : 0x00000000  A5      : 0x3ffc0a8c  
A6      : 0x00000000  A7      : 0x00000001  A8      : 0x800d6968  A9      : 0x3ffb1ef0  
A10     : 0x00000000  A11     : 0x3f4007dc  A12     : 0x0000012c  A13     : 0x3ffb1c50  
A14     : 0x0000000a  A15     : 0x00000012  SAR     : 0x0000000a  EXCCAUSE: 0x0000001c  
EXCVADDR: 0x00000000  LBEG    : 0x400014fd  LEND    : 0x4000150d  LCOUNT  : 0xffffffff  

ELF file SHA256: 0000000000000000

Backtrace: 0x400d22e4:0x3ffb1f00 0x400d1dc7:0x3ffb1f30 0x400d70a9:0x3ffb1fb0 0x40086d6d:0x3ffb1fd0

Rebooting...
)¢
÷M(
çB‡BBŽ¥„çˆ!Y²Jý
SmartAQnet Scooter Sensors!
Initializing A9G...
/"r5wowÁë/"r¾rgr·Øc££££oc™»#‘Ò‘£#ÿ





2021-12-22T00:44:57+01:00 start 2021-12-22T07:48:00+01:00 end 7h4m=25,440s/1255=20s




SmartAQnet Scooter Sensors!
Initializing A9G...
Resp:

+CREG: 2

^STN: 37
+CTZV:21/12/21,23:44:36,+01
+CIEV: "Complete the Charge",100%


+CREG: 1

A9/A9G
V02.02.20190915R
Ai_Thinker_Co._Ltd.
READY
----
Init Ready Done!
Resp:

----
Resp:
AT

OK
----
Resp:
AT+CPIN?

+CPIN:READY
----
Msg: SIM PIN is ready!
Resp:
AT+CREG=1

OK
----
Msg: Netwoek Set!
Resp:
AT+CREG?

+CREG: 1
----
Msg: Network Registered!
Resp:
AT+GPS=1

OK
----
Msg: GPS Set!
Resp:
AT+CGATT=1

+CGATT:1

OK
----
Msg: PS Attached!
Resp:
AT+CGDCONT?

OK
----
Msg: Context Set!
Resp:
AT+CGDCONT=1,"IP","pinternet.interkom.de"

OK
----
Msg: Context Changed!
Resp:
AT+CGACT=1,1

OK
----
Msg: Context Selected!
Resp:
AT+CGACT?

+CGACT: 1, 1
----
Msg: Context is Correct!
Resp:
AT+CIPSTATUS
+CIPSTATUS:
STATE:IP INITIAL
----
Msg: Status INITIAL!
Resp:
AT+CIPSTART="TCP","api.thingspeak.com",80
CONNECT OK
----
Msg: Connected!
Resp:
AT+GPSRD=5

OK
----
Msg: GPS Read Set!
Msg: Getting data from GPS using AT Cmd
Resp:
$GNGGA,000028.263,4900.5282,N,00825.4656,E,0,0,,152.7,M,47.9,M,,*55
$GPGSA,A,1,,,,,,,,,,,,,,,*1E
$BDGSA,A,1,,,,,,,,,,,,,,,*0F
$GPGSV,1,1,00*79
$BDGSV,1,1,00*68
$GNRMC,000028.263,V,4900.5282,N,00825.4656,E,0.000,0.00,060180,,,N*54
$GNVTG,0.00,T,,M,0.000,N,0.000,K,N*2C
---
Msg: Getting data from GPS using AT done
Resp:
AT+GPSRD=0

OK
----
Msg: GPS Read Off!
Msg: Getting data from Sensors
Resp:
AT+CIPSEND

>
----
Msg: Send Started!
Resp:
GET https://api.thingspeak.com/update?api_key=AYKVFH212TKGNW2B&field1=29.42&field2=25.54&field3=1011.38&field4=16.60&field5=22.30&field6=$GNGGA,000028.263,4900.5282,N,00825.4656,E,0,0,,152.7,M,47.9,M,,*55

----
Resp:

OK



+CIPRCV,1:1
CLOSED
----
Msg: Send Completed!
Resp:
AT+CIPSTATUS
+CIPSTATUS:
STATE:CLOSED
----
Resp:
AT+CIPSTART="TCP","api.thingspeak.com",80
CONNECT OK
----
Msg: Connected!
Resp:
AT+GPSRD=5

OK
----
Msg: GPS Read Set!
Msg: Getting data from GPS using AT Cmd
Resp:
$GNGGA,000048.263,4900.5282,N,00825.4656,E,0,0,,152.7,M,47.9,M,,*53
$GPGSA,A,1,,,,,,,,,,,,,,,*1E
$BDGSA,A,1,,,,,,,,,,,,,,,*0F
$GPGSV,1,1,00*79
$BDGSV,1,1,00*68
$GNRMC,000048.263,V,4900.5282,N,00825.4656,E,0.000,0.00,060180,,,N*52
$GNVTG,0.00,T,,M,0.000,N,0.000,K,N*2C
---
Msg: Getting data from GPS using AT done
Resp:
AT+GPSRD=0

OK
----
Msg: GPS Read Off!
Msg: Getting data from Sensors
Resp:
AT+CIPSEND

>
----
Msg: Send Started!
Resp:
GET https://api.thingspeak.com/update?api_key=AYKVFH212TKGNW2B&field1=29.20&field2=25.59&field3=1011.37&field4=16.30&field5=22.30&field6=$GNGGA,000048.263,4900.5282,N,00825.4656,E,0,0,,152.7,M,47.9,M,,*53

----
Resp:

OK



+CIPRCV,1:2
CLOSED
----
Msg: Send Completed!
Resp:
AT+CIPSTATUS
+CIPSTATUS:
STATE:CLOSED
----
Resp:
AT+CIPSTART="TCP","api.thingspeak.com",80
CONNECT OK
----
Msg: Connected!
Resp:
AT+GPSRD=5

OK
----
Msg: GPS Read Set!
Msg: Getting data from GPS using AT Cmd
Resp:
$GNGGA,000108.263,4900.5282,N,00825.4656,E,0,0,,152.7,M,47.9,M,,*56
$GPGSA,A,1,,,,,,,,,,,,,,,*1E
$BDGSA,A,1,,,,,,,,,,,,,,,*0F
$GPGSV,1,1,00*79
$BDGSV,1,1,00*68
$GNRMC,000108.263,V,4900.5282,N,00825.4656,E,0.000,0.00,060180,,,N*57
$GNVTG,0.00,T,,M,0.000,N,0.000,K,N*2C
---
Msg: Getting data from GPS using AT done
Resp:
AT+GPSRD=0

OK
----
Msg: GPS Read Off!
Msg: Getting data from Sensors
Resp:
AT+CIPSEND

>
----
Msg: Send Started!
Resp:
GET https://api.thingspeak.com/update?api_key=AYKVFH212TKGNW2B&field1=29.07&field2=25.49&field3=1011.37&field4=15.70&field5=23.50&field6=$GNGGA,000108.263,4900.5282,N,00825.4656,E,0,0,,152.7,M,47.9,M,,*56

----
Resp:

OK



+CIPRCV,1:3
CLOSED
----
Msg: Send Completed!
Resp:
AT+CIPSTATUS
+CIPSTATUS:
STATE:CLOSED
----
Resp:
AT+CIPSTART="TCP","api.thingspeak.com",80
CONNECT OK
----
Msg: Connected!
Resp:
AT+GPSRD=5

OK
----
Msg: GPS Read Set!
Msg: Getting data from GPS using AT Cmd
Resp:
$GNGGA,000128.263,4900.5282,N,00825.4656,E,0,0,,152.7,M,47.9,M,,*54
$GPGSA,A,1,,,,,,,,,,,,,,,*1E
$BDGSA,A,1,,,,,,,,,,,,,,,*0F
$GPGSV,1,1,00*79
$BDGSV,1,1,00*68
$GNRMC,000128.263,V,4900.5282,N,00825.4656,E,0.000,0.00,060180,,,N*55
$GNVTG,0.00,T,,M,0.000,N,0.000,K,N*2C
---
Msg: Getting data from GPS using AT done
Resp:
AT+GPSRD=0

OK
----
Msg: GPS Read Off!
Msg: Getting data from Sensors
Resp:
AT+CIPSEND

>
----
Msg: Send Started!
Resp:
GET https://api.thingspeak.com/update?api_key=AYKVFH212TKGNW2B&field1=28.99&field2=25.40&field3=1011.36&field4=15.30&field5=21.10&field6=$GNGGA,000128.263,4900.5282,N,00825.4656,E,0,0,,152.7,M,47.9,M,,*54

----
Resp:

OK



+CIPRCV,1:4
CLOSED
----
Msg: Send Completed!
Resp:
AT+CIPSTATUS
+CIPSTATUS:
STATE:CLOSED
----
Resp:
AT+CIPSTART="TCP","api.thingspeak.com",80
CONNECT OK
----
Msg: Connected!
Resp:
AT+GPSRD=5

OK
----
Msg: GPS Read Set!
Msg: Getting data from GPS using AT Cmd
Resp:
$GNGGA,000148.263,4900.5282,N,00825.4656,E,0,0,,152.7,M,47.9,M,,*52
$GPGSA,A,1,,,,,,,,,,,,,,,*1E
$BDGSA,A,1,,,,,,,,,,,,,,,*0F
$GPGSV,1,1,00*79
$BDGSV,1,1,00*68
$GNRMC,000148.263,V,4900.5282,N,00825.4656,E,0.000,0.00,060180,,,N*53
$GNVTG,0.00,T,,M,0.000,N,0.000,K,N*2C
---
Msg: Getting data from GPS using AT done
Resp:
AT+GPSRD=0

OK
----
Msg: GPS Read Off!
Msg: Getting data from Sensors
Resp:
AT+CIPSEND

>
----
Msg: Send Started!
Resp:
GET https://api.thingspeak.com/update?api_key=AYKVFH212TKGNW2B&field1=28.94&field2=25.32&field3=1011.36&field4=16.00&field5=23.40&field6=$GNGGA,000148.263,4900.5282,N,00825.4656,E,0,0,,152.7,M,47.9,M,,*52

----
Resp:

OK

+CIPRCV,1:5


CLOSED
----
Msg: Send Completed!
Resp:
AT+CIPSTATUS
+CIPSTATUS:
STATE:CLOSED
----
Resp:
AT+CIPSTART="TCP","api.thingspeak.com",80
CONNECT OK
----
Msg: Connected!
Resp:
AT+GPSRD=5

OK
----
Msg: GPS Read Set!
Msg: Getting data from GPS using AT Cmd
Resp:
$GNGGA,000208.263,4900.5282,N,00825.4656,E,0,0,,152.7,M,47.9,M,,*55
$GPGSA,A,1,,,,,,,,,,,,,,,*1E
$BDGSA,A,1,,,,,,,,,,,,,,,*0F
$GPGSV,1,1,00*79
$BDGSV,1,1,00*68
$GNRMC,000208.263,V,4900.5282,N,00825.4656,E,0.000,0.00,060180,,,N*54
$GNVTG,0.00,T,,M,0.000,N,0.000,K,N*2C
---
Msg: Getting data from GPS using AT done
Resp:
AT+GPSRD=0

OK
----
Msg: GPS Read Off!
Msg: Getting data from Sensors
Resp:
AT+CIPSEND

>
----
Msg: Send Started!
Resp:
GET https://api.thingspeak.com/update?api_key=AYKVFH212TKGNW2B&field1=28.92&field2=25.29&field3=1011.36&field4=15.70&field5=20.30&field6=$GNGGA,000208.263,4900.5282,N,00825.4656,E,0,0,,152.7,M,47.9,M,,*55

----
Resp:

OK



+CIPRCV,1:6
CLOSED
----
Msg: Send Completed!
Resp:
AT+CIPSTATUS
+CIPSTATUS:
STATE:CLOSED
----
Resp:
AT+CIPSTART="TCP","api.thingspeak.com",80
CONNECT OK
----
Msg: Connected!
Resp:
AT+GPSRD=5

OK
----
Msg: GPS Read Set!
Msg: Getting data from GPS using AT Cmd
Resp:
$GNGGA,000228.263,4900.5282,N,00825.4656,E,0,0,,152.7,M,47.9,M,,*57
$GPGSA,A,1,,,,,,,,,,,,,,,*1E
$BDGSA,A,1,,,,,,,,,,,,,,,*0F
$GPGSV,1,1,00*79
$BDGSV,1,1,00*68
$GNRMC,000228.263,V,4900.5282,N,00825.4656,E,0.000,0.00,060180,,,N*56
$GNVTG,0.00,T,,M,0.000,N,0.000,K,N*2C
---
Msg: Getting data from GPS using AT done
Resp:
AT+GPSRD=0

OK
----
Msg: GPS Read Off!
Msg: Getting data from Sensors
Resp:
AT+CIPSEND

>
----
Msg: Send Started!
Resp:
GET https://api.thingspeak.com/update?api_key=AYKVFH212TKGNW2B&field1=28.92&field2=25.29&field3=1011.36&field4=15.80&field5=21.10&field6=$GNGGA,000228.263,4900.5282,N,00825.4656,E,0,0,,152.7,M,47.9,M,,*57

----
Resp:

OK



+CIPRCV,1:7
CLOSED
----
Msg: Send Completed!
Resp:
AT+CIPSTATUS
+CIPSTATUS:
STATE:CLOSED
----
Resp:
AT+CIPSTART="TCP","api.thingspeak.com",80
CONNECT OK
----
Msg: Connected!
Resp:
AT+GPSRD=5

OK
----
Msg: GPS Read Set!
Msg: Getting data from GPS using AT Cmd
Resp:
$GNGGA,000248.263,4900.5282,N,00825.4656,E,0,0,,152.7,M,47.9,M,,*51
$GPGSA,A,1,,,,,,,,,,,,,,,*1E
$BDGSA,A,1,,,,,,,,,,,,,,,*0F
$GPGSV,1,1,00*79
$BDGSV,1,1,00*68
$GNRMC,000248.263,V,4900.5282,N,00825.4656,E,0.000,0.00,060180,,,N*50
$GNVTG,0.00,T,,M,0.000,N,0.000,K,N*2C
---
Msg: Getting data from GPS using AT done
Resp:
AT+GPSRD=0

OK
----
Msg: GPS Read Off!
Msg: Getting data from Sensors
Resp:
AT+CIPSEND

>
----
Msg: Send Started!
Resp:
GET https://api.thingspeak.com/update?api_key=AYKVFH212TKGNW2B&field1=28.93&field2=25.29&field3=1011.35&field4=15.30&field5=18.40&field6=$GNGGA,000248.263,4900.5282,N,00825.4656,E,0,0,,152.7,M,47.9,M,,*51

----
Resp:

OK



+CIPRCV,1:8
CLOSED
----
Msg: Send Completed!
Resp:
AT+CIPSTATUS
+CIPSTATUS:
STATE:CLOSED
----
Resp:
AT+CIPSTART="TCP","api.thingspeak.com",80
CONNECT OK
----
Msg: Connected!
Resp:
AT+GPSRD=5

OK
----
Msg: GPS Read Set!
Msg: Getting data from GPS using AT Cmd
Resp:
$GNGGA,000308.263,4900.5282,N,00825.4656,E,0,0,,152.7,M,47.9,M,,*54
$GPGSA,A,1,,,,,,,,,,,,,,,*1E
$BDGSA,A,1,,,,,,,,,,,,,,,*0F
$GPGSV,1,1,00*79
$BDGSV,1,1,00*68
$GNRMC,000308.263,V,4900.5282,N,00825.4656,E,0.000,0.00,060180,,,N*55
$GNVTG,0.00,T,,M,0.000,N,0.000,K,N*2C
---
Msg: Getting data from GPS using AT done
Resp:
AT+GPSRD=0

OK
----
Msg: GPS Read Off!
Msg: Getting data from Sensors
Resp:
AT+CIPSEND

>
----
Msg: Send Started!
Resp:
GET https://api.thingspeak.com/update?api_key=AYKVFH212TKGNW2B&field1=28.94&field2=25.28&field3=1011.35&field4=16.10&field5=18.00&field6=$GNGGA,000308.263,4900.5282,N,00825.4656,E,0,0,,152.7,M,47.9,M,,*54

----
Resp:

OK

+CIPRCV,1:9


CLOSED
----
Msg: Send Completed!
Resp:
AT+CIPSTATUS
+CIPSTATUS:
STATE:CLOSED
----
Resp:
AT+CIPSTART="TCP","api.thingspeak.com",80
CONNECT OK
----
Msg: Connected!
Resp:
AT+GPSRD=5

OK
----
Msg: GPS Read Set!
Msg: Getting data from GPS using AT Cmd
Resp:
$GNGGA,000328.263,4900.5282,N,00825.4656,E,0,0,,152.7,M,47.9,M,,*56
$GPGSA,A,1,,,,,,,,,,,,,,,*1E
$BDGSA,A,1,,,,,,,,,,,,,,,*0F
$GPGSV,1,1,00*79
$BDGSV,1,1,00*68
$GNRMC,000328.263,V,4900.5282,N,00825.4656,E,0.000,0.00,060180,,,N*57
$GNVTG,0.00,T,,M,0.000,N,0.000,K,N*2C
---
Msg: Getting data from GPS using AT done
Resp:
AT+GPSRD=0

OK
----
Msg: GPS Read Off!
Msg: Getting data from Sensors
Resp:
AT+CIPSEND

>
----
Msg: Send Started!
Resp:
GET https://api.thingspeak.com/update?api_key=AYKVFH212TKGNW2B&field1=28.97&field2=25.25&field3=1011.34&field4=15.80&field5=20.40&field6=$GNGGA,000328.263,4900.5282,N,00825.4656,E,0,0,,152.7,M,47.9,M,,*56

----
Resp:

OK



+CIPRCV,2:10
CLOSED
----
Msg: Send Completed!
Resp:
AT+CIPSTATUS
+CIPSTATUS:
STATE:CLOSED
----
Resp:
AT+CIPSTART="TCP","api.thingspeak.com",80
CONNECT OK
----
Msg: Connected!
Resp:
AT+GPSRD=5

OK
----
Msg: GPS Read Set!
Msg: Getting data from GPS using AT Cmd
Resp:
$GNGGA,000348.263,4900.5282,N,00825.4656,E,0,0,,152.7,M,47.9,M,,*50
$GPGSA,A,1,,,,,,,,,,,,,,,*1E
$BDGSA,A,1,,,,,,,,,,,,,,,*0F
$GPGSV,1,1,00*79
$BDGSV,1,1,00*68
$GNRMC,000348.263,V,4900.5282,N,00825.4656,E,0.000,0.00,060180,,,N*51
$GNVTG,0.00,T,,M,0.000,N,0.000,K,N*2C
---
Msg: Getting data from GPS using AT done
Resp:
AT+GPSRD=0

OK
----
Msg: GPS Read Off!
Msg: Getting data from Sensors
Resp:
AT+CIPSEND

>
----
Msg: Send Started!
Resp:
GET https://api.thingspeak.com/update?api_key=AYKVFH212TKGNW2B&field1=28.99&field2=25.21&field3=1011.34&field4=15.70&field5=19.10&field6=$GNGGA,000348.263,4900.5282,N,00825.4656,E,0,0,,152.7,M,47.9,M,,*50

----
Resp:

OK

+CIPRCV,2:11


CLOSED
----
Msg: Send Completed!
Resp:
AT+CIPSTATUS
+CIPSTATUS:
STATE:CLOSED
----
Resp:
AT+CIPSTART="TCP","api.thingspeak.com",80
CONNECT OK
----
Msg: Connected!
Resp:
AT+GPSRD=5

OK
----
Msg: GPS Read Set!
Msg: Getting data from GPS using AT Cmd
Resp:
$GNGGA,000408.263,4900.5282,N,00825.4656,E,0,0,,152.7,M,47.9,M,,*53
$GPGSA,A,1,,,,,,,,,,,,,,,*1E
$BDGSA,A,1,,,,,,,,,,,,,,,*0F
$GPGSV,1,1,00*79
$BDGSV,1,1,00*68
$GNRMC,000408.263,V,4900.5282,N,00825.4656,E,0.000,0.00,060180,,,N*52
$GNVTG,0.00,T,,M,0.000,N,0.000,K,N*2C
---
Msg: Getting data from GPS using AT done
Resp:
AT+GPSRD=0

OK
----
Msg: GPS Read Off!
Msg: Getting data from Sensors
Resp:
AT+CIPSEND

>
----
Msg: Send Started!
Resp:
GET https://api.thingspeak.com/update?api_key=AYKVFH212TKGNW2B&field1=29.02&field2=25.18&field3=1011.34&field4=15.70&field5=19.20&field6=$GNGGA,000408.263,4900.5282,N,00825.4656,E,0,0,,152.7,M,47.9,M,,*53

----
Resp:

OK



+CIPRCV,2:12
CLOSED
----
Msg: Send Completed!
Resp:
AT+CIPSTATUS
+CIPSTATUS:
STATE:CLOSED
----
Resp:
AT+CIPSTART="TCP","api.thingspeak.com",80
CONNECT OK
----
Msg: Connected!
Resp:
AT+GPSRD=5

OK
----
Msg: GPS Read Set!
Msg: Getting data from GPS using AT Cmd
Resp:
$GNGGA,000428.263,4900.5282,N,00825.4656,E,0,0,,152.7,M,47.9,M,,*51
$GPGSA,A,1,,,,,,,,,,,,,,,*1E
$BDGSA,A,1,,,,,,,,,,,,,,,*0F
$GPGSV,1,1,00*79
$BDGSV,1,1,00*68
$GNRMC,000428.263,V,4900.5282,N,00825.4656,E,0.000,0.00,060180,,,N*50
$GNVTG,0.00,T,,M,0.000,N,0.000,K,N*2C
---
Msg: Getting data from GPS using AT done
Resp:
AT+GPSRD=0

OK
----
Msg: GPS Read Off!
Msg: Getting data from Sensors
Resp:
AT+CIPSEND

>
----
Msg: Send Started!
Resp:
GET https://api.thingspeak.com/update?api_key=AYKVFH212TKGNW2B&field1=29.06&field2=25.19&field3=1011.34&field4=16.30&field5=19.50&field6=$GNGGA,000428.263,4900.5282,N,00825.4656,E,0,0,,152.7,M,47.9,M,,*51

----
Resp:

OK



+CIPRCV,2:13
CLOSED
----
Msg: Send Completed!
Resp:
AT+CIPSTATUS
+CIPSTATUS:
STATE:CLOSED
----
Resp:
AT+CIPSTART="TCP","api.thingspeak.com",80
CONNECT OK
----
Msg: Connected!
Resp:
AT+GPSRD=5

OK
----
Msg: GPS Read Set!
Msg: Getting data from GPS using AT Cmd
Resp:
$GNGGA,000448.263,4900.5282,N,00825.4656,E,0,0,,152.7,M,47.9,M,,*57
$GPGSA,A,1,,,,,,,,,,,,,,,*1E
$BDGSA,A,1,,,,,,,,,,,,,,,*0F
$GPGSV,1,1,00*79
$BDGSV,1,1,00*68
$GNRMC,000448.263,V,4900.5282,N,00825.4656,E,0.000,0.00,060180,,,N*56
$GNVTG,0.00,T,,M,0.000,N,0.000,K,N*2C
---
Msg: Getting data from GPS using AT done
Resp:
AT+GPSRD=0

OK
----
Msg: GPS Read Off!
Msg: Getting data from Sensors
Resp:
AT+CIPSEND

>
----
Msg: Send Started!
Resp:
GET https://api.thingspeak.com/update?api_key=AYKVFH212TKGNW2B&field1=29.09&field2=25.15&field3=1011.35&field4=17.30&field5=20.90&field6=$GNGGA,000448.263,4900.5282,N,00825.4656,E,0,0,,152.7,M,47.9,M,,*57

----
Resp:

OK



+CIPRCV,2:14
CLOSED
----
Msg: Send Completed!
Resp:
AT+CIPSTATUS
+CIPSTATUS:
STATE:CLOSED
----
Resp:
AT+CIPSTART="TCP","api.thingspeak.com",80
CONNECT OK
----
Msg: Connected!
Resp:
AT+GPSRD=5

OK
----
Msg: GPS Read Set!
Msg: Getting data from GPS using AT Cmd
Resp:
$GNGGA,000508.263,4900.5282,N,00825.4656,E,0,0,,152.7,M,47.9,M,,*52
$GPGSA,A,1,,,,,,,,,,,,,,,*1E
$BDGSA,A,1,,,,,,,,,,,,,,,*0F
$GPGSV,1,1,00*79
$BDGSV,1,1,00*68
$GNRMC,000508.263,V,4900.5282,N,00825.4656,E,0.000,0.00,060180,,,N*53
$GNVTG,0.00,T,,M,0.000,N,0.000,K,N*2C
---
Msg: Getting data from GPS using AT done
Resp:
AT+GPSRD=0

OK
----
Msg: GPS Read Off!
Msg: Getting data from Sensors
Resp:
AT+CIPSEND

>
----
Msg: Send Started!
Resp:
GET https://api.thingspeak.com/update?api_key=AYKVFH212TKGNW2B&field1=29.13&field2=25.13&field3=1011.35&field4=17.10&field5=25.10&field6=$GNGGA,000508.263,4900.5282,N,00825.4656,E,0,0,,152.7,M,47.9,M,,*52

----
Resp:

OK



+CIPRCV,2:15
CLOSED
----
Msg: Send Completed!
Resp:
AT+CIPSTATUS
+CIPSTATUS:
STATE:CLOSED
----
Resp:
AT+CIPSTART="TCP","api.thingspeak.com",80
CONNECT OK
----
Msg: Connected!
Resp:
AT+GPSRD=5

OK
----
Msg: GPS Read Set!
Msg: Getting data from GPS using AT Cmd
Resp:
$GNGGA,000528.263,4900.5282,N,00825.4656,E,0,0,,152.7,M,47.9,M,,*50
$GPGSA,A,1,,,,,,,,,,,,,,,*1E
$BDGSA,A,1,,,,,,,,,,,,,,,*0F
$GPGSV,1,1,00*79
$BDGSV,1,1,00*68
$GNRMC,000528.263,V,4900.5282,N,00825.4656,E,0.000,0.00,060180,,,N*51
$GNVTG,0.00,T,,M,0.000,N,0.000,K,N*2C
---
Msg: Getting data from GPS using AT done
Resp:
AT+GPSRD=0

OK
----
Msg: GPS Read Off!
Msg: Getting data from Sensors
Resp:
AT+CIPSEND

>
----
Msg: Send Started!
Resp:
GET https://api.thingspeak.com/update?api_key=AYKVFH212TKGNW2B&field1=29.17&field2=25.09&field3=1011.34&field4=16.40&field5=21.00&field6=$GNGGA,000528.263,4900.5282,N,00825.4656,E,0,0,,152.7,M,47.9,M,,*50

----
Resp:

OK



+CIPRCV,2:16
CLOSED
----
Msg: Send Completed!
Resp:
AT+CIPSTATUS
+CIPSTATUS:
STATE:CLOSED
----
Resp:
AT+CIPSTART="TCP","api.thingspeak.com",80
CONNECT OK
----
Msg: Connected!
Resp:
AT+GPSRD=5

OK
----
Msg: GPS Read Set!
Msg: Getting data from GPS using AT Cmd
Resp:
$GNGGA,000548.263,4900.5282,N,00825.4656,E,0,0,,152.7,M,47.9,M,,*56
$GPGSA,A,1,,,,,,,,,,,,,,,*1E
$BDGSA,A,1,,,,,,,,,,,,,,,*0F
$GPGSV,1,1,00*79
$BDGSV,1,1,00*68
$GNRMC,000548.263,V,4900.5282,N,00825.4656,E,0.000,0.00,060180,,,N*57
$GNVTG,0.00,T,,M,0.000,N,0.000,K,N*2C
---
Msg: Getting data from GPS using AT done
Resp:
AT+GPSRD=0

OK
----
Msg: GPS Read Off!
Msg: Getting data from Sensors
Resp:
AT+CIPSEND

>
----
Msg: Send Started!
Resp:
GET https://api.thingspeak.com/update?api_key=AYKVFH212TKGNW2B&field1=29.20&field2=25.10&field3=1011.34&field4=15.50&field5=25.10&field6=$GNGGA,000548.263,4900.5282,N,00825.4656,E,0,0,,152.7,M,47.9,M,,*56

----
Resp:

OK



+CIPRCV,2:17
CLOSED
----
Msg: Send Completed!
Resp:
AT+CIPSTATUS
+CIPSTATUS:
STATE:CLOSED
----
Resp:
AT+CIPSTART="TCP","api.thingspeak.com",80
CONNECT OK
----
Msg: Connected!
Resp:
AT+GPSRD=5

OK
----
Msg: GPS Read Set!
Msg: Getting data from GPS using AT Cmd
Resp:
$GNGGA,000608.263,4900.5282,N,00825.4656,E,0,0,,152.7,M,47.9,M,,*51
$GPGSA,A,1,,,,,,,,,,,,,,,*1E
$BDGSA,A,1,,,,,,,,,,,,,,,*0F
$GPGSV,1,1,00*79
$BDGSV,1,1,00*68
$GNRMC,000608.263,V,4900.5282,N,00825.4656,E,0.000,0.00,060180,,,N*50
$GNVTG,0.00,T,,M,0.000,N,0.000,K,N*2C
---
Msg: Getting data from GPS using AT done
Resp:
AT+GPSRD=0

OK
----
Msg: GPS Read Off!
Msg: Getting data from Sensors
Resp:
AT+CIPSEND

>
----
Msg: Send Started!
Resp:
GET https://api.thingspeak.com/update?api_key=AYKVFH212TKGNW2B&field1=29.24&field2=25.04&field3=1011.34&field4=16.30&field5=23.00&field6=$GNGGA,000608.263,4900.5282,N,00825.4656,E,0,0,,152.7,M,47.9,M,,*51

----
Resp:

OK



+CIPRCV,2:18
CLOSED
----
Msg: Send Completed!
Resp:
AT+CIPSTATUS
+CIPSTATUS:
STATE:CLOSED
----
Resp:
AT+CIPSTART="TCP","api.thingspeak.com",80
CONNECT OK
----
Msg: Connected!
Resp:
AT+GPSRD=5

OK
----
Msg: GPS Read Set!
Msg: Getting data from GPS using AT Cmd
Resp:
$GNGGA,000628.263,4900.5282,N,00825.4656,E,0,0,,152.7,M,47.9,M,,*53
$GPGSA,A,1,,,,,,,,,,,,,,,*1E
$BDGSA,A,1,,,,,,,,,,,,,,,*0F
$GPGSV,1,1,00*79
$BDGSV,1,1,00*68
$GNRMC,000628.263,V,4900.5282,N,00825.4656,E,0.000,0.00,060180,,,N*52
$GNVTG,0.00,T,,M,0.000,N,0.000,K,N*2C
---
Msg: Getting data from GPS using AT done
Resp:
AT+GPSRD=0

OK
----
Msg: GPS Read Off!
Msg: Getting data from Sensors
Resp:
AT+CIPSEND

>
----
Msg: Send Started!
Resp:
GET https://api.thingspeak.com/update?api_key=AYKVFH212TKGNW2B&field1=29.28&field2=24.95&field3=1011.34&field4=16.30&field5=26.10&field6=$GNGGA,000628.263,4900.5282,N,00825.4656,E,0,0,,152.7,M,47.9,M,,*53

----
Resp:

OK



+CIPRCV,2:19
CLOSED
----
Msg: Send Completed!
Resp:
AT+CIPSTATUS
+CIPSTATUS:
STATE:CLOSED
----
Resp:
AT+CIPSTART="TCP","api.thingspeak.com",80
CONNECT OK
----
Msg: Connected!
Resp:
AT+GPSRD=5

OK
----
Msg: GPS Read Set!
Msg: Getting data from GPS using AT Cmd
Resp:
$GNGGA,000648.012,4900.5282,N,00825.4656,E,0,0,,152.7,M,47.9,M,,*51
$GPGSA,A,1,,,,,,,,,,,,,,,*1E
$BDGSA,A,1,,,,,,,,,,,,,,,*0F
$GPGSV,1,1,01,10,,,28*73
$BDGSV,1,1,00*68
$GNRMC,000648.012,V,4900.5282,N,00825.4656,E,0.000,0.00,060180,,,N*50
$GNVTG,0.00,T,,M,0.000,N,0.000,K,N*2C
---
Msg: Getting data from GPS using AT done
Resp:
AT+GPSRD=0

OK
----
Msg: GPS Read Off!
Msg: Getting data from Sensors
Resp:
AT+CIPSEND

>
----
Msg: Send Started!
Resp:
GET https://api.thingspeak.com/update?api_key=AYKVFH212TKGNW2B&field1=29.31&field2=24.87&field3=1011.34&field4=15.80&field5=20.50&field6=$GNGGA,000648.012,4900.5282,N,00825.4656,E,0,0,,152.7,M,47.9,M,,*51

----
Resp:

OK



+CIPRCV,2:20
CLOSED
----
Msg: Send Completed!
Resp:
AT+CIPSTATUS
+CIPSTATUS:
STATE:CLOSED
----
Resp:
AT+CIPSTART="TCP","api.thingspeak.com",80
CONNECT OK
----
Msg: Connected!
Resp:
AT+GPSRD=5

OK
----
Msg: GPS Read Set!
Msg: Getting data from GPS using AT Cmd
Resp:
$GNGGA,235133.099,4900.5500,N,00825.4121,E,1,4,4.35,177.1,M,47.9,M,,*4F
$GPGSA,A,3,23,10,18,15,,,,,,,,,4.46,4.35,0.97*05
$BDGSA,A,3,,,,,,,,,,,,,4.46,4.35,0.97*19
$GPGSV,3,1,11,27,81,314,,10,59,128,27,16,49,198,,23,48,068,20*79
$GPGSV,3,2,11,08,46,299,,18,20,065,17,21,20,253,,26,17,177,*78
$GPGSV,3,3,11,15,09,038,18,30,06,329,,13,02,012,*48
$BDGSV,1,1,00*68
$GNRMC,235133.099,A,4900.5500,N,00825.4121,E,1.014,116.29,211221,,,A*4B
$GNVTG,116.29,T,,M,1.014,N,1.880,K,A*2B
---
Msg: Getting data from GPS using AT done
Resp:
AT+GPSRD=0

OK
----
Msg: GPS Read Off!
Msg: Getting data from Sensors
Resp:
AT+CIPSEND

>
----
Msg: Send Started!
Resp:
GET https://api.thingspeak.com/update?api_key=AYKVFH212TKGNW2B&field1=29.33&field2=24.87&field3=1011.34&field4=14.60&field5=19.00&field6=$GNGGA,235133.099,4900.5500,N,00825.4121,E,1,4,4.35,177.1,M,47.9,M,,*4F

----
Resp:

OK



+CIPRCV,2:21
CLOSED
----
Msg: Send Completed!
Resp:
AT+CIPSTATUS
+CIPSTATUS:
STATE:CLOSED
----
Resp:
AT+CIPSTART="TCP","api.thingspeak.com",80
CONNECT OK
----
Msg: Connected!
Resp:
AT+GPSRD=5

OK
----
Msg: GPS Read Set!
Msg: Getting data from GPS using AT Cmd
Resp:
$GNGGA,235153.000,4900.5419,N,00825.4217,E,1,4,4.32,154.4,M,47.9,M,,*45
$GPGSA,A,3,23,10,18,15,,,,,,,,,4.43,4.32,0.97*07
$BDGSA,A,3,,,,,,,,,,,,,4.43,4.32,0.97*1B
$GPGSV,3,1,11,27,81,314,,10,59,128,25,16,49,198,,23,48,068,22*79
$GPGSV,3,2,11,08,46,299,,18,20,065,15,21,20,253,,26,17,177,*7A
$GPGSV,3,3,11,15,09,038,17,30,06,329,,13,02,012,*47
$BDGSV,1,1,00*68
$GNRMC,235153.000,A,4900.5419,N,00825.4217,E,2.672,109.28,211221,,,A*48
$GNVTG,109.28,T,,M,2.672,N,4.951,K,A*29
---
Msg: Getting data from GPS using AT done
Resp:
AT+GPSRD=0

OK
----
Msg: GPS Read Off!
Msg: Getting data from Sensors
Resp:
AT+CIPSEND

>
----
Msg: Send Started!
Resp:
GET https://api.thingspeak.com/update?api_key=AYKVFH212TKGNW2B&field1=29.36&field2=24.85&field3=1011.34&field4=14.90&field5=17.90&field6=$GNGGA,235153.000,4900.5419,N,00825.4217,E,1,4,4.32,154.4,M,47.9,M,,*45

----
Resp:

OK



+CIPRCV,2:22
CLOSED
----
Msg: Send Completed!
Resp:
AT+CIPSTATUS
+CIPSTATUS:
STATE:CLOSED
----
Resp:
AT+CIPSTART="TCP","api.thingspeak.com",80
CONNECT OK
----
Msg: Connected!
Resp:
AT+GPSRD=5

OK
----
Msg: GPS Read Set!
Msg: Getting data from GPS using AT Cmd
Resp:
$GNGGA,235214.000,4900.5335,N,00825.4154,E,1,4,4.28,140.3,M,47.9,M,,*41
$GPGSA,A,3,23,10,18,15,,,,,,,,,4.39,4.28,0.97*01
$BDGSA,A,3,,,,,,,,,,,,,4.39,4.28,0.97*1D
$GPGSV,3,1,11,27,81,314,,10,59,128,21,16,49,198,,23,48,068,18*74
$GPGSV,3,2,11,08,46,299,,18,20,065,15,21,20,253,,26,17,177,*7A
$GPGSV,3,3,11,15,09,038,16,30,06,329,,13,02,012,*46
$BDGSV,1,1,00*68
$GNRMC,235214.000,A,4900.5335,N,00825.4154,E,1.069,219.57,211221,,,A*40
$GNVTG,219.57,T,,M,1.069,N,1.981,K,A*24
---
Msg: Getting data from GPS using AT done
Resp:
AT+GPSRD=0

OK
----
Msg: GPS Read Off!
Msg: Getting data from Sensors
Resp:
AT+CIPSEND

>
----
Msg: Send Started!
Resp:
GET https://api.thingspeak.com/update?api_key=AYKVFH212TKGNW2B&field1=29.39&field2=24.85&field3=1011.34&field4=14.90&field5=17.80&field6=$GNGGA,235214.000,4900.5335,N,00825.4154,E,1,4,4.28,140.3,M,47.9,M,,*41

----
Resp:

OK



+CIPRCV,2:23
CLOSED
----
Msg: Send Completed!
Resp:
AT+CIPSTATUS
+CIPSTATUS:
STATE:CLOSED
----
Resp:
AT+CIPSTART="TCP","api.thingspeak.com",80
CONNECT OK
----
Msg: Connected!
Resp:
AT+GPSRD=5

OK
----
Msg: GPS Read Set!
Msg: Getting data from GPS using AT Cmd
Resp:
$GNGGA,235234.000,4900.5279,N,00825.4217,E,1,4,4.25,135.7,M,47.9,M,,*45
$GPGSA,A,3,23,10,18,15,,,,,,,,,4.36,4.25,0.97*03
$BDGSA,A,3,,,,,,,,,,,,,4.36,4.25,0.97*1F
$GPGSV,3,1,11,27,81,314,,10,59,128,21,16,49,198,,23,48,068,17*7B
$GPGSV,3,2,11,08,46,299,,18,20,065,16,21,20,253,,26,17,177,*79
$GPGSV,3,3,11,15,09,038,16,30,06,329,,13,02,012,*46
$BDGSV,1,1,00*68
$GNRMC,235234.000,A,4900.5279,N,00825.4217,E,1.431,96.51,211221,,,A*75
$GNVTG,96.51,T,,M,1.431,N,2.651,K,A*1F
---
Msg: Getting data from GPS using AT done
Resp:
AT+GPSRD=0

OK
----
Msg: GPS Read Off!
Msg: Getting data from Sensors
Resp:
AT+CIPSEND

>
----
Msg: Send Started!
Resp:
GET https://api.thingspeak.com/update?api_key=AYKVFH212TKGNW2B&field1=29.41&field2=24.83&field3=1011.34&field4=15.80&field5=18.10&field6=$GNGGA,235234.000,4900.5279,N,00825.4217,E,1,4,4.25,135.7,M,47.9,M,,*45

----
Resp:

OK



+CIPRCV,2:24
CLOSED
----
Msg: Send Completed!
Resp:
AT+CIPSTATUS
+CIPSTATUS:
STATE:CLOSED
----
Resp:
AT+CIPSTART="TCP","api.thingspeak.com",80
CONNECT OK
----
Msg: Connected!
Resp:
AT+GPSRD=5

OK
----
Msg: GPS Read Set!
Msg: Getting data from GPS using AT Cmd
Resp:
$GNGGA,235255.000,4900.5244,N,00825.4392,E,1,4,4.22,133.2,M,47.9,M,,*44
$GPGSA,A,3,23,10,18,15,,,,,,,,,4.33,4.22,0.97*01
$BDGSA,A,3,,,,,,,,,,,,,4.33,4.22,0.97*1D
$GPGSV,3,1,11,27,81,314,,10,59,127,24,16,49,198,,23,47,067,17*71
$GPGSV,3,2,11,08,47,299,,21,21,254,,18,20,065,13,26,17,177,*7B
$GPGSV,3,3,11,15,09,037,16,30,06,329,,13,02,012,*49
$BDGSV,1,1,00*68
$GNRMC,235255.000,A,4900.5244,N,00825.4392,E,1.338,120.34,211221,,,A*41
$GNVTG,120.34,T,,M,1.338,N,2.480,K,A*20
---
Msg: Getting data from GPS using AT done
Resp:
AT+GPSRD=0

OK
----
Msg: GPS Read Off!
Msg: Getting data from Sensors
Resp:
AT+CIPSEND

>
----
Msg: Send Started!
Resp:
GET https://api.thingspeak.com/update?api_key=AYKVFH212TKGNW2B&field1=29.44&field2=24.83&field3=1011.34&field4=15.80&field5=18.20&field6=$GNGGA,235255.000,4900.5244,N,00825.4392,E,1,4,4.22,133.2,M,47.9,M,,*44

----
Resp:

OK



+CIPRCV,2:25
CLOSED
----
Msg: Send Completed!
Resp:
AT+CIPSTATUS
+CIPSTATUS:
STATE:CLOSED
----
Resp:
AT+CIPSTART="TCP","api.thingspeak.com",80
CONNECT OK
----
Msg: Connected!
Resp:
AT+GPSRD=5

OK
----
Msg: GPS Read Set!
Msg: Getting data from GPS using AT Cmd
Resp:
$GNGGA,235316.000,4900.5164,N,00825.5094,E,0,3,,134.4,M,47.9,M,,*5A
$GPGSA,A,1,23,10,15,,,,,,,,,,,,*1A
$BDGSA,A,1,,,,,,,,,,,,,,,*0F
$GPGSV,3,1,11,27,82,315,,10,59,127,26,16,49,198,,23,47,067,16*70
$GPGSV,3,2,11,08,47,299,,21,21,254,,18,20,065,,26,16,177,*78
$GPGSV,3,3,11,15,09,037,18,30,06,329,,13,02,012,*47
$BDGSV,1,1,00*68
$GNRMC,235316.000,V,4900.5164,N,00825.5094,E,6.804,100.12,211221,,,N*5F
$GNVTG,100.12,T,,M,6.804,N,12.607,K,N*16
---
Msg: Getting data from GPS using AT done
Resp:
AT+GPSRD=0

OK
----
Msg: GPS Read Off!
Msg: Getting data from Sensors
Resp:
AT+CIPSEND

>
----
Msg: Send Started!
Resp:
GET https://api.thingspeak.com/update?api_key=AYKVFH212TKGNW2B&field1=29.46&field2=24.82&field3=1011.34&field4=16.10&field5=20.60&field6=$GNGGA,235316.000,4900.5164,N,00825.5094,E,0,3,,134.4,M,47.9,M,,*5A

----
Resp:

OK



+CIPRCV,2:26
CLOSED
----
Msg: Send Completed!
Resp:
AT+CIPSTATUS
+CIPSTATUS:
STATE:CLOSED
----
Resp:
AT+CIPSTART="TCP","api.thingspeak.com",80
CONNECT OK
----
Msg: Connected!
Resp:
AT+GPSRD=5

OK
----
Msg: GPS Read Set!
Msg: Getting data from GPS using AT Cmd
Resp:
$GNGGA,235336.000,4900.5338,N,00825.4093,E,0,3,,134.4,M,47.9,M,,*55
$GPGSA,A,1,23,10,15,,,,,,,,,,,,*1A
$BDGSA,A,1,,,,,,,,,,,,,,,*0F
$GPGSV,3,1,11,27,82,315,,10,59,127,27,16,49,198,,23,47,067,14*73
$GPGSV,3,2,11,08,47,299,,21,21,254,,18,20,065,,26,16,177,*78
$GPGSV,3,3,11,15,09,037,18,30,06,329,,13,02,012,*47
$BDGSV,1,1,00*68
$GNRMC,235336.000,V,4900.5338,N,00825.4093,E,2.842,276.92,211221,,,N*5C
$GNVTG,276.92,T,,M,2.842,N,5.266,K,N*2F
---
Msg: Getting data from GPS using AT done
Resp:
AT+GPSRD=0

OK
----
Msg: GPS Read Off!
Msg: Getting data from Sensors
Resp:
AT+CIPSEND

>
----
Msg: Send Started!
Resp:
GET https://api.thingspeak.com/update?api_key=AYKVFH212TKGNW2B&field1=29.48&field2=24.86&field3=1011.33&field4=15.30&field5=20.10&field6=$GNGGA,235336.000,4900.5338,N,00825.4093,E,0,3,,134.4,M,47.9,M,,*55

----
Resp:

OK



+CIPRCV,2:27
CLOSED
----
Msg: Send Completed!
Resp:
AT+CIPSTATUS
+CIPSTATUS:
STATE:CLOSED
----
Resp:
AT+CIPSTART="TCP","api.thingspeak.com",80
CONNECT OK
----
Msg: Connected!
Resp:
AT+GPSRD=5

OK
----
Msg: GPS Read Set!
Msg: Getting data from GPS using AT Cmd
Resp:
$GNGGA,235356.000,4900.5390,N,00825.3428,E,0,3,,134.2,M,47.9,M,,*54
$GPGSA,A,1,23,10,15,,,,,,,,,,,,*1A
$BDGSA,A,1,,,,,,,,,,,,,,,*0F
$GPGSV,3,1,11,27,82,315,,10,59,127,28,16,49,198,,23,47,067,18*70
$GPGSV,3,2,11,08,47,299,,21,21,254,,18,20,065,,26,16,177,*78
$GPGSV,3,3,11,15,09,037,16,30,06,329,,13,02,012,*49
$BDGSV,1,1,00*68
$GNRMC,235356.000,V,4900.5390,N,00825.3428,E,4.601,263.44,211221,,,N*5B
$GNVTG,263.44,T,,M,4.601,N,8.526,K,N*21
---
Msg: Getting data from GPS using AT done
Resp:
AT+GPSRD=0

OK
----
Msg: GPS Read Off!
Msg: Getting data from Sensors
Resp:
AT+CIPSEND

>
----
Msg: Send Started!
Resp:
GET https://api.thingspeak.com/update?api_key=AYKVFH212TKGNW2B&field1=29.51&field2=24.82&field3=1011.34&field4=14.50&field5=18.70&field6=$GNGGA,235356.000,4900.5390,N,00825.3428,E,0,3,,134.2,M,47.9,M,,*54

----
Resp:

OK



+CIPRCV,2:28
CLOSED
----
Msg: Send Completed!
Resp:
AT+CIPSTATUS
+CIPSTATUS:
STATE:CLOSED
----
Resp:
AT+CIPSTART="TCP","api.thingspeak.com",80
CONNECT OK
----
Msg: Connected!
Resp:
AT+GPSRD=5

OK
----
Msg: GPS Read Set!
Msg: Getting data from GPS using AT Cmd
Resp:
$GNGGA,235417.000,4900.5473,N,00825.3142,E,0,3,,133.7,M,47.9,M,,*57
$GPGSA,A,1,23,10,15,,,,,,,,,,,,*1A
$BDGSA,A,1,,,,,,,,,,,,,,,*0F
$GPGSV,3,1,10,10,59,126,26,16,48,198,,23,47,066,17,08,47,299,*70
$GPGSV,3,2,10,21,21,254,,18,19,065,,26,16,177,,15,09,037,15*77
$GPGSV,3,3,10,30,06,329,,13,02,011,*75
$BDGSV,1,1,00*68
$GNRMC,235417.000,V,4900.5473,N,00825.3142,E,3.570,295.00,211221,,,N*51
$GNVTG,295.00,T,,M,3.570,N,6.615,K,N*27
---
Msg: Getting data from GPS using AT done
Resp:
AT+GPSRD=0

OK
----
Msg: GPS Read Off!
Msg: Getting data from Sensors
Resp:
AT+CIPSEND

>
----
Msg: Send Started!
Resp:
GET https://api.thingspeak.com/update?api_key=AYKVFH212TKGNW2B&field1=29.53&field2=24.76&field3=1011.33&field4=14.20&field5=18.40&field6=$GNGGA,235417.000,4900.5473,N,00825.3142,E,0,3,,133.7,M,47.9,M,,*57

----
Resp:

OK



+CIPRCV,2:29
CLOSED
----
Msg: Send Completed!
Resp:
AT+CIPSTATUS
+CIPSTATUS:
STATE:CLOSED
----
Resp:
AT+CIPSTART="TCP","api.thingspeak.com",80
CONNECT OK
----
Msg: Connected!
Resp:
AT+GPSRD=5

OK
----
Msg: GPS Read Set!
Msg: Getting data from GPS using AT Cmd
Resp:
$GNGGA,235437.000,4900.5484,N,00825.3350,E,0,3,,133.3,M,47.9,M,,*58
$GPGSA,A,1,23,10,15,,,,,,,,,,,,*1A
$BDGSA,A,1,,,,,,,,,,,,,,,*0F
$GPGSV,3,1,10,10,59,126,26,16,48,198,,23,47,066,11,08,47,299,*76
$GPGSV,3,2,10,21,21,254,,18,19,065,,26,16,177,,15,09,037,16*74
$GPGSV,3,3,10,30,06,328,,13,02,011,*74
$BDGSV,1,1,00*68
$GNRMC,235437.000,V,4900.5484,N,00825.3350,E,1.858,68.13,211221,,,N*6D
$GNVTG,68.13,T,,M,1.858,N,3.443,K,N*14
---
Msg: Getting data from GPS using AT done
Resp:
AT+GPSRD=0

OK
----
Msg: GPS Read Off!
Msg: Getting data from Sensors
Resp:
AT+CIPSEND

>
----
Msg: Send Started!
Resp:
GET https://api.thingspeak.com/update?api_key=AYKVFH212TKGNW2B&field1=29.55&field2=24.77&field3=1011.33&field4=15.30&field5=19.60&field6=$GNGGA,235437.000,4900.5484,N,00825.3350,E,0,3,,133.3,M,47.9,M,,*58

----
Resp:

OK



+CIPRCV,2:30
CLOSED
----
Msg: Send Completed!
Resp:
AT+CIPSTATUS
+CIPSTATUS:
STATE:CLOSED
----
Resp:
AT+CIPSTART="TCP","api.thingspeak.com",80
CONNECT OK
----
Msg: Connected!
Resp:
AT+GPSRD=5

OK
----
Msg: GPS Read Set!
Msg: Getting data from GPS using AT Cmd
Resp:
$GNGGA,235457.000,4900.5326,N,00825.4156,E,1,4,4.04,135.1,M,47.9,M,,*4E
$GPGSA,A,3,23,18,10,15,,,,,,,,,4.15,4.04,0.97*01
$BDGSA,A,3,,,,,,,,,,,,,4.15,4.04,0.97*1D
$GPGSV,3,1,10,10,59,126,24,16,48,198,,23,47,066,16,08,47,299,*73
$GPGSV,3,2,10,21,21,254,,18,19,065,13,26,16,177,,15,09,037,17*77
$GPGSV,3,3,10,30,06,328,,13,02,011,*74
$BDGSV,1,1,00*68
$GNRMC,235457.000,A,4900.5326,N,00825.4156,E,3.153,121.71,211221,,,A*47
$GNVTG,121.71,T,,M,3.153,N,5.843,K,A*29
---
Msg: Getting data from GPS using AT done
Resp:
AT+GPSRD=0

OK
----
Msg: GPS Read Off!
Msg: Getting data from Sensors
Resp:
AT+CIPSEND

>
----
Msg: Send Started!
Resp:
GET https://api.thingspeak.com/update?api_key=AYKVFH212TKGNW2B&field1=29.57&field2=24.75&field3=1011.33&field4=15.60&field5=20.30&field6=$GNGGA,235457.000,4900.5326,N,00825.4156,E,1,4,4.04,135.1,M,47.9,M,,*4E

----
Resp:

OK



+CIPRCV,2:31
CLOSED
----
Msg: Send Completed!
Resp:
AT+CIPSTATUS
+CIPSTATUS:
STATE:CLOSED
----
Resp:
AT+CIPSTART="TCP","api.thingspeak.com",80
CONNECT OK
----
Msg: Connected!
Resp:
AT+GPSRD=5

OK
----
Msg: GPS Read Set!
Msg: Getting data from GPS using AT Cmd
Resp:
$GNGGA,235518.000,4900.5270,N,00825.3833,E,1,3,10.52,132.5,M,47.9,M,,*79
$GPGSA,A,2,23,10,15,,,,,,,,,,10.57,10.52,1.00*03
$BDGSA,A,2,,,,,,,,,,,,,10.57,10.52,1.00*16
$GPGSV,3,1,11,10,60,124,23,16,48,198,,08,48,299,,23,47,066,20*77
$GPGSV,3,2,11,37,32,162,,21,21,254,,18,19,065,,26,16,177,*7B
$GPGSV,3,3,11,15,09,037,18,30,06,328,,13,02,011,*45
$BDGSV,1,1,00*68
$GNRMC,235518.000,A,4900.5270,N,00825.3833,E,1.170,268.94,211221,,,A*44
$GNVTG,268.94,T,,M,1.170,N,2.168,K,A*28
---
Msg: Getting data from GPS using AT done
Resp:
AT+GPSRD=0

OK
----
Msg: GPS Read Off!
Msg: Getting data from Sensors
Resp:
AT+CIPSEND

>
----
Msg: Send Started!
Resp:
GET https://api.thingspeak.com/update?api_key=AYKVFH212TKGNW2B&field1=29.60&field2=24.74&field3=1011.33&field4=14.60&field5=19.40&field6=$GNGGA,235518.000,4900.5270,N,00825.3833,E,1,3,10.52,132.5,M,47.9,M,,*79

----
Resp:

OK



+CIPRCV,2:32
CLOSED
----
Msg: Send Completed!
Resp:
AT+CIPSTATUS
+CIPSTATUS:
STATE:CLOSED
----
Resp:
AT+CIPSTART="TCP","api.thingspeak.com",80
CONNECT OK
----
Msg: Connected!
Resp:
AT+GPSRD=5

OK
----
Msg: GPS Read Set!
Msg: Getting data from GPS using AT Cmd
Resp:
$GNGGA,235538.000,4900.5380,N,00825.3055,E,0,3,,129.9,M,47.9,M,,*52
$GPGSA,A,1,23,10,15,,,,,,,,,,,,*1A
$BDGSA,A,1,,,,,,,,,,,,,,,*0F
$GPGSV,3,1,10,10,60,124,22,16,48,197,,08,48,299,,23,47,065,21*7A
$GPGSV,3,2,10,21,22,254,,18,19,065,,26,15,176,,15,09,036,21*70
$GPGSV,3,3,10,30,06,328,,13,01,011,*77
$BDGSV,1,1,00*68
$GNRMC,235538.000,V,4900.5380,N,00825.3055,E,5.527,284.89,211221,,,N*54
$GNVTG,284.89,T,,M,5.527,N,10.242,K,N*13
---
Msg: Getting data from GPS using AT done
Resp:
AT+GPSRD=0

OK
----
Msg: GPS Read Off!
Msg: Getting data from Sensors
Resp:
AT+CIPSEND

>
----
Msg: Send Started!
Resp:
GET https://api.thingspeak.com/update?api_key=AYKVFH212TKGNW2B&field1=29.62&field2=24.73&field3=1011.32&field4=14.00&field5=21.60&field6=$GNGGA,235538.000,4900.5380,N,00825.3055,E,0,3,,129.9,M,47.9,M,,*52

----
Resp:

OK



+CIPRCV,2:33
CLOSED
----
Msg: Send Completed!
Resp:
AT+CIPSTATUS
+CIPSTATUS:
STATE:CLOSED
----
Resp:
AT+CIPSTART="TCP","api.thingspeak.com",80
CONNECT OK
----
Msg: Connected!
Resp:
AT+GPSRD=5

OK
----
Msg: GPS Read Set!
Msg: Getting data from GPS using AT Cmd
Resp:
$GNGGA,235558.000,4900.5323,N,00825.3237,E,0,3,,128.9,M,47.9,M,,*5A
$GPGSA,A,1,23,10,15,,,,,,,,,,,,*1A
$BDGSA,A,1,,,,,,,,,,,,,,,*0F
$GPGSV,3,1,10,10,60,124,20,16,48,197,,08,48,299,,23,47,065,21*78
$GPGSV,3,2,10,21,22,254,,18,19,065,,26,15,176,,15,09,036,22*73
$GPGSV,3,3,10,30,06,328,,13,01,011,*77
$BDGSV,1,1,00*68
$GNRMC,235558.000,V,4900.5323,N,00825.3237,E,0.484,293.70,211221,,,N*50
$GNVTG,293.70,T,,M,0.484,N,0.897,K,N*2D
---
Msg: Getting data from GPS using AT done
Resp:
AT+GPSRD=0

OK
----
Msg: GPS Read Off!
Msg: Getting data from Sensors
Resp:
AT+CIPSEND

>
----
Msg: Send Started!
Resp:
GET https://api.thingspeak.com/update?api_key=AYKVFH212TKGNW2B&field1=29.64&field2=24.69&field3=1011.33&field4=14.70&field5=20.50&field6=$GNGGA,235558.000,4900.5323,N,00825.3237,E,0,3,,128.9,M,47.9,M,,*5A

----
Resp:

OK



+CIPRCV,2:34
CLOSED
----
Msg: Send Completed!
Resp:
AT+CIPSTATUS
+CIPSTATUS:
STATE:CLOSED
----
Resp:
AT+CIPSTART="TCP","api.thingspeak.com",80
CONNECT OK
----
Msg: Connected!
Resp:
AT+GPSRD=5

OK
----
Msg: GPS Read Set!
Msg: Getting data from GPS using AT Cmd
Resp:
$GNGGA,235619.000,4900.5257,N,00825.3617,E,0,3,,128.6,M,47.9,M,,*57
$GPGSA,A,1,23,10,15,,,,,,,,,,,,*1A
$BDGSA,A,1,,,,,,,,,,,,,,,*0F
$GPGSV,3,1,10,10,60,124,24,16,48,197,,08,48,299,,23,47,065,19*77
$GPGSV,3,2,10,21,22,254,,18,19,065,,26,15,176,,15,09,036,22*73
$GPGSV,3,3,10,30,06,328,,13,01,011,*77
$BDGSV,1,1,00*68
$GNRMC,235619.000,V,4900.5257,N,00825.3617,E,2.594,93.23,211221,,,N*64
$GNVTG,93.23,T,,M,2.594,N,4.807,K,N*16
---
Msg: Getting data from GPS using AT done
Resp:
AT+GPSRD=0

OK
----
Msg: GPS Read Off!
Msg: Getting data from Sensors
Resp:
AT+CIPSEND

>
----
Msg: Send Started!
Resp:
GET https://api.thingspeak.com/update?api_key=AYKVFH212TKGNW2B&field1=29.66&field2=24.66&field3=1011.32&field4=15.80&field5=20.30&field6=$GNGGA,235619.000,4900.5257,N,00825.3617,E,0,3,,128.6,M,47.9,M,,*57

----
Resp:

OK



+CIPRCV,2:35
CLOSED
----
Msg: Send Completed!
Resp:
AT+CIPSTATUS
+CIPSTATUS:
STATE:CLOSED
----
Resp:
AT+CIPSTART="TCP","api.thingspeak.com",80
CONNECT OK
----
Msg: Connected!
Resp:
AT+GPSRD=5

OK
----
Msg: GPS Read Set!
Msg: Getting data from GPS using AT Cmd
Resp:
$GNGGA,235639.000,4900.5250,N,00825.4314,E,0,3,,128.5,M,47.9,M,,*50
$GPGSA,A,1,23,10,15,,,,,,,,,,,,*1A
$BDGSA,A,1,,,,,,,,,,,,,,,*0F
$GPGSV,3,1,10,10,60,123,28,08,49,299,,23,47,065,18,16,47,197,*73
$GPGSV,3,2,10,21,22,254,,18,19,065,,26,15,176,,15,09,036,23*72
$GPGSV,3,3,10,30,06,328,,13,01,010,*76
$BDGSV,1,1,00*68
$GNRMC,235639.000,V,4900.5250,N,00825.4314,E,6.604,99.90,211221,,,N*6C
$GNVTG,99.90,T,,M,6.604,N,12.236,K,N*25
---
Msg: Getting data from GPS using AT done
Resp:
AT+GPSRD=0

OK
----
Msg: GPS Read Off!
Msg: Getting data from Sensors
Resp:
AT+CIPSEND

>
----
Msg: Send Started!
Resp:
GET https://api.thingspeak.com/update?api_key=AYKVFH212TKGNW2B&field1=29.68&field2=24.66&field3=1011.31&field4=15.50&field5=17.30&field6=$GNGGA,235639.000,4900.5250,N,00825.4314,E,0,3,,128.5,M,47.9,M,,*50

----
Resp:

OK



+CIPRCV,2:36
CLOSED
----
Msg: Send Completed!
Resp:
AT+CIPSTATUS
+CIPSTATUS:
STATE:CLOSED
----
Resp:
AT+CIPSTART="TCP","api.thingspeak.com",80
CONNECT OK
----
Msg: Connected!
Resp:
AT+GPSRD=5

OK
----
Msg: GPS Read Set!
Msg: Getting data from GPS using AT Cmd
Resp:
$GNGGA,235659.000,4900.5226,N,00825.4908,E,0,3,,128.6,M,47.9,M,,*53
$GPGSA,A,1,23,10,15,,,,,,,,,,,,*1A
$BDGSA,A,1,,,,,,,,,,,,,,,*0F
$GPGSV,3,1,10,10,60,123,31,08,49,299,,16,47,197,,23,46,065,18*7A
$GPGSV,3,2,10,21,22,255,,18,18,065,,26,15,176,,15,09,036,23*72
$GPGSV,3,3,10,30,06,327,,13,01,010,*79
$BDGSV,1,1,00*68
$GNRMC,235659.000,V,4900.5226,N,00825.4908,E,5.670,99.88,211221,,,N*65
$GNVTG,99.88,T,,M,5.670,N,10.506,K,N*2A
---
Msg: Getting data from GPS using AT done
Resp:
AT+GPSRD=0

OK
----
Msg: GPS Read Off!
Msg: Getting data from Sensors
Resp:
AT+CIPSEND

>
----
Msg: Send Started!
Resp:
GET https://api.thingspeak.com/update?api_key=AYKVFH212TKGNW2B&field1=29.70&field2=24.65&field3=1011.30&field4=15.10&field5=19.70&field6=$GNGGA,235659.000,4900.5226,N,00825.4908,E,0,3,,128.6,M,47.9,M,,*53

----
Resp:

OK



+CIPRCV,2:37
CLOSED
----
Msg: Send Completed!
Resp:
AT+CIPSTATUS
+CIPSTATUS:
STATE:CLOSED
----
Resp:
AT+CIPSTART="TCP","api.thingspeak.com",80
CONNECT OK
----
Msg: Connected!
Resp:
AT+GPSRD=5

OK
----
Msg: GPS Read Set!
Msg: Getting data from GPS using AT Cmd
Resp:
$GNGGA,235719.000,4900.5254,N,00825.4751,E,0,3,,128.7,M,47.9,M,,*50
$GPGSA,A,1,23,10,15,,,,,,,,,,,,*1A
$BDGSA,A,1,,,,,,,,,,,,,,,*0F
$GPGSV,3,1,10,10,60,123,32,08,49,299,,16,47,197,,23,46,065,17*76
$GPGSV,3,2,10,21,22,255,,18,18,065,,26,15,176,,15,09,036,24*75
$GPGSV,3,3,10,30,06,327,,13,01,010,*79
$BDGSV,1,1,00*68
$GNRMC,235719.000,V,4900.5254,N,00825.4751,E,2.746,95.32,211221,,,N*69
$GNVTG,95.32,T,,M,2.746,N,5.089,K,N*12
---
Msg: Getting data from GPS using AT done
Resp:
AT+GPSRD=0

OK
----
Msg: GPS Read Off!
Msg: Getting data from Sensors
Resp:
AT+CIPSEND

>
----
Msg: Send Started!
Resp:
GET https://api.thingspeak.com/update?api_key=AYKVFH212TKGNW2B&field1=29.72&field2=24.65&field3=1011.31&field4=15.30&field5=19.20&field6=$GNGGA,235719.000,4900.5254,N,00825.4751,E,0,3,,128.7,M,47.9,M,,*50

----
Resp:

OK



+CIPRCV,2:38
CLOSED
----
Msg: Send Completed!
Resp:
AT+CIPSTATUS
+CIPSTATUS:
STATE:CLOSED
----
Resp:
AT+CIPSTART="TCP","api.thingspeak.com",80
CONNECT OK
----
Msg: Connected!
Resp:
AT+GPSRD=5

OK
----
Msg: GPS Read Set!
Msg: Getting data from GPS using AT Cmd
Resp:
$GNGGA,235739.000,4900.5244,N,00825.4779,E,0,3,,128.8,M,47.9,M,,*56
$GPGSA,A,1,23,10,15,,,,,,,,,,,,*1A
$BDGSA,A,1,,,,,,,,,,,,,,,*0F
$GPGSV,3,1,10,10,60,123,32,08,49,299,,16,47,197,,23,46,065,16*77
$GPGSV,3,2,10,21,22,255,,18,18,065,,26,15,176,,15,09,036,23*72
$GPGSV,3,3,10,30,06,327,,13,01,010,*79
$BDGSV,1,1,00*68
$GNRMC,235739.000,V,4900.5244,N,00825.4779,E,0.929,70.50,211221,,,N*6A
$GNVTG,70.50,T,,M,0.929,N,1.722,K,N*1A
---
Msg: Getting data from GPS using AT done
Resp:
AT+GPSRD=0

OK
----
Msg: GPS Read Off!
Msg: Getting data from Sensors
Resp:
AT+CIPSEND

>
----
Msg: Send Started!
Resp:
GET https://api.thingspeak.com/update?api_key=AYKVFH212TKGNW2B&field1=29.74&field2=24.65&field3=1011.30&field4=14.90&field5=19.10&field6=$GNGGA,235739.000,4900.5244,N,00825.4779,E,0,3,,128.8,M,47.9,M,,*56

----
Resp:

OK



+CIPRCV,2:39
CLOSED
----
Msg: Send Completed!
Resp:
AT+CIPSTATUS
+CIPSTATUS:
STATE:CLOSED
----
Resp:
AT+CIPSTART="TCP","api.thingspeak.com",80
CONNECT OK
----
Msg: Connected!
Resp:
AT+GPSRD=5

OK
----
Msg: GPS Read Set!
Msg: Getting data from GPS using AT Cmd
Resp:
$GNGGA,235759.000,4900.5241,N,00825.4794,E,0,3,,128.7,M,47.9,M,,*59
$GPGSA,A,1,23,10,15,,,,,,,,,,,,*1A
$BDGSA,A,1,,,,,,,,,,,,,,,*0F
$GPGSV,3,1,10,10,60,122,32,08,49,299,,23,46,065,16,16,46,197,*77
$GPGSV,3,2,10,21,22,255,,18,18,066,,26,15,176,,15,09,035,23*72
$GPGSV,3,3,10,30,06,327,,13,01,010,*79
$BDGSV,1,1,00*68
$GNRMC,235759.000,V,4900.5241,N,00825.4794,E,2.287,101.94,211221,,,N*58
$GNVTG,101.94,T,,M,2.287,N,4.238,K,N*23
---
Msg: Getting data from GPS using AT done
Resp:
AT+GPSRD=0

OK
----
Msg: GPS Read Off!
Msg: Getting data from Sensors
Resp:
AT+CIPSEND

>
----
Msg: Send Started!
Resp:
GET https://api.thingspeak.com/update?api_key=AYKVFH212TKGNW2B&field1=29.76&field2=24.63&field3=1011.31&field4=14.60&field5=17.70&field6=$GNGGA,235759.000,4900.5241,N,00825.4794,E,0,3,,128.7,M,47.9,M,,*59

----
Resp:

OK



+CIPRCV,2:40
CLOSED
----
Msg: Send Completed!
Resp:
AT+CIPSTATUS
+CIPSTATUS:
STATE:CLOSED
----
Resp:
AT+CIPSTART="TCP","api.thingspeak.com",80
CONNECT OK
----
Msg: Connected!
Resp:
AT+GPSRD=5

OK
----
Msg: GPS Read Set!
Msg: Getting data from GPS using AT Cmd
Resp:
$GNGGA,235820.000,4900.5250,N,00825.4682,E,0,3,,128.7,M,47.9,M,,*5E
$GPGSA,A,1,23,10,15,,,,,,,,,,,,*1A
$BDGSA,A,1,,,,,,,,,,,,,,,*0F
$GPGSV,3,1,10,10,60,122,30,08,49,299,,23,46,064,16,16,46,197,*74
$GPGSV,3,2,10,21,23,255,,18,18,066,,26,14,176,,15,09,035,22*73
$GPGSV,3,3,10,30,06,327,,13,01,010,*79
$BDGSV,1,1,00*68
$GNRMC,235820.000,V,4900.5250,N,00825.4682,E,1.566,123.07,211221,,,N*5E
$GNVTG,123.07,T,,M,1.566,N,2.901,K,N*25
---
Msg: Getting data from GPS using AT done
Resp:
AT+GPSRD=0

OK
----
Msg: GPS Read Off!
Msg: Getting data from Sensors
Resp:
AT+CIPSEND

>
----
Msg: Send Started!
Resp:
GET https://api.thingspeak.com/update?api_key=AYKVFH212TKGNW2B&field1=29.78&field2=24.61&field3=1011.31&field4=13.70&field5=20.40&field6=$GNGGA,235820.000,4900.5250,N,00825.4682,E,0,3,,128.7,M,47.9,M,,*5E

----
Resp:

OK



+CIPRCV,2:41
CLOSED
----
Msg: Send Completed!
Resp:
AT+CIPSTATUS
+CIPSTATUS:
STATE:CLOSED
----
Resp:
AT+CIPSTART="TCP","api.thingspeak.com",80
CONNECT OK
----
Msg: Connected!
Resp:
AT+GPSRD=5

OK
----
Msg: GPS Read Set!
Msg: Getting data from GPS using AT Cmd
Resp:
$GNGGA,235840.000,4900.5273,N,00825.4305,E,0,3,,128.5,M,47.9,M,,*51
$GPGSA,A,1,23,10,15,,,,,,,,,,,,*1A
$BDGSA,A,1,,,,,,,,,,,,,,,*0F
$GPGSV,3,1,10,10,60,122,30,08,49,299,,23,46,064,16,16,46,197,*74
$GPGSV,3,2,10,21,23,255,,18,18,066,,26,14,176,,15,09,035,24*75
$GPGSV,3,3,10,30,06,327,,13,01,010,*79
$BDGSV,1,1,00*68
$GNRMC,235840.000,V,4900.5273,N,00825.4305,E,0.799,161.32,211221,,,N*50
$GNVTG,161.32,T,,M,0.799,N,1.481,K,N*20
---
Msg: Getting data from GPS using AT done
Resp:
AT+GPSRD=0

OK
----
Msg: GPS Read Off!
Msg: Getting data from Sensors
Resp:
AT+CIPSEND

>
----
Msg: Send Started!
Resp:
GET https://api.thingspeak.com/update?api_key=AYKVFH212TKGNW2B&field1=29.80&field2=24.59&field3=1011.31&field4=14.70&field5=23.20&field6=$GNGGA,235840.000,4900.5273,N,00825.4305,E,0,3,,128.5,M,47.9,M,,*51

----
Resp:

OK



+CIPRCV,2:42
CLOSED
----
Msg: Send Completed!
Resp:
AT+CIPSTATUS
+CIPSTATUS:
STATE:CLOSED
----
Resp:
AT+CIPSTART="TCP","api.thingspeak.com",80
CONNECT OK
----
Msg: Connected!
Resp:
AT+GPSRD=5

OK
----
Msg: GPS Read Set!
Msg: Getting data from GPS using AT Cmd
Resp:
$GNGGA,235900.000,4900.5234,N,00825.4341,E,0,3,,128.5,M,47.9,M,,*57
$GPGSA,A,1,23,10,15,,,,,,,,,,,,*1A
$BDGSA,A,1,,,,,,,,,,,,,,,*0F
$GPGSV,3,1,10,10,60,122,27,08,49,299,,23,46,064,13,16,46,197,*77
$GPGSV,3,2,10,21,23,255,,18,18,066,,26,14,176,,15,09,035,23*72
$GPGSV,3,3,10,30,06,327,,13,01,010,*79
$BDGSV,1,1,00*68
$GNRMC,235900.000,V,4900.5234,N,00825.4341,E,1.035,107.77,211221,,,N*57
$GNVTG,107.77,T,,M,1.035,N,1.918,K,N*2C
---
Msg: Getting data from GPS using AT done
Resp:
AT+GPSRD=0

OK
----
Msg: GPS Read Off!
Msg: Getting data from Sensors
Resp:
AT+CIPSEND

>
----
Msg: Send Started!
Resp:
GET https://api.thingspeak.com/update?api_key=AYKVFH212TKGNW2B&field1=29.81&field2=24.57&field3=1011.31&field4=14.30&field5=21.30&field6=$GNGGA,235900.000,4900.5234,N,00825.4341,E,0,3,,128.5,M,47.9,M,,*57

----
Resp:

OK



+CIPRCV,2:43
CLOSED
----
Msg: Send Completed!
Resp:
AT+CIPSTATUS
+CIPSTATUS:
STATE:CLOSED
----
Resp:
AT+CIPSTART="TCP","api.thingspeak.com",80
CONNECT OK
----
Msg: Connected!
Resp:
AT+GPSRD=5

OK
----
Msg: GPS Read Set!
Msg: Getting data from GPS using AT Cmd
Resp:
$GNGGA,235921.000,4900.5192,N,00825.4080,E,1,4,3.73,125.0,M,47.9,M,,*42
$GPGSA,A,3,23,10,18,15,,,,,,,,,3.85,3.73,0.97*08
$BDGSA,A,3,,,,,,,,,,,,,3.85,3.73,0.97*14
$GPGSV,3,1,10,10,61,121,23,08,50,299,,23,46,063,14,16,46,196,*78
$GPGSV,3,2,10,21,23,255,,18,17,066,17,26,14,176,,15,09,035,20*78
$GPGSV,3,3,10,30,06,327,,13,01,009,*71
$BDGSV,1,1,00*68
$GNRMC,235921.000,A,4900.5192,N,00825.4080,E,2.261,268.29,211221,,,A*4C
$GNVTG,268.29,T,,M,2.261,N,4.189,K,A*27
---
Msg: Getting data from GPS using AT done
Resp:
AT+GPSRD=0

OK
----
Msg: GPS Read Off!
Msg: Getting data from Sensors
Resp:
AT+CIPSEND

>
----
Msg: Send Started!
Resp:
GET https://api.thingspeak.com/update?api_key=AYKVFH212TKGNW2B&field1=29.83&field2=24.61&field3=1011.32&field4=14.90&field5=18.10&field6=$GNGGA,235921.000,4900.5192,N,00825.4080,E,1,4,3.73,125.0,M,47.9,M,,*42

----
Resp:

OK

+CIPRCV,2:44


CLOSED
----
Msg: Send Completed!
Resp:
AT+CIPSTATUS
+CIPSTATUS:
STATE:CLOSED
----
Resp:
AT+CIPSTART="TCP","api.thingspeak.com",80
CONNECT OK
----
Msg: Connected!
Resp:
AT+GPSRD=5

OK
----
Msg: GPS Read Set!
Msg: Getting data from GPS using AT Cmd
Resp:
$GNGGA,235941.000,4900.5149,N,00825.4165,E,1,4,3.71,122.6,M,47.9,M,,*4B
$GPGSA,A,3,23,10,18,15,,,,,,,,,3.84,3.71,0.97*0B
$BDGSA,A,3,,,,,,,,,,,,,3.84,3.71,0.97*17
$GPGSV,3,1,10,10,61,121,24,08,50,299,,23,46,063,14,16,46,196,*7F
$GPGSV,3,2,10,21,23,255,,18,17,066,17,26,14,176,,15,09,035,18*73
$GPGSV,3,3,10,30,06,326,,13,01,009,*70
$BDGSV,1,1,00*68
$GNRMC,235941.000,A,4900.5149,N,00825.4165,E,0.600,167.16,211221,,,A*47
$GNVTG,167.16,T,,M,0.600,N,1.112,K,A*21
---
Msg: Getting data from GPS using AT done
Resp:
AT+GPSRD=0

OK
----
Msg: GPS Read Off!
Msg: Getting data from Sensors
Resp:
AT+CIPSEND

>
----
Msg: Send Started!
Resp:
GET https://api.thingspeak.com/update?api_key=AYKVFH212TKGNW2B&field1=29.84&field2=24.58&field3=1011.32&field4=14.80&field5=16.40&field6=$GNGGA,235941.000,4900.5149,N,00825.4165,E,1,4,3.71,122.6,M,47.9,M,,*4B

----
Resp:

OK



+CIPRCV,2:45
CLOSED
----
Msg: Send Completed!
Resp:
AT+CIPSTATUS
+CIPSTATUS:
STATE:CLOSED
----
Resp:
AT+CIPSTART="TCP","api.thingspeak.com",80
CONNECT OK
----
Msg: Connected!
Resp:
AT+GPSRD=5

OK
----
Msg: GPS Read Set!
Msg: Getting data from GPS using AT Cmd
Resp:
$GNGGA,000001.000,4900.5236,N,00825.4204,E,1,4,3.69,123.2,M,47.9,M,,*41
$GPGSA,A,3,23,10,18,15,,,,,,,,,3.82,3.69,0.97*04
$BDGSA,A,3,,,,,,,,,,,,,3.82,3.69,0.97*18
$GPGSV,3,1,10,10,61,121,25,08,50,299,,23,46,063,16,16,46,196,*7C
$GPGSV,3,2,10,21,23,255,,18,17,066,19,26,14,176,,15,09,035,16*73
$GPGSV,3,3,10,30,06,326,,13,01,009,*70
$BDGSV,1,1,00*68
$GNRMC,000001.000,A,4900.5236,N,00825.4204,E,1.747,96.46,221221,,,A*7B
$GNVTG,96.46,T,,M,1.747,N,3.237,K,A*1E
---
Msg: Getting data from GPS using AT done
Resp:
AT+GPSRD=0

OK
----
Msg: GPS Read Off!
Msg: Getting data from Sensors
Resp:
AT+CIPSEND

>
----
Msg: Send Started!
Resp:
GET https://api.thingspeak.com/update?api_key=AYKVFH212TKGNW2B&field1=29.86&field2=24.55&field3=1011.32&field4=14.90&field5=17.20&field6=$GNGGA,000001.000,4900.5236,N,00825.4204,E,1,4,3.69,123.2,M,47.9,M,,*41

----
Resp:

OK



+CIPRCV,2:46
CLOSED
----
Msg: Send Completed!
Resp:
AT+CIPSTATUS
+CIPSTATUS:
STATE:CLOSED
----
Resp:
AT+CIPSTART="TCP","api.thingspeak.com",80
CONNECT OK
----
Msg: Connected!
Resp:
AT+GPSRD=5

OK
----
Msg: GPS Read Set!
Msg: Getting data from GPS using AT Cmd
Resp:
$GNGGA,000022.000,4900.5294,N,00825.4201,E,1,4,3.67,123.1,M,47.9,M,,*40
$GPGSA,A,3,23,10,18,15,,,,,,,,,3.80,3.67,0.97*08
$BDGSA,A,3,,,,,,,,,,,,,3.80,3.67,0.97*14
$GPGSV,3,1,10,10,61,121,31,08,50,300,,23,46,063,16,16,46,196,*78
$GPGSV,3,2,10,21,23,255,,18,17,066,18,26,14,176,,15,09,035,14*70
$GPGSV,3,3,10,30,06,326,,13,01,009,*70
$BDGSV,1,1,00*68
$GNRMC,000022.000,A,4900.5294,N,00825.4201,E,3.091,296.81,221221,,,A*40
$GNVTG,296.81,T,,M,3.091,N,5.727,K,A*2B
---
Msg: Getting data from GPS using AT done
Resp:
AT+GPSRD=0

OK
----
Msg: GPS Read Off!
Msg: Getting data from Sensors
Resp:
AT+CIPSEND

>
----
Msg: Send Started!
Resp:
GET https://api.thingspeak.com/update?api_key=AYKVFH212TKGNW2B&field1=29.88&field2=24.51&field3=1011.32&field4=14.40&field5=18.00&field6=$GNGGA,000022.000,4900.5294,N,00825.4201,E,1,4,3.67,123.1,M,47.9,M,,*40

----
Resp:

OK

+CIPRCV,2:47


CLOSED
----
Msg: Send Completed!
Resp:
AT+CIPSTATUS
+CIPSTATUS:
STATE:CLOSED
----
Resp:
AT+CIPSTART="TCP","api.thingspeak.com",80
CONNECT OK
----
Msg: Connected!
Resp:
AT+GPSRD=5

OK
----
Msg: GPS Read Set!
Msg: Getting data from GPS using AT Cmd
Resp:
$GNGGA,000042.000,4900.5263,N,00825.4432,E,1,4,3.65,126.6,M,47.9,M,,*48
$GPGSA,A,3,23,10,18,15,,,,,,,,,3.78,3.65,0.97*0D
$BDGSA,A,3,,,,,,,,,,,,,3.78,3.65,0.97*11
$GPGSV,3,1,10,10,61,120,32,08,50,300,,23,45,063,17,16,45,196,*7B
$GPGSV,3,2,10,21,24,256,,18,17,066,20,26,13,176,,15,09,034,14*79
$GPGSV,3,3,10,30,06,326,,13,01,009,*70
$BDGSV,1,1,00*68
$GNRMC,000042.000,A,4900.5263,N,00825.4432,E,0.803,159.25,221221,,,A*46
$GNVTG,159.25,T,,M,0.803,N,1.488,K,A*27
---
Msg: Getting data from GPS using AT done
Resp:
AT+GPSRD=0

OK
----
Msg: GPS Read Off!
Msg: Getting data from Sensors
Resp:
AT+CIPSEND

>
----
Msg: Send Started!
Resp:
GET https://api.thingspeak.com/update?api_key=AYKVFH212TKGNW2B&field1=29.89&field2=24.49&field3=1011.33&field4=14.10&field5=17.90&field6=$GNGGA,000042.000,4900.5263,N,00825.4432,E,1,4,3.65,126.6,M,47.9,M,,*48

----
Resp:

OK



+CIPRCV,2:48
CLOSED
----
Msg: Send Completed!
Resp:
AT+CIPSTATUS
+CIPSTATUS:
STATE:CLOSED
----
Resp:
AT+CIPSTART="TCP","api.thingspeak.com",80
CONNECT OK
----
Msg: Connected!
Resp:
AT+GPSRD=5

OK
----
Msg: GPS Read Set!
Msg: Getting data from GPS using AT Cmd
Resp:
$GNGGA,000102.000,4900.5393,N,00825.4194,E,1,4,3.63,127.8,M,47.9,M,,*43
$GPGSA,A,3,23,10,18,15,,,,,,,,,3.76,3.63,0.97*05
$BDGSA,A,3,,,,,,,,,,,,,3.76,3.63,0.97*19
$GPGSV,3,1,10,10,61,120,32,08,50,300,,23,45,063,16,16,45,196,*7A
$GPGSV,3,2,10,21,24,256,,18,17,066,20,26,13,176,,15,09,034,16*7B
$GPGSV,3,3,10,30,06,326,,13,01,009,*70
$BDGSV,1,1,00*68
$GNRMC,000102.000,A,4900.5393,N,00825.4194,E,3.626,278.63,221221,,,A*4C
$GNVTG,278.63,T,,M,3.626,N,6.719,K,A*23
---
Msg: Getting data from GPS using AT done
Resp:
AT+GPSRD=0

OK
----
Msg: GPS Read Off!
Msg: Getting data from Sensors
Resp:
AT+CIPSEND

>
----
Msg: Send Started!
Resp:
GET https://api.thingspeak.com/update?api_key=AYKVFH212TKGNW2B&field1=29.91&field2=24.48&field3=1011.32&field4=14.80&field5=22.20&field6=$GNGGA,000102.000,4900.5393,N,00825.4194,E,1,4,3.63,127.8,M,47.9,M,,*43

----
Resp:

OK



+CIPRCV,2:49
CLOSED
----
Msg: Send Completed!
Resp:
AT+CIPSTATUS
+CIPSTATUS:
STATE:CLOSED
----
Resp:
AT+CIPSTART="TCP","api.thingspeak.com",80
CONNECT OK
----
Msg: Connected!
Resp:
AT+GPSRD=5

OK
----
Msg: GPS Read Set!
Msg: Getting data from GPS using AT Cmd
Resp:
$GNGGA,000123.000,4900.5446,N,00825.4121,E,1,4,3.62,126.7,M,47.9,M,,*4E
$GPGSA,A,3,23,10,18,15,,,,,,,,,3.74,3.62,0.97*06
$BDGSA,A,3,,,,,,,,,,,,,3.74,3.62,0.97*1A
$GPGSV,3,1,10,10,61,120,32,08,50,300,,23,45,063,16,16,45,196,*7A
$GPGSV,3,2,10,21,24,256,,18,17,066,23,26,13,176,,15,09,034,15*7B
$GPGSV,3,3,10,30,06,326,,13,01,009,*70
$BDGSV,1,1,00*68
$GNRMC,000123.000,A,4900.5446,N,00825.4121,E,1.012,262.55,221221,,,A*43
$GNVTG,262.55,T,,M,1.012,N,1.876,K,A*2F
---
Msg: Getting data from GPS using AT done
Resp:
AT+GPSRD=0

OK
----
Msg: GPS Read Off!
Msg: Getting data from Sensors
Resp:
AT+CIPSEND

>
----
Msg: Send Started!
Resp:
GET https://api.thingspeak.com/update?api_key=AYKVFH212TKGNW2B&field1=29.92&field2=24.48&field3=1011.33&field4=16.30&field5=22.90&field6=$GNGGA,000123.000,4900.5446,N,00825.4121,E,1,4,3.62,126.7,M,47.9,M,,*4E

----
Resp:

OK



+CIPRCV,2:50
CLOSED
----
Msg: Send Completed!
Resp:
AT+CIPSTATUS
+CIPSTATUS:
STATE:CLOSED
----
Resp:
AT+CIPSTART="TCP","api.thingspeak.com",80
CONNECT OK
----
Msg: Connected!
Resp:
AT+GPSRD=5

OK
----
Msg: GPS Read Set!
Msg: Getting data from GPS using AT Cmd
Resp:
$GNGGA,000143.000,4900.5303,N,00825.4332,E,1,4,3.60,124.7,M,47.9,M,,*4E
$GPGSA,A,3,23,10,18,15,,,,,,,,,3.73,3.60,0.97*03
$BDGSA,A,3,,,,,,,,,,,,,3.73,3.60,0.97*1F
$GPGSV,3,1,10,10,61,119,31,08,51,300,,23,45,063,17,16,45,196,*73
$GPGSV,3,2,10,21,24,256,,18,17,066,23,26,13,176,,15,09,034,16*78
$GPGSV,3,3,10,30,06,326,,13,01,009,*70
$BDGSV,1,1,00*68
$GNRMC,000143.000,A,4900.5303,N,00825.4332,E,2.398,136.27,221221,,,A*46
$GNVTG,136.27,T,,M,2.398,N,4.443,K,A*25
---
Msg: Getting data from GPS using AT done
Resp:
AT+GPSRD=0

OK
----
Msg: GPS Read Off!
Msg: Getting data from Sensors
Resp:
AT+CIPSEND

>
----
Msg: Send Started!
Resp:
GET https://api.thingspeak.com/update?api_key=AYKVFH212TKGNW2B&field1=29.93&field2=24.50&field3=1011.33&field4=15.50&field5=22.40&field6=$GNGGA,000143.000,4900.5303,N,00825.4332,E,1,4,3.60,124.7,M,47.9,M,,*4E

----
Resp:

OK



+CIPRCV,2:51
CLOSED
----
Msg: Send Completed!
Resp:
AT+CIPSTATUS
+CIPSTATUS:
STATE:CLOSED
----
Resp:
AT+CIPSTART="TCP","api.thingspeak.com",80
CONNECT OK
----
Msg: Connected!
Resp:
AT+GPSRD=5

OK
----
Msg: GPS Read Set!
Msg: Getting data from GPS using AT Cmd
Resp:
$GNGGA,000203.000,4900.5199,N,00825.4473,E,1,4,3.58,122.5,M,47.9,M,,*45
$GPGSA,A,3,23,10,18,15,,,,,,,,,3.71,3.58,0.97*0A
$BDGSA,A,3,,,,,,,,,,,,,3.71,3.58,0.97*16
$GPGSV,3,1,10,10,61,119,29,08,51,300,,23,45,062,15,16,45,196,*79
$GPGSV,3,2,10,21,24,256,,18,16,066,22,26,13,176,,15,08,034,18*77
$GPGSV,3,3,10,30,06,325,,13,01,008,*72
$BDGSV,1,1,00*68
$GNRMC,000203.000,A,4900.5199,N,00825.4473,E,2.296,150.09,221221,,,A*41
$GNVTG,150.09,T,,M,2.296,N,4.255,K,A*27
---
Msg: Getting data from GPS using AT done
Resp:
AT+GPSRD=0

OK
----
Msg: GPS Read Off!
Msg: Getting data from Sensors
Resp:
AT+CIPSEND

>
----
Msg: Send Started!
Resp:
GET https://api.thingspeak.com/update?api_key=AYKVFH212TKGNW2B&field1=29.94&field2=24.49&field3=1011.33&field4=15.10&field5=18.60&field6=$GNGGA,000203.000,4900.5199,N,00825.4473,E,1,4,3.58,122.5,M,47.9,M,,*45

----
Resp:

OK



+CIPRCV,2:52
CLOSED
----
Msg: Send Completed!
Resp:
AT+CIPSTATUS
+CIPSTATUS:
STATE:CLOSED
----
Resp:
AT+CIPSTART="TCP","api.thingspeak.com",80
CONNECT OK
----
Msg: Connected!
Resp:
AT+GPSRD=5

OK
----
Msg: GPS Read Set!
Msg: Getting data from GPS using AT Cmd
Resp:
$GNGGA,000224.000,4900.5264,N,00825.4532,E,1,4,3.56,125.4,M,47.9,M,,*4D
