Hello Loop Testing....
Init...

+CIEV: "Charging",96%


+CREG: 2

AT

OK
AT+GPS=1

OK
AT+GPSRD=10

OK
+GPSRD:$GNGGA,124431.305,4900.7437,N,00825.8699,E,0,3,,468.3,M,47.9,M,,*51
$GPGSA,A,1,07,14,30,,,,,,,,,,,,*1F
$BDGSA,A,1,,,,,,,,,,,,,,,*0F
$GPGSV,2,1,08,30,58,064,32,05,57,237,18,14,50,135,29,20,37,199,*7C
$GPGSV,2,2,08,15,32,296,,07,27,063,34,08,09,039,18,27,02,011,*7C
$BDGSV,1,1,00*68
$GNRMC,124431.305,V,4900.7437,N,00825.8699,E,0.887,106.04,041221,,,N*54
$GNVTG,106.04,T,,M,0.887,N,1.644,K,N*2F
+GPSRD:$GNGGA,124441.305,4900.7757,N,00825.5044,E,0,4,,130.1,M,47.9,M,,*55
$GPGSA,A,1,07,14,30,08,,,,,,,,,,,*17
$BDGSA,A,1,,,,,,,,,,,,,,,*0F
$GPGSV,3,1,09,30,58,064,33,05,57,237,18,14,50,135,29,20,37,199,18*74
$GPGSV,3,2,09,15,32,296,,37,32,162,,07,27,063,34,08,09,039,20*70
$GPGSV,3,3,09,27,02,011,*47
$BDGSV,1,1,01,07,,,26*6A
$GNRMC,124441.305,V,4900.7757,N,00825.5044,E,0.685,307.89,041221,,,N*57
$GNVTG,307.89,T,,M,0.685,N,1.270,K,N*26
+GPSRD:$GNGGA,124451.305,4900.7711,N,00825.5120,E,0,4,,126.9,M,47.9,M,,*5A
$GPGSA,A,1,07,14,30,08,,,,,,,,,,,*17
$BDGSA,A,1,,,,,,,,,,,,,,,*0F
$GPGSV,3,1,10,30,58,064,32,05,57,237,16,14,50,135,27,20,37,199,17*72
$GPGSV,3,2,10,15,32,296,,39,31,158,,07,27,063,32,08,09,039,16*7F
$GPGSV,3,3,10,27,02,011,,28,,,28*4F
$BDGSV,1,1,01,07,,,25*69
$GNRMC,124451.305,V,4900.7711,N,00825.5120,E,2.462,275.07,041221,,,N*5C
$GNVTG,275.07,T,,M,2.462,N,4.563,K,N*2D
+GPSRD:$GNGGA,124501.305,4900.7704,N,00825.4934,E,0,4,,112.2,M,47.9,M,,*5A
$GPGSA,A,1,07,14,30,08,,,,,,,,,,,*17
$BDGSA,A,1,,,,,,,,,,,,,,,*0F
$GPGSV,3,1,10,30,58,064,31,05,57,237,16,14,50,135,25,20,37,199,16*72
$GPGSV,3,2,10,15,32,296,,33,29,210,,07,27,063,31,08,09,039,12*74
$GPGSV,3,3,10,27,02,011,,28,,,26*41
$BDGSV,1,1,02,10,,,34,07,,,24*6D
$GNRMC,124501.305,V,4900.7704,N,00825.4934,E,2.405,287.29,041221,,,N*50
$GNVTG,287.29,T,,M,2.405,N,4.457,K,N*2B
+GPSRD:$GNGGA,124512.000,4900.7661,N,00825.4915,E,0,3,,100.5,M,47.9,M,,*5C
$GPGSA,A,1,07,14,30,,,,,,,,,,,,*1F
$BDGSA,A,1,,,,,,,,,,,,,,,*0F
$GPGSV,3,1,10,30,58,064,33,05,57,237,15,14,50,135,26,20,37,199,16*70
$GPGSV,3,2,10,15,32,296,,07,27,063,32,40,13,117,,08,09,039,15*79
$GPGSV,3,3,10,27,02,011,,28,,,29*4E
$BDGSV,1,1,02,10,,,34,07,,,22*6B
$GNRMC,124512.000,V,4900.7661,N,00825.4915,E,1.152,280.84,041221,,,N*51
$GNVTG,280.84,T,,M,1.152,N,2.135,K,N*28
+GPSRD:$GNGGA,124522.000,4900.7667,N,00825.4671,E,1,4,4.86,75.2,M,47.9,M,,*72
$GPGSA,A,3,07,14,30,08,,,,,,,,,4.95,4.86,0.95*05
$BDGSA,A,3,,,,,,,,,,,,,4.95,4.86,0.95*1D
$GPGSV,3,1,10,30,58,064,32,05,57,237,14,14,50,135,25,20,37,199,14*71
$GPGSV,3,2,10,15,32,296,,07,27,063,32,44,12,116,,08,09,039,16*7E
$GPGSV,3,3,10,27,02,011,,28,,,30*46
$BDGSV,1,1,01,07,,,21*6D
$GNRMC,124522.000,A,4900.7667,N,00825.4671,E,1.884,268.54,041221,,,A*48
$GNVTG,268.54,T,,M,1.884,N,3.491,K,A*24
+GPSRD:$GNGGA,124532.000,4900.7664,N,00825.4643,E,1,3,5.72,78.6,M,47.9,M,,*75
$GPGSA,A,2,07,14,08,,,,,,,,,,5.81,5.72,1.00*04
$BDGSA,A,2,,,,,,,,,,,,,5.81,5.72,1.00*1F
$GPGSV,3,1,09,30,58,064,31,05,57,237,16,14,50,135,25,20,37,199,17*7B
$GPGSV,3,2,09,15,32,296,,37,32,162,,07,27,063,33,08,09,039,16*72
$GPGSV,3,3,09,27,02,011,*47
$BDGSV,1,1,02,10,,,35,07,,,22*6A
$GNRMC,124532.000,A,4900.7664,N,00825.4643,E,2.830,270.15,041221,,,A*4B
$GNVTG,270.15,T,,M,2.830,N,5.243,K,A*2B
+GPSRD:$GNGGA,124542.000,4900.7612,N,00825.4729,E,1,4,4.84,70.4,M,47.9,M,,*7B
$GPGSA,A,3,07,14,30,08,,,,,,,,,4.94,4.84,0.95*06
$BDGSA,A,3,,,,,,,,,,,,,4.94,4.84,0.95*1E
$GPGSV,3,1,09,30,58,064,31,05,56,236,16,14,50,135,26,20,37,199,15*7A
$GPGSV,3,2,09,15,32,296,,39,31,158,,07,27,063,33,08,09,039,17*77
$GPGSV,3,3,09,27,02,011,*47
$BDGSV,1,1,02,10,,,35,07,,,22*6A
$GNRMC,124542.000,A,4900.7612,N,00825.4729,E,1.544,76.98,041221,,,A*7C
$GNVTG,76.98,T,,M,1.544,N,2.860,K,A*1B
+GPSRD:$GNGGA,124552.000,4900.7603,N,00825.4785,E,1,4,4.85,71.0,M,47.9,M,,*78
$GPGSA,A,3,07,14,30,08,,,,,,,,,4.94,4.85,0.95*07
$BDGSA,A,3,,,,,,,,,,,,,4.94,4.85,0.95*1F
$GPGSV,3,1,09,30,58,064,25,05,56,236,15,14,51,134,26,20,37,199,14*7D
$GPGSV,3,2,09,15,33,296,,33,29,210,,07,27,063,34,08,09,039,18*72
$GPGSV,3,3,09,27,02,011,*47
$BDGSV,1,1,02,10,,,37,07,,,20*6A
$GNRMC,124552.000,A,4900.7603,N,00825.4785,E,0.784,290.73,041221,,,A*4B
$GNVTG,290.73,T,,M,0.784,N,1.453,K,A*24
+GPSRD:$GNGGA,124602.000,4900.7646,N,00825.4741,E,1,4,4.82,76.1,M,47.9,M,,*76
$GPGSA,A,3,07,14,30,08,,,,,,,,,4.91,4.82,0.95*05
$BDGSA,A,3,,,,,,,,,,,,,4.91,4.82,0.95*1D
$GPGSV,3,1,09,30,58,064,25,05,56,236,13,14,51,134,28,20,37,198,13*73
$GPGSV,3,2,09,15,33,296,,07,27,063,33,40,13,117,,08,09,039,17*73
$GPGSV,3,3,09,27,02,011,*47
$BDGSV,1,1,01,07,,,22*6E
$GNRMC,124602.000,A,4900.7646,N,00825.4741,E,1.417,299.60,041221,,,A*47
$GNVTG,299.60,T,,M,1.417,N,2.626,K,A*24
+GPSRD:$GNGGA,124612.000,4900.7655,N,00825.4760,E,1,4,4.81,77.3,M,47.9,M,,*76
$GPGSA,A,3,07,14,30,08,,,,,,,,,4.91,4.81,0.95*06
$BDGSA,A,3,,,,,,,,,,,,,4.91,4.81,0.95*1E
$GPGSV,3,1,09,30,57,064,19,05,56,236,13,14,51,134,26,20,37,198,*7F
$GPGSV,3,2,09,15,33,296,14,07,27,063,32,08,09,039,17,27,02,011,*71
$GPGSV,3,3,09,34,,,*77
$BDGSV,1,1,02,10,,,35,07,,,22*6A
$GNRMC,124612.000,A,4900.7655,N,00825.4760,E,0.707,353.46,041221,,,A*47
$GNVTG,353.46,T,,M,0.707,N,1.311,K,A*26
+GPSRD:$GNGGA,124622.000,4900.7691,N,00825.4659,E,1,4,4.80,78.6,M,47.9,M,,*7D
$GPGSA,A,3,07,14,30,08,,,,,,,,,4.90,4.80,0.95*06
$BDGSA,A,3,,,,,,,,,,,,,4.90,4.80,0.95*1E
$GPGSV,3,1,10,13,64,299,,30,57,064,20,05,56,236,14,14,51,134,25*7D
$GPGSV,3,2,10,20,37,198,,15,33,296,13,07,27,063,33,08,09,039,18*71
$GPGSV,3,3,10,27,02,011,,35,,,*49
$BDGSV,1,1,01,07,,,22*6E
$GNRMC,124622.000,A,4900.7691,N,00825.4659,E,2.951,285.98,041221,,,A*41
$GNVTG,285.98,T,,M,2.951,N,5.468,K,A*2D
+GPSRD:$GNGGA,124632.000,4900.7799,N,00825.4242,E,1,4,4.79,86.9,M,47.9,M,,*73
$GPGSA,A,3,07,14,30,08,,,,,,,,,4.88,4.79,0.95*09
$BDGSA,A,3,,,,,,,,,,,,,4.88,4.79,0.95*11
$GPGSV,3,1,10,13,64,299,,30,57,064,21,05,56,236,13,14,51,134,26*78
$GPGSV,3,2,10,20,37,198,,15,33,296,,07,27,063,34,08,09,039,16*7A
$GPGSV,3,3,10,27,02,011,,36,,,*4A
$BDGSV,1,1,02,10,,,35,07,,,22*6A
$GNRMC,124632.000,A,4900.7799,N,00825.4242,E,3.640,284.93,041221,,,A*43
$GNVTG,284.93,T,,M,3.640,N,6.746,K,A*25
+GPSRD:$GNGGA,124642.000,4900.7904,N,00825.3954,E,1,4,4.78,93.9,M,47.9,M,,*70
$GPGSA,A,3,07,14,30,08,,,,,,,,,4.88,4.78,0.95*08
$BDGSA,A,3,,,,,,,,,,,,,4.88,4.78,0.95*10
$GPGSV,3,1,10,13,64,299,,30,57,064,29,05,56,236,14,14,51,134,29*78
$GPGSV,3,2,10,20,37,198,,15,33,296,,07,27,063,36,08,09,039,14*7A
$GPGSV,3,3,10,27,02,011,,38,,,*44
$BDGSV,1,1,02,10,,,35,07,,,26*6E
$GNRMC,124642.000,A,4900.7904,N,00825.3954,E,6.223,290.91,041221,,,A*46
$GNVTG,290.91,T,,M,6.223,N,11.531,K,A*12
+GPSRD:$GNGGA,124652.000,4900.7829,N,00825.4222,E,1,4,4.78,95.3,M,47.9,M,,*7E
$GPGSA,A,3,07,14,30,08,,,,,,,,,4.88,4.78,0.95*08
$BDGSA,A,3,,,,,,,,,,,,,4.88,4.78,0.95*10
$GPGSV,3,1,10,13,64,299,16,30,57,064,38,05,56,236,13,14,51,134,29*78
$GPGSV,3,2,10,20,37,198,,15,33,296,,07,27,063,36,08,09,039,17*79
$GPGSV,3,3,10,27,02,011,,43,,,*48
$BDGSV,1,1,01,07,,,20*6C
$GNRMC,124652.000,A,4900.7829,N,00825.4222,E,0.153,170.06,041221,,,A*45
$GNVTG,170.06,T,,M,0.153,N,0.283,K,A*2D
+GPSRD:$GNGGA,124702.000,4900.7790,N,00825.4306,E,1,4,4.76,94.9,M,47.9,M,,*75
$GPGSA,A,3,07,14,30,08,,,,,,,,,4.86,4.76,0.95*08
$BDGSA,A,3,,,,,,,,,,,,,4.86,4.76,0.95*10
$GPGSV,3,1,10,13,64,299,17,30,57,064,38,05,56,235,14,14,51,134,28*7C
$GPGSV,3,2,10,20,37,198,,15,33,296,17,07,26,064,36,08,09,038,17*78
$GPGSV,3,3,10,27,02,011,,45,,,*4E
$BDGSV,1,1,01,07,,,19*66
$GNRMC,124702.000,A,4900.7790,N,00825.4306,E,1.343,260.63,041221,,,A*48
$GNVTG,260.63,T,,M,1.343,N,2.488,K,A*21
+GPSRD:$GNGGA,124712.000,4900.7745,N,00825.4392,E,1,4,4.75,96.0,M,47.9,M,,*79
$GPGSA,A,3,07,14,30,08,,,,,,,,,4.85,4.75,0.95*08
$BDGSA,A,3,,,,,,,,,,,,,4.85,4.75,0.95*10
$GPGSV,3,1,10,13,64,299,15,30,57,064,37,05,56,235,13,14,51,133,26*7F
$GPGSV,3,2,10,20,36,198,,15,33,296,15,07,26,064,34,08,09,038,18*76
$GPGSV,3,3,10,27,02,011,,47,,,*4C
$BDGSV,1,1,01,07,,,18*67
$GNRMC,124712.000,A,4900.7745,N,00825.4392,E,0.923,111.06,041221,,,A*47
$GNVTG,111.06,T,,M,0.923,N,1.710,K,A*2B
+GPSRD:$GNGGA,124722.000,4900.7747,N,00825.4470,E,1,4,4.75,99.0,M,47.9,M,,*7C
$GPGSA,A,3,07,14,30,08,,,,,,,,,4.84,4.75,0.95*09
$BDGSA,A,3,,,,,,,,,,,,,4.84,4.75,0.95*11
$GPGSV,3,1,10,13,64,299,16,30,57,064,39,05,56,235,15,14,51,133,31*72
$GPGSV,3,2,10,20,36,198,,15,33,296,14,07,26,064,36,08,09,038,21*7F
$GPGSV,3,3,10,27,01,010,,49,,,*40
$BDGSV,1,1,01,07,,,20*6C
$GNRMC,124722.000,A,4900.7747,N,00825.4470,E,0.541,119.59,041221,,,A*47
$GNVTG,119.59,T,,M,0.541,N,1.002,K,A*25
+GPSRD:$GNGGA,124732.000,4900.7770,N,00825.4496,E,1,4,4.73,102.0,M,47.9,M,,*44
$GPGSA,A,3,07,14,30,08,,,,,,,,,4.82,4.73,0.95*09
$BDGSA,A,3,,,,,,,,,,,,,4.82,4.73,0.95*11
$GPGSV,3,1,10,13,64,299,16,30,57,064,39,05,56,235,14,14,51,133,32*70
$GPGSV,3,2,10,20,36,198,,15,33,296,13,37,32,162,,07,26,064,36*71
$GPGSV,3,3,10,08,09,038,17,27,01,010,*71
$BDGSV,1,1,01,07,,,21*6D
$GNRMC,124732.000,A,4900.7770,N,00825.4496,E,0.581,287.45,041221,,,A*4F
$GNVTG,287.45,T,,M,0.581,N,1.077,K,A*22
+GPSRD:$GNGGA,124742.000,4900.7767,N,00825.4560,E,1,4,4.72,103.8,M,47.9,M,,*45
$GPGSA,A,3,07,14,30,08,,,,,,,,,4.81,4.72,0.96*08
$BDGSA,A,3,,,,,,,,,,,,,4.81,4.72,0.96*10
$GPGSV,3,1,10,13,64,299,13,30,57,064,39,05,56,235,16,14,51,133,32*77
$GPGSV,3,2,10,20,36,198,,15,33,296,14,39,31,158,,07,26,064,35*71
$GPGSV,3,3,10,08,09,038,17,27,01,010,*71
$BDGSV,1,1,01,07,,,21*6D
$GNRMC,124742.000,A,4900.7767,N,00825.4560,E,1.265,109.26,041221,,,A*4A
$GNVTG,109.26,T,,M,1.265,N,2.344,K,A*2E
+GPSRD:$GNGGA,124752.000,4900.7760,N,00825.4631,E,1,4,4.71,107.0,M,47.9,M,,*4B
$GPGSA,A,3,07,14,30,08,,,,,,,,,4.81,4.71,0.96*0B
$BDGSA,A,3,,,,,,,,,,,,,4.81,4.71,0.96*13
$GPGSV,3,1,10,13,64,299,16,30,57,064,39,05,56,235,13,14,51,133,32*77
$GPGSV,3,2,10,20,36,198,12,15,33,296,18,33,29,210,,07,26,064,36*71
$GPGSV,3,3,10,08,09,038,19,27,01,010,*7F
$BDGSV,1,1,01,07,,,18*67
$GNRMC,124752.000,A,4900.7760,N,00825.4631,E,0.699,156.18,041221,,,A*4A
$GNVTG,156.18,T,,M,0.699,N,1.295,K,A*21
+GPSRD:$GNGGA,124802.000,4900.7744,N,00825.4739,E,1,4,4.70,113.6,M,47.9,M,,*4C
$GPGSA,A,3,07,14,30,08,,,,,,,,,4.79,4.70,0.96*0D
$BDGSA,A,3,,,,,,,,,,,,,4.79,4.70,0.96*15
$GPGSV,3,1,10,13,64,299,18,30,57,064,38,05,56,235,,14,51,133,31*79
$GPGSV,3,2,10,20,36,198,13,15,33,296,18,07,26,064,36,40,13,117,*79
$GPGSV,3,3,10,08,09,038,17,27,01,010,*71
$BDGSV,1,1,01,07,,,18*67
$GNRMC,124802.000,A,4900.7744,N,00825.4739,E,0.371,217.31,041221,,,A*41
$GNVTG,217.31,T,,M,0.371,N,0.687,K,A*29
+GPSRD:$GNGGA,124812.000,4900.7722,N,00825.4798,E,1,4,4.68,116.4,M,47.9,M,,*48
$GPGSA,A,3,07,14,30,08,,,,,,,,,4.78,4.68,0.96*05
$BDGSA,A,3,,,,,,,,,,,,,4.78,4.68,0.96*1D
$GPGSV,3,1,10,13,64,299,17,30,57,064,38,05,56,235,,14,51,133,30*77
$GPGSV,3,2,10,20,36,198,16,15,33,296,19,07,26,064,35,44,12,116,*7A
$GPGSV,3,3,10,08,09,038,17,27,01,010,*71
$BDGSV,1,1,01,07,,,20*6C
$GNRMC,124812.000,A,4900.7722,N,00825.4798,E,1.705,115.27,041221,,,A*4B
$GNVTG,115.27,T,,M,1.705,N,3.159,K,A*2E
+GPSRD:$GNGGA,124822.000,4900.7699,N,00825.4795,E,1,4,4.68,117.6,M,47.9,M,,*44
$GPGSA,A,3,07,14,30,08,,,,,,,,,4.77,4.68,0.96*0A
$BDGSA,A,3,,,,,,,,,,,,,4.77,4.68,0.96*12
$GPGSV,3,1,10,13,64,299,19,30,57,064,38,05,56,234,,14,51,133,29*70
$GPGSV,3,2,10,20,36,198,19,15,33,296,17,07,26,064,36,08,09,038,17*71
$GPGSV,3,3,10,27,01,010,,35,,,*4B
$BDGSV,1,1,01,07,,,20*6C
$GNRMC,124822.000,A,4900.7699,N,00825.4795,E,0.527,289.52,041221,,,A*43
$GNVTG,289.52,T,,M,0.527,N,0.976,K,A*2F
+GPSRD:$GNGGA,124832.000,4900.7702,N,00825.4760,E,1,4,4.67,117.9,M,47.9,M,,*4C
$GPGSA,A,3,07,14,30,08,,,,,,,,,4.76,4.67,0.96*04
$BDGSA,A,3,,,,,,,,,,,,,4.76,4.67,0.96*1C
$GPGSV,3,1,10,13,65,300,15,30,57,064,37,05,56,234,,14,52,132,29*71
$GPGSV,3,2,10,20,35,198,17,15,34,296,16,07,26,064,36,08,09,038,15*78
$GPGSV,3,3,10,27,01,010,,36,,,*48
$BDGSV,1,1,01,07,,,20*6C
$GNRMC,124832.000,A,4900.7702,N,00825.4760,E,1.063,139.12,041221,,,A*43
$GNVTG,139.12,T,,M,1.063,N,1.971,K,A*21
+GPSRD:$GNGGA,124842.000,4900.7753,N,00825.4697,E,1,4,4.65,118.8,M,47.9,M,,*4A
$GPGSA,A,3,07,14,30,08,,,,,,,,,4.74,4.65,0.96*04
$BDGSA,A,3,,,,,,,,,,,,,4.74,4.65,0.96*1C
$GPGSV,3,1,10,13,65,300,16,30,56,064,36,05,56,234,16,14,52,132,32*7F
$GPGSV,3,2,10,20,35,198,18,15,34,296,16,07,26,064,37,08,09,038,15*76
$GPGSV,3,3,10,27,01,010,,41,,,*48
$BDGSV,1,1,01,07,,,19*66
$GNRMC,124842.000,A,4900.7753,N,00825.4697,E,0.355,232.13,041221,,,A*47
$GNVTG,232.13,T,,M,0.355,N,0.657,K,A*25
+GPSRD:$GNGGA,124852.000,4900.7781,N,00825.4664,E,1,4,4.64,119.0,M,47.9,M,,*40
$GPGSA,A,3,07,14,30,08,,,,,,,,,4.74,4.64,0.96*05
$BDGSA,A,3,,,,,,,,,,,,,4.74,4.64,0.96*1D
$GPGSV,3,1,11,13,65,300,15,30,56,064,37,05,56,234,15,14,52,132,33*7E
$GPGSV,3,2,11,20,35,198,18,15,34,296,18,07,26,064,38,18,13,309,*79
$GPGSV,3,3,11,08,09,038,17,27,01,010,,45,,,*71
$BDGSV,1,1,01,07,,,19*66
$GNRMC,124852.000,A,4900.7781,N,00825.4664,E,1.753,274.64,041221,,,A*44
$GNVTG,274.64,T,,M,1.753,N,3.248,K,A*2D
