
【2021-13-21 15:13:38 662】Resp:
GE
【2021-13-21 15:13:38 711】T https://api.thingspeak.com/update?api_key=A
【2021-13-21 15:13:38 726】YKVFH212TKGNW2B
【2021-13-21 15:13:38 735】&field1=2
【2021-13-21 15:13:38 746】3.12&fiel
【2021-13-21 15:13:38 757】d2=45.67&fie
【2021-13-21 15:13:38 769】ld3=1009.57&
【2021-13-21 15:13:38 780】field4=9.
【2021-13-21 15:13:38 788】50&field5
【2021-13-21 15:13:38 796】=11.30&fi
【2021-13-21 15:13:38 807】eld6=$GNG
【2021-13-21 15:13:38 819】GA,141336.08
【2021-13-21 15:13:38 831】6,4900.4163,
【2021-13-21 15:13:38 840】N,00825.6
【2021-13-21 15:13:38 849】314,E,0,0
【2021-13-21 15:13:38 857】,,129.
【2021-13-21 15:13:38 871】7,M,47.9,M,,
【2021-13-21 15:13:38 884】*54

----
【2021-13-21 15:13:38 898】
Resp:

OK



+CIPRCV,1:1
CLOSED
----
Msg: Send Completed!
Resp:
AT+CIPSTATUS
+CIPSTATUS:
STATE:CLOSED
----
Resp:
AT+CIPSTART="TCP","api.thingspeak.com",80
CONNECT OK
----
Msg: Connected!
Resp:
AT+GPSRD=5

OK
----
Msg: GPS Read Set!
Msg: Getting data from GPS using AT Cmd
Resp:
$GNGGA,141357.086,4900.5928,N,00824.9268,E,0,1,,129.7,M,47.9,M,,*50
$GPGSA,A,1,19,,,,,,,,,,,,,,*16
$BDGSA,A,1,,,,,,,,,,,,,,,*0F
$GPGSV,3,1,11,15,60,193,,24,59,288,,13,41,147,,17,36,077,23*7D
$GPGSV,3,2,11,19,34,111,31,23,28,276,,14,24,053,,12,24,220,*7C
$GPGSV,3,3,11,10,20,312,,01,02,034,,21,01,010,*4D
$BDGSV,1,1,00*68
$GNRMC,141357.086,V,4900.5928,N,00824.9268,E,0.001,0.00,211221,,,N*51
$GNVTG,0.00,T,,M,0.001,N,0.002,K,N*2F
---
Msg: Getting data from GPS using AT done
Resp:
AT+GPSRD=0

OK
----
Msg: GPS Read Off!
Msg: Getting data from Sensors
Resp:
AT+CIPSEND

>
----
Msg: Send Started!
Resp:
GET https://api.thingspeak.com/update?api_key=AYKVFH212TKGNW2B&field1=23.21&field2=44.41&field3=1009.59&field4=9.70&field5=11.30&field6=$GNGGA,141357.086,4900.5928,N,00824.9268,E,0,1,,129.7,M,47.9,M,,*50

----
Resp:

OK



+CIPRCV,1:2
CLOSED
----
Msg: Send Completed!
Resp:
AT+CIPSTATUS
+CIPSTATUS:
STATE:CLOSED
----
Resp:
AT+CIPSTART="TCP","api.thingspeak.com",80
CONNECT OK
----
Msg: Connected!
Resp:
AT+GPSRD=5

OK
----
Msg: GPS Read Set!
Msg: Getting data from GPS using AT Cmd
Resp:
$GNGGA,141417.086,4900.4164,N,00825.6311,E,0,1,,129.7,M,47.9,M,,*53
$GPGSA,A,1,19,,,,,,,,,,,,,,*16
$BDGSA,A,1,,,,,,,,,,,,,,,*0F
$GPGSV,3,1,11,15,60,193,,24,59,288,,13,41,147,,17,36,077,24*7A
$GPGSV,3,2,11,19,34,111,33,23,28,276,,14,24,053,,12,24,220,*7E
$GPGSV,3,3,11,10,20,312,,01,02,034,,21,01,010,*4D
$BDGSV,1,1,00*68
$GNRMC,141417.086,V,4900.4164,N,00825.6311,E,0.001,0.00,211221,,,N*52
$GNVTG,0.00,T,,M,0.001,N,0.002,K,N*2F
---
Msg: Getting data from GPS using AT done
Resp:
AT+GPSRD=0

OK
----
Msg: GPS Read Off!
Msg: Getting data from Sensors
Resp:
AT+CIPSEND

>
----
Msg: Send Started!
Resp:
GET https://api.thingspeak.com/update?api_key=AYKVFH212TKGNW2B&field1=23.50&field2=43.03&field3=1009.61&field4=9.50&field5=14.70&field6=$GNGGA,141417.086,4900.4164,N,00825.6311,E,0,1,,129.7,M,47.9,M,,*53

----
Resp:

OK



+CIPRCV,1:3
CLOSED
----
Msg: Send Completed!
Resp:
AT+CIPSTATUS
+CIPSTATUS:
STATE:CLOSED
----
Resp:
AT+CIPSTART="TCP","api.thingspeak.com",80
CONNECT OK
----
Msg: Connected!
Resp:
AT+GPSRD=5

OK
----
Msg: GPS Read Set!
Msg: Getting data from GPS using AT Cmd
Resp:
$GNGGA,141437.086,4900.3612,N,00832.2645,E,0,2,,109.6,M,48.0,M,,*50
$GPGSA,A,1,19,17,,,,,,,,,,,,,*10
$BDGSA,A,1,,,,,,,,,,,,,,,*0F
$GPGSV,3,1,11,15,60,193,,24,59,288,,13,41,147,,17,36,077,23*7D
$GPGSV,3,2,11,19,34,111,28,23,28,276,,14,24,053,,12,24,220,*74
$GPGSV,3,3,11,10,20,312,,01,02,034,,21,01,010,*4D
$BDGSV,1,1,00*68
$GNRMC,141437.086,V,4900.3612,N,00832.2645,E,0.636,46.11,211221,,,N*67
$GNVTG,46.11,T,,M,0.636,N,1.179,K,N*13
---
Msg: Getting data from GPS using AT done
Resp:
AT+GPSRD=0

OK
----
Msg: GPS Read Off!
Msg: Getting data from Sensors
Resp:
AT+CIPSEND

>
----
Msg: Send Started!
Resp:
GET https://api.thingspeak.com/update?api_key=AYKVFH212TKGNW2B&field1=23.92&field2=41.92&field3=1009.63&field4=9.60&field5=13.70&field6=$GNGGA,141437.086,4900.3612,N,00832.2645,E,0,2,,109.6,M,48.0,M,,*50

----
Resp:

OK



+CIPRCV,1:4
CLOSED
----
Msg: Send Completed!
Resp:
AT+CIPSTATUS
+CIPSTATUS:
STATE:CLOSED
----
Resp:
AT+CIPSTART="TCP","api.thingspeak.com",80
CONNECT OK
----
Msg: Connected!
Resp:
AT+GPSRD=5

OK
----
Msg: GPS Read Set!
Msg: Getting data from GPS using AT Cmd
Resp:
$GNGGA,141457.086,4900.4357,N,00829.5072,E,0,2,,106.5,M,47.9,M,,*50
$GPGSA,A,1,19,17,,,,,,,,,,,,,*10
$BDGSA,A,1,,,,,,,,,,,,,,,*0F
$GPGSV,3,1,11,15,60,193,,24,59,288,,13,40,148,21,17,36,077,22*71
$GPGSV,3,2,11,19,34,111,25,23,28,276,,12,25,221,,14,24,053,*79
$GPGSV,3,3,11,10,20,312,,01,02,034,,21,01,010,*4D
$BDGSV,1,1,00*68
$GNRMC,141457.086,V,4900.4357,N,00829.5072,E,0.772,84.73,211221,,,N*66
$GNVTG,84.73,T,,M,0.772,N,1.430,K,N*10
---
Msg: Getting data from GPS using AT done
Resp:
AT+GPSRD=0

OK
----
Msg: GPS Read Off!
Msg: Getting data from Sensors
Resp:
AT+CIPSEND

>
----
Msg: Send Started!
Resp:
GET https://api.thingspeak.com/update?api_key=AYKVFH212TKGNW2B&field1=24.39&field2=40.81&field3=1009.64&field4=10.40&field5=19.20&field6=$GNGGA,141457.086,4900.4357,N,00829.5072,E,0,2,,106.5,M,47.9,M,,*50

----
Resp:

OK



+CIPRCV,1:5
CLOSED
----
Msg: Send Completed!
Resp:
AT+CIPSTATUS
+CIPSTATUS:
STATE:CLOSED
----
Resp:
AT+CIPSTART="TCP","api.thingspeak.com",80
CONNECT OK
----
Msg: Connected!
Resp:
AT+GPSRD=5

OK
----
Msg: GPS Read Set!
Msg: Getting data from GPS using AT Cmd
Resp:
$GNGGA,141517.086,9000.0000,N,00000.0000,E,0,0,,137.0,M,13.0,M,,*5A
$GPGSA,A,1,,,,,,,,,,,,,,,*1E
$BDGSA,A,1,,,,,,,,,,,,,,,*0F
$GPGSV,1,1,04,17,,,20,19,,,24,13,,,19,14,,,17*7E
$BDGSV,1,1,00*68
$GNRMC,141517.086,V,9000.0000,N,00000.0000,E,0.000,0.00,211221,,,N*5B
$GNVTG,0.00,T,,M,0.000,N,0.000,K,N*2C
---
Msg: Getting data from GPS using AT done
Resp:
AT+GPSRD=0

OK
----
Msg: GPS Read Off!
Msg: Getting data from Sensors
Resp:
AT+CIPSEND

>
----
Msg: Send Started!
Resp:
GET https://api.thingspeak.com/update?api_key=AYKVFH212TKGNW2B&field1=24.87&field2=39.55&field3=1009.65&field4=10.80&field5=16.90&field6=$GNGGA,141517.086,9000.0000,N,00000.0000,E,0,0,,137.0,M,13.0,M,,*5A

----
Resp:

OK



+CIPRCV,1:6
CLOSED
----
Msg: Send Completed!
Resp:
AT+CIPSTATUS
+CIPSTATUS:
STATE:CLOSED
----
Resp:
AT+CIPSTART="TCP","api.thingspeak.com",80
CONNECT OK
----
Msg: Connected!
Resp:
AT+GPSRD=5

OK
----
Msg: GPS Read Set!
Msg: Getting data from GPS using AT Cmd
Resp:
$GNGGA,141537.086,9000.0000,N,00000.0000,E,0,0,,137.0,M,13.0,M,,*58
$GPGSA,A,1,,,,,,,,,,,,,,,*1E
$BDGSA,A,1,,,,,,,,,,,,,,,*0F
$GPGSV,1,1,04,17,,,20,19,,,26,13,,,19,14,,,16*7D
$BDGSV,1,1,00*68
$GNRMC,141537.086,V,9000.0000,N,00000.0000,E,0.000,0.00,211221,,,N*59
$GNVTG,0.00,T,,M,0.000,N,0.000,K,N*2C
---
Msg: Getting data from GPS using AT done
Resp:
AT+GPSRD=0

OK
----
Msg: GPS Read Off!
Msg: Getting data from Sensors
Resp:
AT+CIPSEND

>
----
Msg: Send Started!
Resp:
GET https://api.thingspeak.com/update?api_key=AYKVFH212TKGNW2B&field1=25.36&field2=38.51&field3=1009.68&field4=11.00&field5=17.10&field6=$GNGGA,141537.086,9000.0000,N,00000.0000,E,0,0,,137.0,M,13.0,M,,*58

----
Resp:

OK



+CIPRCV,1:7
CLOSED
----
Msg: Send Completed!
Resp:
AT+CIPSTATUS
+CIPSTATUS:
STATE:CLOSED
----
Resp:
AT+CIPSTART="TCP","api.thingspeak.com",80
CONNECT OK
----
Msg: Connected!
Resp:
AT+GPSRD=5

OK
----
Msg: GPS Read Set!
Msg: Getting data from GPS using AT Cmd
Resp:
$GNGGA,141557.086,9000.0000,N,00000.0000,E,0,0,,137.0,M,13.0,M,,*5E
$GPGSA,A,1,,,,,,,,,,,,,,,*1E
$BDGSA,A,1,,,,,,,,,,,,,,,*0F
$GPGSV,1,1,04,17,,,18,19,,,26,13,,,19,14,,,16*76
$BDGSV,1,1,00*68
$GNRMC,141557.086,V,9000.0000,N,00000.0000,E,0.000,0.00,211221,,,N*5F
$GNVTG,0.00,T,,M,0.000,N,0.000,K,N*2C
---
Msg: Getting data from GPS using AT done
Resp:
AT+GPSRD=0

OK
----
Msg: GPS Read Off!
Msg: Getting data from Sensors
Resp:
AT+CIPSEND

>
----
Msg: Send Started!
Resp:
GET https://api.thingspeak.com/update?api_key=AYKVFH212TKGNW2B&field1=25.82&field2=37.79&field3=1009.68&field4=10.60&field5=12.90&field6=$GNGGA,141557.086,9000.0000,N,00000.0000,E,0,0,,137.0,M,13.0,M,,*5E

----
Resp:

OK



+CIPRCV,1:8
CLOSED
----
Msg: Send Completed!
Resp:
AT+CIPSTATUS
+CIPSTATUS:
STATE:CLOSED
----
Resp:
AT+CIPSTART="TCP","api.thingspeak.com",80
CONNECT OK
----
Msg: Connected!
Resp:
AT+GPSRD=5

OK
----
Msg: GPS Read Set!
Msg: Getting data from GPS using AT Cmd
Resp:
$GNGGA,141617.288,9000.0000,N,00000.0000,E,0,0,,137.0,M,13.0,M,,*55
$GPGSA,A,1,,,,,,,,,,,,,,,*1E
$BDGSA,A,1,,,,,,,,,,,,,,,*0F
$GPGSV,1,1,04,17,,,20,19,,,26,13,,,18,14,,,16*7C
$BDGSV,1,1,00*68
$GNRMC,141617.288,V,9000.0000,N,00000.0000,E,0.000,0.00,211221,,,N*54
$GNVTG,0.00,T,,M,0.000,N,0.000,K,N*2C
---
Msg: Getting data from GPS using AT done
Resp:
AT+GPSRD=0

OK
----
Msg: GPS Read Off!
Msg: Getting data from Sensors
Resp:
AT+CIPSEND

>
----
Msg: Send Started!
Resp:
GET https://api.thingspeak.com/update?api_key=AYKVFH212TKGNW2B&field1=26.27&field2=37.16&field3=1009.68&field4=10.40&field5=12.30&field6=$GNGGA,141617.288,9000.0000,N,00000.0000,E,0,0,,137.0,M,13.0,M,,*55

----
Resp:

OK



+CIPRCV,1:9
CLOSED
----
Msg: Send Completed!
Resp:
AT+CIPSTATUS
+CIPSTATUS:
STATE:CLOSED
----
Resp:
AT+CIPSTART="TCP","api.thingspeak.com",80
CONNECT OK
----
Msg: Connected!
Resp:
AT+GPSRD=5

OK
----
Msg: GPS Read Set!
Msg: Getting data from GPS using AT Cmd
Resp:
$GNGGA,141638.086,9000.0000,N,00000.0000,E,0,0,,137.0,M,13.0,M,,*54
$GPGSA,A,1,,,,,,,,,,,,,,,*1E
$BDGSA,A,1,,,,,,,,,,,,,,,*0F
$GPGSV,1,1,04,17,,,21,19,,,27,13,,,17,14,,,17*72
$BDGSV,1,1,00*68
$GNRMC,141638.086,V,9000.0000,N,00000.0000,E,0.000,0.00,211221,,,N*55
$GNVTG,0.00,T,,M,0.000,N,0.000,K,N*2C
---
Msg: Getting data from GPS using AT done
Resp:
AT+GPSRD=0

OK
----
Msg: GPS Read Off!
Msg: Getting data from Sensors
Resp:
AT+CIPSEND

>
----
Msg: Send Started!
Resp:
GET https://api.thingspeak.com/update?api_key=AYKVFH212TKGNW2B&field1=26.70&field2=36.60&field3=1009.67&field4=10.60&field5=18.20&field6=$GNGGA,141638.086,9000.0000,N,00000.0000,E,0,0,,137.0,M,13.0,M,,*54

----
Resp:

OK



+CIPRCV,2:10
CLOSED
----
Msg: Send Completed!
Resp:
AT+CIPSTATUS
+CIPSTATUS:
STATE:CLOSED
----
Resp:
AT+CIPSTART="TCP","api.thingspeak.com",80
CONNECT OK
----
Msg: Connected!
Resp:
AT+GPSRD=5

OK
----
Msg: GPS Read Set!
Msg: Getting data from GPS using AT Cmd
Resp:
$GNGGA,141658.086,9000.0000,N,00000.0000,E,0,0,,137.0,M,13.0,M,,*52
$GPGSA,A,1,,,,,,,,,,,,,,,*1E
$BDGSA,A,1,,,,,,,,,,,,,,,*0F
$GPGSV,1,1,04,17,,,22,19,,,29,13,,,19,14,,,18*7E
$BDGSV,1,1,00*68
$GNRMC,141658.086,V,9000.0000,N,00000.0000,E,0.000,0.00,211221,,,N*53
$GNVTG,0.00,T,,M,0.000,N,0.000,K,N*2C
---
Msg: Getting data from GPS using AT done
Resp:
AT+GPSRD=0

OK
----
Msg: GPS Read Off!
Msg: Getting data from Sensors
Resp:
AT+CIPSEND

>
----
Msg: Send Started!
Resp:
GET https://api.thingspeak.com/update?api_key=AYKVFH212TKGNW2B&field1=27.09&field2=35.61&field3=1009.69&field4=10.50&field5=18.70&field6=$GNGGA,141658.086,9000.0000,N,00000.0000,E,0,0,,137.0,M,13.0,M,,*52

----
Resp:

OK



+CIPRCV,2:11
CLOSED
----
Msg: Send Completed!
Resp:
AT+CIPSTATUS
+CIPSTATUS:
STATE:CLOSED
----
Resp:
AT+CIPSTART="TCP","api.thingspeak.com",80
CONNECT OK
----
Msg: Connected!
Resp:
AT+GPSRD=5

OK
----
Msg: GPS Read Set!
Msg: Getting data from GPS using AT Cmd
Resp:
$GNGGA,141718.086,9000.0000,N,00000.0000,E,0,0,,137.0,M,13.0,M,,*57
$GPGSA,A,1,,,,,,,,,,,,,,,*1E
$BDGSA,A,1,,,,,,,,,,,,,,,*0F
$GPGSV,1,1,04,17,,,21,19,,,26,13,,,18,14,,,16*7D
$BDGSV,1,1,00*68
$GNRMC,141718.086,V,9000.0000,N,00000.0000,E,0.000,0.00,211221,,,N*56
$GNVTG,0.00,T,,M,0.000,N,0.000,K,N*2C
---
Msg: Getting data from GPS using AT done
Resp:
AT+GPSRD=0

OK
----
Msg: GPS Read Off!
Msg: Getting data from Sensors
Resp:
AT+CIPSEND

>
----
Msg: Send Started!
Resp:
GET https://api.thingspeak.com/update?api_key=AYKVFH212TKGNW2B&field1=27.46&field2=34.83&field3=1009.71&field4=12.00&field5=27.20&field6=$GNGGA,141718.086,9000.0000,N,00000.0000,E,0,0,,137.0,M,13.0,M,,*57

----
Resp:

OK



+CIPRCV,2:12
CLOSED
----
Msg: Send Completed!
Resp:
AT+CIPSTATUS
+CIPSTATUS:
STATE:CLOSED
----
Resp:
AT+CIPSTART="TCP","api.thingspeak.com",80
CONNECT OK
----
Msg: Connected!
Resp:
AT+GPSRD=5

OK
----
Msg: GPS Read Set!
Msg: Getting data from GPS using AT Cmd
Resp:
$GNGGA,141738.086,9000.0000,N,00000.0000,E,0,0,,137.0,M,13.0,M,,*55
$GPGSA,A,1,,,,,,,,,,,,,,,*1E
$BDGSA,A,1,,,,,,,,,,,,,,,*0F
$GPGSV,1,1,04,17,,,21,19,,,26,13,,,15,14,,,15*73
$BDGSV,1,1,00*68
$GNRMC,141738.086,V,9000.0000,N,00000.0000,E,0.000,0.00,211221,,,N*54
$GNVTG,0.00,T,,M,0.000,N,0.000,K,N*2C
---
Msg: Getting data from GPS using AT done
Resp:
AT+GPSRD=0

OK
----
Msg: GPS Read Off!
Msg: Getting data from Sensors
Resp:
AT+CIPSEND

>
----
Msg: Send Started!
Resp:
GET https://api.thingspeak.com/update?api_key=AYKVFH212TKGNW2B&field1=27.80&field2=34.20&field3=1009.71&field4=12.10&field5=22.60&field6=$GNGGA,141738.086,9000.0000,N,00000.0000,E,0,0,,137.0,M,13.0,M,,*55

----
Resp:

OK



+CIPRCV,2:13
CLOSED
----
Msg: Send Completed!
Resp:
AT+CIPSTATUS
+CIPSTATUS:
STATE:CLOSED
----
Resp:
AT+CIPSTART="TCP","api.thingspeak.com",80
CONNECT OK
----
Msg: Connected!
Resp:
AT+GPSRD=5

OK
----
Msg: GPS Read Set!
Msg: Getting data from GPS using AT Cmd
Resp:
$GNGGA,141758.086,9000.0000,N,00000.0000,E,0,0,,137.0,M,13.0,M,,*53
$GPGSA,A,1,,,,,,,,,,,,,,,*1E
$BDGSA,A,1,,,,,,,,,,,,,,,*0F
$GPGSV,1,1,04,17,,,21,19,,,25,13,,,15,14,,,15*70
$BDGSV,1,1,00*68
$GNRMC,141758.086,V,9000.0000,N,00000.0000,E,0.000,0.00,211221,,,N*52
$GNVTG,0.00,T,,M,0.000,N,0.000,K,N*2C
---
Msg: Getting data from GPS using AT done
Resp:
AT+GPSRD=0

OK
----
Msg: GPS Read Off!
Msg: Getting data from Sensors
Resp:
AT+CIPSEND

>
----
Msg: Send Started!
Resp:
GET https://api.thingspeak.com/update?api_key=AYKVFH212TKGNW2B&field1=28.12&field2=33.88&field3=1009.70&field4=11.80&field5=22.20&field6=$GNGGA,141758.086,9000.0000,N,00000.0000,E,0,0,,137.0,M,13.0,M,,*53

----
Resp:

OK



+CIPRCV,2:14
CLOSED
----
Msg: Send Completed!
Resp:
AT+CIPSTATUS
+CIPSTATUS:
STATE:CLOSED
----
Resp:
AT+CIPSTART="TCP","api.thingspeak.com",80
CONNECT OK
----
Msg: Connected!
Resp:
AT+GPSRD=5

OK
----
Msg: GPS Read Set!
Msg: Getting data from GPS using AT Cmd
Resp:
$GNGGA,141818.086,9000.0000,N,00000.0000,E,0,0,,137.0,M,13.0,M,,*58
$GPGSA,A,1,,,,,,,,,,,,,,,*1E
$BDGSA,A,1,,,,,,,,,,,,,,,*0F
$GPGSV,1,1,04,17,,,19,19,,,26,13,,,17,14,,,15*7A
$BDGSV,1,1,00*68
$GNRMC,141818.086,V,9000.0000,N,00000.0000,E,0.000,0.00,211221,,,N*59
$GNVTG,0.00,T,,M,0.000,N,0.000,K,N*2C
---
Msg: Getting data from GPS using AT done
Resp:
AT+GPSRD=0

OK
----
Msg: GPS Read Off!
Msg: Getting data from Sensors
Resp:
AT+CIPSEND

>
----
Msg: Send Started!
Resp:
GET https://api.thingspeak.com/update?api_key=AYKVFH212TKGNW2B&field1=28.43&field2=33.95&field3=1009.70&field4=11.10&field5=21.40&field6=$GNGGA,141818.086,9000.0000,N,00000.0000,E,0,0,,137.0,M,13.0,M,,*58

----
Resp:

OK



+CIPRCV,2:15
CLOSED
----
Msg: Send Completed!
Resp:
AT+CIPSTATUS
+CIPSTATUS:
STATE:CLOSED
----
Resp:
AT+CIPSTART="TCP","api.thingspeak.com",80
CONNECT OK
----
Msg: Connected!
Resp:
AT+GPSRD=5

OK
----
Msg: GPS Read Set!
Msg: Getting data from GPS using AT Cmd
Resp:
$GNGGA,141838.086,9000.0000,N,00000.0000,E,0,0,,137.0,M,13.0,M,,*5A
$GPGSA,A,1,,,,,,,,,,,,,,,*1E
$BDGSA,A,1,,,,,,,,,,,,,,,*0F
$GPGSV,1,1,04,17,,,23,19,,,24,13,,,18,14,,,17*7C
$BDGSV,1,1,00*68
$GNRMC,141838.086,V,9000.0000,N,00000.0000,E,0.000,0.00,211221,,,N*5B
$GNVTG,0.00,T,,M,0.000,N,0.000,K,N*2C
---
Msg: Getting data from GPS using AT done
Resp:
AT+GPSRD=0

OK
----
Msg: GPS Read Off!
Msg: Getting data from Sensors
Resp:
AT+CIPSEND

>
----
Msg: Send Started!
Resp:
GET https://api.thingspeak.com/update?api_key=AYKVFH212TKGNW2B&field1=28.71&field2=33.57&field3=1009.69&field4=11.70&field5=25.10&field6=$GNGGA,141838.086,9000.0000,N,00000.0000,E,0,0,,137.0,M,13.0,M,,*5A

----
Resp:

OK



+CIPRCV,2:16
CLOSED
----
Msg: Send Completed!
Resp:
AT+CIPSTATUS
+CIPSTATUS:
STATE:CLOSED
----
Resp:
AT+CIPSTART="TCP","api.thingspeak.com",80
CONNECT OK
----
Msg: Connected!
Resp:
AT+GPSRD=5

OK
----
Msg: GPS Read Set!
Msg: Getting data from GPS using AT Cmd
Resp:
$GNGGA,141857.304,9000.0000,N,00000.0000,E,0,0,,137.0,M,13.0,M,,*5A
$GPGSA,A,1,,,,,,,,,,,,,,,*1E
$BDGSA,A,1,,,,,,,,,,,,,,,*0F
$GPGSV,1,1,04,17,,,25,19,,,26,13,,,17,14,,,18*78
$BDGSV,1,1,00*68
$GNRMC,141857.304,V,9000.0000,N,00000.0000,E,0.000,0.00,211221,,,N*5B
$GNVTG,0.00,T,,M,0.000,N,0.000,K,N*2C
---
Msg: Getting data from GPS using AT done
Resp:
AT+GPSRD=0

OK
----
Msg: GPS Read Off!
Msg: Getting data from Sensors
Resp:
AT+CIPSEND

>
----
Msg: Send Started!
Resp:
GET https://api.thingspeak.com/update?api_key=AYKVFH212TKGNW2B&field1=28.97&field2=33.30&field3=1009.69&field4=13.10&field5=31.80&field6=$GNGGA,141857.304,9000.0000,N,00000.0000,E,0,0,,137.0,M,13.0,M,,*5A

----
Resp:

OK



+CIPRCV,2:17
CLOSED
----
Msg: Send Completed!
Resp:
AT+CIPSTATUS
+CIPSTATUS:
STATE:CLOSED
----
Resp:
AT+CIPSTART="TCP","api.thingspeak.com",80
CONNECT OK
----
Msg: Connected!
Resp:
AT+GPSRD=5

OK
----
Msg: GPS Read Set!
Msg: Getting data from GPS using AT Cmd
Resp:
$GNGGA,141917.097,9000.0000,N,00000.0000,E,0,0,,137.0,M,13.0,M,,*56
$GPGSA,A,1,,,,,,,,,,,,,,,*1E
$BDGSA,A,1,,,,,,,,,,,,,,,*0F
$GPGSV,1,1,04,17,,,22,19,,,30,13,,,19,14,,,19*77
$BDGSV,1,1,00*68
$GNRMC,141917.097,V,9000.0000,N,00000.0000,E,0.000,0.00,211221,,,N*57
$GNVTG,0.00,T,,M,0.000,N,0.000,K,N*2C
---
Msg: Getting data from GPS using AT done
Resp:
AT+GPSRD=0

OK
----
Msg: GPS Read Off!
Msg: Getting data from Sensors
Resp:
AT+CIPSEND

>
----
Msg: Send Started!
Resp:
GET https://api.thingspeak.com/update?api_key=AYKVFH212TKGNW2B&field1=29.21&field2=33.05&field3=1009.69&field4=12.70&field5=24.80&field6=$GNGGA,141917.097,9000.0000,N,00000.0000,E,0,0,,137.0,M,13.0,M,,*56

----
Resp:

OK



+CIPRCV,2:18
CLOSED
----
Msg: Send Completed!
Resp:
AT+CIPSTATUS
+CIPSTATUS:
STATE:CLOSED
----
Resp:
AT+CIPSTART="TCP","api.thingspeak.com",80
CONNECT OK
----
Msg: Connected!
Resp:
AT+GPSRD=5

OK
----
Msg: GPS Read Set!
Msg: Getting data from GPS using AT Cmd
Resp:
$GNGGA,141937.094,9000.0000,N,00000.0000,E,0,3,,137.0,M,13.0,M,,*54
$GPGSA,A,1,19,13,17,,,,,,,,,,,,*12
$BDGSA,A,1,,,,,,,,,,,,,,,*0F
$GPGSV,1,1,04,17,,,20,19,,,32,13,,,20,14,,,21*76
$BDGSV,1,1,00*68
$GNRMC,141937.094,V,9000.0000,N,00000.0000,E,0.000,0.00,211221,,,N*56
$GNVTG,0.00,T,,M,0.000,N,0.000,K,N*2C
---
Msg: Getting data from GPS using AT done
Resp:
AT+GPSRD=0

OK
----
Msg: GPS Read Off!
Msg: Getting data from Sensors
Resp:
AT+CIPSEND

>
----
Msg: Send Started!
Resp:
GET https://api.thingspeak.com/update?api_key=AYKVFH212TKGNW2B&field1=29.44&field2=32.72&field3=1009.69&field4=12.20&field5=21.90&field6=$GNGGA,141937.094,9000.0000,N,00000.0000,E,0,3,,137.0,M,13.0,M,,*54

----
Resp:

OK



+CIPRCV,2:19
CLOSED
----
Msg: Send Completed!
Resp:
AT+CIPSTATUS
+CIPSTATUS:
STATE:CLOSED
----
Resp:
AT+CIPSTART="TCP","api.thingspeak.com",80
CONNECT OK
----
Msg: Connected!
Resp:
AT+GPSRD=5

OK
----
Msg: GPS Read Set!
Msg: Getting data from GPS using AT Cmd
Resp:
$GNGGA,141957.094,9000.0000,N,00000.0000,E,0,3,,137.0,M,13.0,M,,*52
$GPGSA,A,1,19,13,17,,,,,,,,,,,,*12
$BDGSA,A,1,,,,,,,,,,,,,,,*0F
$GPGSV,1,1,04,17,,,25,19,,,32,13,,,15,14,,,20*74
$BDGSV,1,1,00*68
$GNRMC,141957.094,V,9000.0000,N,00000.0000,E,0.000,0.00,211221,,,N*50
$GNVTG,0.00,T,,M,0.000,N,0.000,K,N*2C
---
Msg: Getting data from GPS using AT done
Resp:
AT+GPSRD=0

OK
----
Msg: GPS Read Off!
Msg: Getting data from Sensors
Resp:
AT+CIPSEND

>
----
Msg: Send Started!
Resp:
GET https://api.thingspeak.com/update?api_key=AYKVFH212TKGNW2B&field1=29.66&field2=32.37&field3=1009.70&field4=11.20&field5=15.40&field6=$GNGGA,141957.094,9000.0000,N,00000.0000,E,0,3,,137.0,M,13.0,M,,*52

----
Resp:

OK



+CIPRCV,2:20
CLOSED
----
Msg: Send Completed!
Resp:
AT+CIPSTATUS
+CIPSTATUS:
STATE:CLOSED
----
Resp:
AT+CIPSTART="TCP","api.thingspeak.com",80
CONNECT OK
----
Msg: Connected!
Resp:
AT+GPSRD=5

OK
----
Msg: GPS Read Set!
Msg: Getting data from GPS using AT Cmd
Resp:
$GNGGA,142017.090,9000.0000,N,00000.0000,E,0,3,,137.0,M,13.0,M,,*58
$GPGSA,A,1,19,13,17,,,,,,,,,,,,*12
$BDGSA,A,1,,,,,,,,,,,,,,,*0F
$GPGSV,1,1,04,17,,,21,19,,,26,13,,,17,14,,,15*71
$BDGSV,1,1,00*68
$GNRMC,142017.090,V,9000.0000,N,00000.0000,E,0.000,0.00,211221,,,N*5A
$GNVTG,0.00,T,,M,0.000,N,0.000,K,N*2C
---
Msg: Getting data from GPS using AT done
Resp:
AT+GPSRD=0

OK
----
Msg: GPS Read Off!
Msg: Getting data from Sensors
Resp:
AT+CIPSEND

>
----
Msg: Send Started!
Resp:
GET https://api.thingspeak.com/update?api_key=AYKVFH212TKGNW2B&field1=29.86&field2=32.02&field3=1009.70&field4=10.80&field5=14.50&field6=$GNGGA,142017.090,9000.0000,N,00000.0000,E,0,3,,137.0,M,13.0,M,,*58

----
Resp:

OK



+CIPRCV,2:21
CLOSED
----
Msg: Send Completed!
Resp:
AT+CIPSTATUS
+CIPSTATUS:
STATE:CLOSED
----
Resp:
AT+CIPSTART="TCP","api.thingspeak.com",80
CONNECT OK
----
Msg: Connected!
Resp:
AT+GPSRD=5

OK
----
Msg: GPS Read Set!
Msg: Getting data from GPS using AT Cmd
Resp:
$GNGGA,142037.090,9000.0000,N,00000.0000,E,0,3,,137.0,M,13.0,M,,*5A
$GPGSA,A,1,19,13,17,,,,,,,,,,,,*12
$BDGSA,A,1,,,,,,,,,,,,,,,*0F
$GPGSV,1,1,03,17,,,28,19,,,34,13,,,25*7C
$BDGSV,1,1,00*68
$GNRMC,142037.090,V,9000.0000,N,00000.0000,E,0.000,0.00,211221,,,N*58
$GNVTG,0.00,T,,M,0.000,N,0.000,K,N*2C
---
Msg: Getting data from GPS using AT done
Resp:
AT+GPSRD=0

OK
----
Msg: GPS Read Off!
Msg: Getting data from Sensors
Resp:
AT+CIPSEND

>
----
Msg: Send Started!
Resp:
GET https://api.thingspeak.com/update?api_key=AYKVFH212TKGNW2B&field1=30.04&field2=31.80&field3=1009.70&field4=10.10&field5=13.90&field6=$GNGGA,142037.090,9000.0000,N,00000.0000,E,0,3,,137.0,M,13.0,M,,*5A

----
Resp:

OK



+CIPRCV,2:22
CLOSED
----
Msg: Send Completed!
Resp:
AT+CIPSTATUS
+CIPSTATUS:
STATE:CLOSED
----
Resp:
AT+CIPSTART="TCP","api.thingspeak.com",80
CONNECT OK
----
Msg: Connected!
Resp:
AT+GPSRD=5

OK
----
Msg: GPS Read Set!
Msg: Getting data from GPS using AT Cmd
Resp:
$GNGGA,142058.000,4900.5159,N,00825.4728,E,0,2,,101.8,M,47.9,M,,*54
$GPGSA,A,1,19,13,,,,,,,,,,,,,*14
$BDGSA,A,1,,,,,,,,,,,,,,,*0F
$GPGSV,3,1,11,24,62,290,,15,56,190,,13,38,148,23,19,36,108,30*7F
$GPGSV,3,2,11,17,36,073,26,12,27,222,,23,26,273,,14,21,053,*7C
$GPGSV,3,3,11,10,21,309,,01,03,031,,21,01,007,*44
$BDGSV,1,1,00*68
$GNRMC,142058.000,V,4900.5159,N,00825.4728,E,2.504,142.05,211221,,,N*53
$GNVTG,142.05,T,,M,2.504,N,4.640,K,N*2B
---
Msg: Getting data from GPS using AT done
Resp:
AT+GPSRD=0

OK
----
Msg: GPS Read Off!
Msg: Getting data from Sensors
Resp:
AT+CIPSEND

>
----
Msg: Send Started!
Resp:
GET https://api.thingspeak.com/update?api_key=AYKVFH212TKGNW2B&field1=30.22&field2=31.51&field3=1009.70&field4=9.50&field5=13.30&field6=$GNGGA,142058.000,4900.5159,N,00825.4728,E,0,2,,101.8,M,47.9,M,,*54

----
Resp:

OK



+CIPRCV,2:23
CLOSED
----
Msg: Send Completed!
Resp:
AT+CIPSTATUS
+CIPSTATUS:
STATE:CLOSED
----
Resp:
AT+CIPSTART="TCP","api.thingspeak.com",80
CONNECT OK
----
Msg: Connected!
Resp:
AT+GPSRD=5

OK
----
Msg: GPS Read Set!
Msg: Getting data from GPS using AT Cmd
Resp:
$GNGGA,142118.000,4900.5235,N,00825.4628,E,1,3,2.75,134.9,M,47.9,M,,*40
$GPGSA,A,2,19,13,24,,,,,,,,,,2.93,2.75,1.00*06
$BDGSA,A,2,,,,,,,,,,,,,2.93,2.75,1.00*1B
$GPGSV,3,1,11,24,62,290,17,15,56,190,,13,38,148,13,19,36,107,27*73
$GPGSV,3,2,11,17,36,073,21,12,27,222,,23,26,273,,14,21,053,20*79
$GPGSV,3,3,11,10,21,309,,01,03,031,,21,01,007,*44
$BDGSV,1,1,00*68
$GNRMC,142118.000,A,4900.5235,N,00825.4628,E,8.108,106.54,211221,,,A*40
$GNVTG,106.54,T,,M,8.108,N,15.023,K,A*11
---
Msg: Getting data from GPS using AT done
Resp:
AT+GPSRD=0

OK
----
Msg: GPS Read Off!
Msg: Getting data from Sensors
Resp:
AT+CIPSEND

>
----
Msg: Send Started!
Resp:
GET https://api.thingspeak.com/update?api_key=AYKVFH212TKGNW2B&field1=30.38&field2=31.40&field3=1009.69&field4=9.60&field5=18.10&field6=$GNGGA,142118.000,4900.5235,N,00825.4628,E,1,3,2.75,134.9,M,47.9,M,,*40

----
Resp:

OK

+CIPRCV,2:24


CLOSED
----
Msg: Send Completed!
Resp:
AT+CIPSTATUS
+CIPSTATUS:
STATE:CLOSED
----
Resp:
AT+CIPSTART="TCP","api.thingspeak.com",80
CONNECT OK
----
Msg: Connected!
Resp:
AT+GPSRD=5

OK
----
Msg: GPS Read Set!
Msg: Getting data from GPS using AT Cmd
Resp:
$GNGGA,142139.000,4900.5196,N,00825.4465,E,1,4,1.77,105.9,M,47.9,M,,*46
$GPGSA,A,3,19,13,17,24,,,,,,,,,2.03,1.77,1.00*09
$BDGSA,A,3,,,,,,,,,,,,,2.03,1.77,1.00*12
$GPGSV,3,1,11,24,62,291,15,15,56,190,,13,38,148,19,19,36,107,29*74
$GPGSV,3,2,11,17,36,073,24,12,27,222,,23,26,272,,14,21,053,22*7F
$GPGSV,3,3,11,10,21,309,,01,03,031,,21,01,007,*44
$BDGSV,1,1,00*68
$GNRMC,142139.000,A,4900.5196,N,00825.4465,E,0.858,98.98,211221,,,A*70
$GNVTG,98.98,T,,M,0.858,N,1.590,K,A*1B
---
Msg: Getting data from GPS using AT done
Resp:
AT+GPSRD=0

OK
----
Msg: GPS Read Off!
Msg: Getting data from Sensors
Resp:
AT+CIPSEND

>
----
Msg: Send Started!
Resp:
GET https://api.thingspeak.com/update?api_key=AYKVFH212TKGNW2B&field1=30.54&field2=31.23&field3=1009.70&field4=9.50&field5=18.20&field6=$GNGGA,142139.000,4900.5196,N,00825.4465,E,1,4,1.77,105.9,M,47.9,M,,*46

----
Resp:

OK



+CIPRCV,2:25
CLOSED
----
Msg: Send Completed!
Resp:
AT+CIPSTATUS
+CIPSTATUS:
STATE:CLOSED
----
Resp:
AT+CIPSTART="TCP","api.thingspeak.com",80
CONNECT OK
----
Msg: Connected!
Resp:
AT+GPSRD=5

OK
----
Msg: GPS Read Set!
Msg: Getting data from GPS using AT Cmd
Resp:
$GNGGA,142159.000,4900.5226,N,00825.4509,E,1,4,1.76,103.9,M,47.9,M,,*44
$GPGSA,A,3,19,13,17,24,,,,,,,,,2.03,1.76,1.00*08
$BDGSA,A,3,,,,,,,,,,,,,2.03,1.76,1.00*13
$GPGSV,3,1,11,24,62,291,14,15,56,190,,13,38,148,23,19,36,107,30*74
$GPGSV,3,2,11,17,36,073,25,12,27,222,,23,26,272,,14,21,053,20*7C
$GPGSV,3,3,11,10,21,309,,01,03,031,,21,01,007,*44
$BDGSV,1,1,00*68
$GNRMC,142159.000,A,4900.5226,N,00825.4509,E,3.548,102.60,211221,,,A*4F
$GNVTG,102.60,T,,M,3.548,N,6.574,K,A*2C
---
Msg: Getting data from GPS using AT done
Resp:
AT+GPSRD=0

OK
----
Msg: GPS Read Off!
Msg: Getting data from Sensors
Resp:
AT+CIPSEND

>
----
Msg: Send Started!
Resp:
GET https://api.thingspeak.com/update?api_key=AYKVFH212TKGNW2B&field1=30.68&field2=30.78&field3=1009.70&field4=9.70&field5=19.50&field6=$GNGGA,142159.000,4900.5226,N,00825.4509,E,1,4,1.76,103.9,M,47.9,M,,*44

----
Resp:

OK



+CIPRCV,2:26
CLOSED
----
Msg: Send Completed!
Resp:
AT+CIPSTATUS
+CIPSTATUS:
STATE:CLOSED
----
Resp:
AT+CIPSTART="TCP","api.thingspeak.com",80
CONNECT OK
----
Msg: Connected!
Resp:
AT+GPSRD=5

OK
----
Msg: GPS Read Set!
Msg: Getting data from GPS using AT Cmd
Resp:
$GNGGA,142219.000,4900.5212,N,00825.4541,E,1,3,7.51,103.3,M,47.9,M,,*46
$GPGSA,A,2,19,13,17,,,,,,,,,,7.57,7.51,1.00*08
$BDGSA,A,2,,,,,,,,,,,,,7.57,7.51,1.00*15
$GPGSV,3,1,11,24,62,291,,15,56,190,,13,38,148,16,19,36,107,27*71
$GPGSV,3,2,11,17,36,073,25,12,27,222,,23,26,272,,14,21,053,17*78
$GPGSV,3,3,11,10,21,309,,01,03,031,,21,01,007,*44
$BDGSV,1,1,00*68
$GNRMC,142219.000,A,4900.5212,N,00825.4541,E,2.191,90.65,211221,,,A*7D
$GNVTG,90.65,T,,M,2.191,N,4.059,K,A*1A
---
Msg: Getting data from GPS using AT done
Resp:
AT+GPSRD=0

OK
----
Msg: GPS Read Off!
Msg: Getting data from Sensors
Resp:
AT+CIPSEND

>
----
Msg: Send Started!
Resp:
GET https://api.thingspeak.com/update?api_key=AYKVFH212TKGNW2B&field1=30.82&field2=30.71&field3=1009.72&field4=9.40&field5=16.00&field6=$GNGGA,142219.000,4900.5212,N,00825.4541,E,1,3,7.51,103.3,M,47.9,M,,*46

----
Resp:

OK



+CIPRCV,2:27
CLOSED
----
Msg: Send Completed!
Resp:
AT+CIPSTATUS
+CIPSTATUS:
STATE:CLOSED
----
Resp:
AT+CIPSTART="TCP","api.thingspeak.com",80
CONNECT OK
----
Msg: Connected!
Resp:
AT+GPSRD=5

OK
----
Msg: GPS Read Set!
Msg: Getting data from GPS using AT Cmd
Resp:
$GNGGA,142240.000,4900.5235,N,00825.4641,E,1,4,1.76,103.5,M,47.9,M,,*4E
$GPGSA,A,3,19,13,17,24,,,,,,,,,2.02,1.76,1.00*09
$BDGSA,A,3,,,,,,,,,,,,,2.02,1.76,1.00*12
$GPGSV,3,1,11,24,63,291,13,15,56,190,,19,37,107,24,13,37,149,15*7D
$GPGSV,3,2,11,17,36,072,22,12,28,222,,23,26,272,,14,21,053,17*71
$GPGSV,3,3,11,10,21,309,,01,03,031,,21,01,007,*44
$BDGSV,1,1,00*68
$GNRMC,142240.000,A,4900.5235,N,00825.4641,E,0.766,355.70,211221,,,A*45
$GNVTG,355.70,T,,M,0.766,N,1.420,K,A*27
---
Msg: Getting data from GPS using AT done
Resp:
AT+GPSRD=0

OK
----
Msg: GPS Read Off!
Msg: Getting data from Sensors
Resp:
AT+CIPSEND

>
----
Msg: Send Started!
Resp:
GET https://api.thingspeak.com/update?api_key=AYKVFH212TKGNW2B&field1=30.94&field2=29.95&field3=1009.72&field4=10.30&field5=16.40&field6=$GNGGA,142240.000,4900.5235,N,00825.4641,E,1,4,1.76,103.5,M,47.9,M,,*4E

----
Resp:

OK



+CIPRCV,2:28
CLOSED
----
Msg: Send Completed!
Resp:
AT+CIPSTATUS
+CIPSTATUS:
STATE:CLOSED
----
Resp:
AT+CIPSTART="TCP","api.thingspeak.com",80
CONNECT OK
----
Msg: Connected!
Resp:
AT+GPSRD=5

OK
----
Msg: GPS Read Set!
Msg: Getting data from GPS using AT Cmd
Resp:
$GNGGA,142300.000,4900.5152,N,00825.4488,E,1,3,7.55,103.8,M,47.9,M,,*43
$GPGSA,A,2,19,13,17,,,,,,,,,,7.62,7.55,1.00*0A
$BDGSA,A,2,,,,,,,,,,,,,7.62,7.55,1.00*17
$GPGSV,3,1,11,24,63,291,,15,56,190,,19,37,107,22,13,37,149,16*7A
$GPGSV,3,2,11,17,36,072,22,12,28,222,,23,26,272,,14,21,053,15*73
$GPGSV,3,3,11,10,21,309,,01,03,031,,21,01,007,*44
$BDGSV,1,1,00*68
$GNRMC,142300.000,A,4900.5152,N,00825.4488,E,1.787,230.49,211221,,,A*43
$GNVTG,230.49,T,,M,1.787,N,3.312,K,A*25
---
Msg: Getting data from GPS using AT done
Resp:
AT+GPSRD=0

OK
----
Msg: GPS Read Off!
Msg: Getting data from Sensors
Resp:
AT+CIPSEND

>
----
Msg: Send Started!
Resp:
GET https://api.thingspeak.com/update?api_key=AYKVFH212TKGNW2B&field1=31.05&field2=29.52&field3=1009.72&field4=10.30&field5=15.90&field6=$GNGGA,142300.000,4900.5152,N,00825.4488,E,1,3,7.55,103.8,M,47.9,M,,*43

----
Resp:

OK



+CIPRCV,2:29
CLOSED
----
Msg: Send Completed!
Resp:
AT+CIPSTATUS
+CIPSTATUS:
STATE:CLOSED
----
Resp:
AT+CIPSTART="TCP","api.thingspeak.com",80
CONNECT OK
----
Msg: Connected!
Resp:
AT+GPSRD=5

OK
----
Msg: GPS Read Set!
Msg: Getting data from GPS using AT Cmd
Resp:
$GNGGA,142320.000,4900.5140,N,00825.4245,E,1,3,7.58,103.5,M,47.9,M,,*45
$GPGSA,A,2,19,13,17,,,,,,,,,,7.65,7.58,1.00*00
$BDGSA,A,2,,,,,,,,,,,,,7.65,7.58,1.00*1D
$GPGSV,3,1,11,24,63,291,,15,56,190,,19,37,107,21,13,37,149,15*7A
$GPGSV,3,2,11,17,36,072,21,12,28,222,,23,26,272,,14,21,053,15*70
$GPGSV,3,3,11,10,21,309,,01,03,031,,21,01,007,*44
$BDGSV,1,1,00*68
$GNRMC,142320.000,A,4900.5140,N,00825.4245,E,2.031,304.68,211221,,,A*49
$GNVTG,304.68,T,,M,2.031,N,3.764,K,A*2C
---
Msg: Getting data from GPS using AT done
Resp:
AT+GPSRD=0

OK
----
Msg: GPS Read Off!
Msg: Getting data from Sensors
Resp:
AT+CIPSEND

>
----
Msg: Send Started!
Resp:
GET https://api.thingspeak.com/update?api_key=AYKVFH212TKGNW2B&field1=31.16&field2=29.81&field3=1009.73&field4=10.30&field5=13.30&field6=$GNGGA,142320.000,4900.5140,N,00825.4245,E,1,3,7.58,103.5,M,47.9,M,,*45

----
Resp:

OK



+CIPRCV,2:30
CLOSED
----
Msg: Send Completed!
Resp:
AT+CIPSTATUS
+CIPSTATUS:
STATE:CLOSED
----
Resp:
AT+CIPSTART="TCP","api.thingspeak.com",80
CONNECT OK
----
Msg: Connected!
Resp:
AT+GPSRD=5

OK
----
Msg: GPS Read Set!
Msg: Getting data from GPS using AT Cmd
Resp:
$GNGGA,142341.000,4900.5153,N,00825.4365,E,0,2,,103.4,M,47.9,M,,*56
$GPGSA,A,1,19,17,,,,,,,,,,,,,*10
$BDGSA,A,1,,,,,,,,,,,,,,,*0F
$GPGSV,3,1,11,24,63,291,,15,56,190,,19,37,107,22,13,37,149,*7D
$GPGSV,3,2,11,17,36,072,22,12,28,222,,23,26,272,,14,21,053,16*70
$GPGSV,3,3,11,10,21,308,,01,03,030,,21,01,007,*44
$BDGSV,1,1,00*68
$GNRMC,142341.000,V,4900.5153,N,00825.4365,E,0.690,131.74,211221,,,N*51
$GNVTG,131.74,T,,M,0.690,N,1.278,K,N*2F
---
Msg: Getting data from GPS using AT done
Resp:
AT+GPSRD=0

OK
----
Msg: GPS Read Off!
Msg: Getting data from Sensors
Resp:
AT+CIPSEND

>
----
Msg: Send Started!
Resp:
GET https://api.thingspeak.com/update?api_key=AYKVFH212TKGNW2B&field1=31.26&field2=29.59&field3=1009.73&field4=8.70&field5=10.40&field6=$GNGGA,142341.000,4900.5153,N,00825.4365,E,0,2,,103.4,M,47.9,M,,*56

----
Resp:

OK



+CIPRCV,2:31
CLOSED
----
Msg: Send Completed!
Resp:
AT+CIPSTATUS
+CIPSTATUS:
STATE:CLOSED
----
Resp:
AT+CIPSTART="TCP","api.thingspeak.com",80
CONNECT OK
----
Msg: Connected!
Resp:
AT+GPSRD=5

OK
----
Msg: GPS Read Set!
Msg: Getting data from GPS using AT Cmd
Resp:
$GNGGA,142403.000,4900.5176,N,00825.4498,E,1,4,1.75,103.0,M,47.9,M,,*4B
$GPGSA,A,3,19,13,17,24,,,,,,,,,2.01,1.75,1.00*09
$BDGSA,A,3,,,,,,,,,,,,,2.01,1.75,1.00*12
$GPGSV,3,1,11,24,64,291,18,15,55,189,,19,37,106,31,13,36,149,22*7A
$GPGSV,3,2,11,17,36,072,29,12,28,222,,23,26,271,,10,21,308,*76
$GPGSV,3,3,11,14,20,053,,01,03,030,,21,01,006,*4D
$BDGSV,1,1,00*68
$GNRMC,142403.000,A,4900.5176,N,00825.4498,E,0.908,140.09,211221,,,A*48
$GNVTG,140.09,T,,M,0.908,N,1.682,K,A*23
---
Msg: Getting data from GPS using AT done
Resp:
AT+GPSRD=0

OK
----
Msg: GPS Read Off!
Msg: Getting data from Sensors
Resp:
AT+CIPSEND

>
----
Msg: Send Started!
Resp:
GET https://api.thingspeak.com/update?api_key=AYKVFH212TKGNW2B&field1=31.35&field2=29.46&field3=1009.72&field4=9.10&field5=10.60&field6=$GNGGA,142403.000,4900.5176,N,00825.4498,E,1,4,1.75,103.0,M,47.9,M,,*4B

----
Resp:

OK



+CIPRCV,2:32
CLOSED
----
Msg: Send Completed!
Resp:
AT+CIPSTATUS
+CIPSTATUS:
STATE:CLOSED
----
Resp:
AT+CIPSTART="TCP","api.thingspeak.com",80
CONNECT OK
----
Msg: Connected!
Resp:
AT+GPSRD=5

OK
----
Msg: GPS Read Set!
Msg: Getting data from GPS using AT Cmd
Resp:
$GNGGA,142423.000,4900.5184,N,00825.4537,E,1,4,1.75,102.8,M,47.9,M,,*49
$GPGSA,A,3,19,13,17,24,,,,,,,,,2.01,1.75,1.00*09
$BDGSA,A,3,,,,,,,,,,,,,2.01,1.75,1.00*12
$GPGSV,3,1,11,24,64,291,18,15,55,189,,19,37,106,30,13,36,149,19*73
$GPGSV,3,2,11,17,36,072,28,12,28,222,,23,26,271,,10,21,308,*77
$GPGSV,3,3,11,14,20,053,18,01,03,030,,21,01,006,*44
$BDGSV,1,1,00*68
$GNRMC,142423.000,A,4900.5184,N,00825.4537,E,3.808,119.31,211221,,,A*46
$GNVTG,119.31,T,,M,3.808,N,7.055,K,A*2C
---
Msg: Getting data from GPS using AT done
Resp:
AT+GPSRD=0

OK
----
Msg: GPS Read Off!
Msg: Getting data from Sensors
Resp:
AT+CIPSEND

>
----
Msg: Send Started!
Resp:
GET https://api.thingspeak.com/update?api_key=AYKVFH212TKGNW2B&field1=31.44&field2=29.24&field3=1009.71&field4=9.10&field5=13.70&field6=$GNGGA,142423.000,4900.5184,N,00825.4537,E,1,4,1.75,102.8,M,47.9,M,,*49

----
Resp:

OK



+CIPRCV,2:33
CLOSED
----
Msg: Send Completed!
Resp:
AT+CIPSTATUS
+CIPSTATUS:
STATE:CLOSED
----
Resp:
AT+CIPSTART="TCP","api.thingspeak.com",80
CONNECT OK
----
Msg: Connected!
Resp:
AT+GPSRD=5

OK
----
Msg: GPS Read Set!
Msg: Getting data from GPS using AT Cmd
Resp:
$GNGGA,142444.000,4900.5193,N,00825.4386,E,1,4,1.74,102.9,M,47.9,M,,*42
$GPGSA,A,3,19,13,17,24,,,,,,,,,2.01,1.74,1.00*08
$BDGSA,A,3,,,,,,,,,,,,,2.01,1.74,1.00*13
$GPGSV,3,1,11,24,64,291,16,15,55,189,,19,37,106,30,13,36,149,18*7C
$GPGSV,3,2,11,17,36,072,26,12,28,222,,23,26,271,,10,21,308,*79
$GPGSV,3,3,11,14,20,053,,01,03,030,,21,01,006,*4D
$BDGSV,1,1,00*68
$GNRMC,142444.000,A,4900.5193,N,00825.4386,E,2.458,180.55,211221,,,A*47
$GNVTG,180.55,T,,M,2.458,N,4.555,K,A*20
---
Msg: Getting data from GPS using AT done
Resp:
AT+GPSRD=0

OK
----
Msg: GPS Read Off!
Msg: Getting data from Sensors
Resp:
AT+CIPSEND

>
----
Msg: Send Started!
Resp:
GET https://api.thingspeak.com/update?api_key=AYKVFH212TKGNW2B&field1=31.52&field2=29.00&field3=1009.71&field4=9.70&field5=16.70&field6=$GNGGA,142444.000,4900.5193,N,00825.4386,E,1,4,1.74,102.9,M,47.9,M,,*42

----
Resp:

OK



+CIPRCV,2:34
CLOSED
----
Msg: Send Completed!
Resp:
AT+CIPSTATUS
+CIPSTATUS:
STATE:CLOSED
----
Resp:
AT+CIPSTART="TCP","api.thingspeak.com",80
CONNECT OK
----
Msg: Connected!
Resp:
AT+GPSRD=5

OK
----
Msg: GPS Read Set!
Msg: Getting data from GPS using AT Cmd
Resp:
$GNGGA,142504.000,4900.5290,N,00825.4334,E,1,4,1.74,102.6,M,47.9,M,,*41
$GPGSA,A,3,19,13,17,24,,,,,,,,,2.01,1.74,1.00*08
$BDGSA,A,3,,,,,,,,,,,,,2.01,1.74,1.00*13
$GPGSV,3,1,11,24,64,291,14,15,54,189,,19,37,106,26,13,36,149,18*78
$GPGSV,3,2,11,17,36,071,22,12,29,222,,23,26,271,,10,21,307,*70
$GPGSV,3,3,11,14,20,053,18,01,03,030,,21,01,006,*44
$BDGSV,1,1,00*68
$GNRMC,142504.000,A,4900.5290,N,00825.4334,E,0.451,79.42,211221,,,A*71
$GNVTG,79.42,T,,M,0.451,N,0.835,K,A*15
---
Msg: Getting data from GPS using AT done
Resp:
AT+GPSRD=0

OK
----
Msg: GPS Read Off!
Msg: Getting data from Sensors
Resp:
AT+CIPSEND

>
----
Msg: Send Started!
Resp:
GET https://api.thingspeak.com/update?api_key=AYKVFH212TKGNW2B&field1=31.60&field2=28.83&field3=1009.71&field4=9.20&field5=17.80&field6=$GNGGA,142504.000,4900.5290,N,00825.4334,E,1,4,1.74,102.6,M,47.9,M,,*41

----
Resp:

OK



+CIPRCV,2:35
CLOSED
----
Msg: Send Completed!
Resp:
AT+CIPSTATUS
+CIPSTATUS:
STATE:CLOSED
----
Resp:
AT+CIPSTART="TCP","api.thingspeak.com",80
CONNECT OK
----
Msg: Connected!
Resp:
AT+GPSRD=5

OK
----
Msg: GPS Read Set!
Msg: Getting data from GPS using AT Cmd
Resp:
$GNGGA,142524.000,4900.5328,N,00825.4356,E,1,4,1.74,103.5,M,47.9,M,,*47
$GPGSA,A,3,19,13,17,24,,,,,,,,,2.00,1.74,1.00*09
$BDGSA,A,3,,,,,,,,,,,,,2.00,1.74,1.00*12
$GPGSV,3,1,11,24,64,292,14,15,54,189,,19,37,105,25,13,36,149,19*7A
$GPGSV,3,2,11,17,36,071,21,12,29,222,,23,25,271,,10,21,307,*70
$GPGSV,3,3,11,14,20,053,16,01,03,030,,21,01,006,*4A
$BDGSV,1,1,00*68
$GNRMC,142524.000,A,4900.5328,N,00825.4356,E,0.514,14.88,211221,,,A*78
$GNVTG,14.88,T,,M,0.514,N,0.953,K,A*19
---
Msg: Getting data from GPS using AT done
Resp:
AT+GPSRD=0

OK
----
Msg: GPS Read Off!
Msg: Getting data from Sensors
Resp:
AT+CIPSEND

>
----
Msg: Send Started!
Resp:
GET https://api.thingspeak.com/update?api_key=AYKVFH212TKGNW2B&field1=31.67&field2=28.88&field3=1009.71&field4=9.80&field5=17.50&field6=$GNGGA,142524.000,4900.5328,N,00825.4356,E,1,4,1.74,103.5,M,47.9,M,,*47

----
Resp:

OK



+CIPRCV,2:36
CLOSED
----
Msg: Send Completed!
Resp:
AT+CIPSTATUS
+CIPSTATUS:
STATE:CLOSED
----
Resp:
AT+CIPSTART="TCP","api.thingspeak.com",80
CONNECT OK
----
Msg: Connected!
Resp:
AT+GPSRD=5

OK
----
Msg: GPS Read Set!
Msg: Getting data from GPS using AT Cmd
Resp:
$GNGGA,142545.000,4900.5406,N,00825.4272,E,1,4,1.74,104.4,M,47.9,M,,*4A
$GPGSA,A,3,19,13,17,24,,,,,,,,,2.00,1.74,1.00*09
$BDGSA,A,3,,,,,,,,,,,,,2.00,1.74,1.00*12
$GPGSV,3,1,11,24,64,292,13,15,54,189,,19,37,105,25,13,36,149,18*7C
$GPGSV,3,2,11,17,36,071,18,12,29,222,,23,25,271,,10,21,307,*7A
$GPGSV,3,3,11,14,20,053,17,01,03,030,,21,01,006,*4B
$BDGSV,1,1,00*68
$GNRMC,142545.000,A,4900.5406,N,00825.4272,E,0.826,6.19,211221,,,A*44
$GNVTG,6.19,T,,M,0.826,N,1.530,K,A*26
---
Msg: Getting data from GPS using AT done
Resp:
AT+GPSRD=0

OK
----
Msg: GPS Read Off!
Msg: Getting data from Sensors
Resp:
AT+CIPSEND

>
----
Msg: Send Started!
Resp:
GET https://api.thingspeak.com/update?api_key=AYKVFH212TKGNW2B&field1=31.74&field2=28.92&field3=1009.71&field4=10.00&field5=16.50&field6=$GNGGA,142545.000,4900.5406,N,00825.4272,E,1,4,1.74,104.4,M,47.9,M,,*4A

----
Resp:

OK



+CIPRCV,2:37
CLOSED
----
Msg: Send Completed!
Resp:
AT+CIPSTATUS
+CIPSTATUS:
STATE:CLOSED
----
Resp:
AT+CIPSTART="TCP","api.thingspeak.com",80
CONNECT OK
----
Msg: Connected!
Resp:
AT+GPSRD=5

OK
----
Msg: GPS Read Set!
Msg: Getting data from GPS using AT Cmd
Resp:
$GNGGA,142605.000,4900.5268,N,00825.4000,E,1,3,7.79,104.7,M,47.9,M,,*4B
$GPGSA,A,2,19,13,17,,,,,,,,,,7.85,7.79,1.00*0D
$BDGSA,A,2,,,,,,,,,,,,,7.85,7.79,1.00*10
$GPGSV,3,1,11,24,64,292,,15,54,189,,19,37,105,25,13,36,149,14*72
$GPGSV,3,2,11,17,36,071,19,12,29,222,,23,25,271,,10,21,307,*7B
$GPGSV,3,3,11,14,20,053,18,01,03,029,,21,01,006,*4C
$BDGSV,1,1,00*68
$GNRMC,142605.000,A,4900.5268,N,00825.4000,E,2.871,241.30,211221,,,A*40
$GNVTG,241.30,T,,M,2.871,N,5.320,K,A*2F
---
Msg: Getting data from GPS using AT done
Resp:
AT+GPSRD=0

OK
----
Msg: GPS Read Off!
Msg: Getting data from Sensors
Resp:
AT+CIPSEND

>
----
Msg: Send Started!
Resp:
GET https://api.thingspeak.com/update?api_key=AYKVFH212TKGNW2B&field1=31.81&field2=28.57&field3=1009.71&field4=9.20&field5=16.10&field6=$GNGGA,142605.000,4900.5268,N,00825.4000,E,1,3,7.79,104.7,M,47.9,M,,*4B

----
Resp:

OK



+CIPRCV,2:38
CLOSED
----
Msg: Send Completed!
Resp:
AT+CIPSTATUS
+CIPSTATUS:
STATE:CLOSED
----
Resp:
AT+CIPSTART="TCP","api.thingspeak.com",80
CONNECT OK
----
Msg: Connected!
Resp:
AT+GPSRD=5

OK
----
Msg: GPS Read Set!
Msg: Getting data from GPS using AT Cmd
Resp:
$GNGGA,142626.000,4900.5233,N,00825.4519,E,1,3,7.82,104.7,M,47.9,M,,*4D
$GPGSA,A,2,19,17,13,,,,,,,,,,7.88,7.82,1.00*04
$BDGSA,A,2,,,,,,,,,,,,,7.88,7.82,1.00*19
$GPGSV,3,1,11,24,64,292,,15,54,189,,19,38,105,25,17,36,070,19*7F
$GPGSV,3,2,11,13,35,149,17,12,30,223,,23,25,271,,10,21,307,*71
$GPGSV,3,3,11,14,19,054,20,01,03,029,,21,01,005,*49
$BDGSV,1,1,00*68
$GNRMC,142626.000,A,4900.5233,N,00825.4519,E,4.441,86.45,211221,,,A*70
$GNVTG,86.45,T,,M,4.441,N,8.229,K,A*18
---
Msg: Getting data from GPS using AT done
Resp:
AT+GPSRD=0

OK
----
Msg: GPS Read Off!
Msg: Getting data from Sensors
Resp:
AT+CIPSEND

>
----
Msg: Send Started!
Resp:
GET https://api.thingspeak.com/update?api_key=AYKVFH212TKGNW2B&field1=31.87&field2=28.54&field3=1009.70&field4=8.60&field5=17.30&field6=$GNGGA,142626.000,4900.5233,N,00825.4519,E,1,3,7.82,104.7,M,47.9,M,,*4D

----
Resp:

OK



+CIPRCV,2:39
CLOSED
----
Msg: Send Completed!
Resp:
AT+CIPSTATUS
+CIPSTATUS:
STATE:CLOSED
----
Resp:
AT+CIPSTART="TCP","api.thingspeak.com",80
CONNECT OK
----
Msg: Connected!
Resp:
AT+GPSRD=5

OK
----
Msg: GPS Read Set!
Msg: Getting data from GPS using AT Cmd
Resp:
$GNGGA,142647.000,4900.5242,N,00825.4713,E,1,4,1.73,105.8,M,47.9,M,,*45
$GPGSA,A,3,19,17,24,13,,,,,,,,,2.00,1.73,1.00*0E
$BDGSA,A,3,,,,,,,,,,,,,2.00,1.73,1.00*15
$GPGSV,3,1,11,24,65,292,12,15,54,189,,19,38,105,23,17,36,070,16*74
$GPGSV,3,2,11,13,35,149,11,12,30,223,,23,25,270,,10,21,307,*76
$GPGSV,3,3,11,14,19,054,17,01,03,029,,21,01,005,*4D
$BDGSV,1,1,00*68
$GNRMC,142647.000,A,4900.5242,N,00825.4713,E,3.881,110.19,211221,,,A*49
$GNVTG,110.19,T,,M,3.881,N,7.192,K,A*24
---
Msg: Getting data from GPS using AT done
Resp:
AT+GPSRD=0

OK
----
Msg: GPS Read Off!
Msg: Getting data from Sensors
Resp:
AT+CIPSEND

>
----
Msg: Send Started!
Resp:
GET https://api.thingspeak.com/update?api_key=AYKVFH212TKGNW2B&field1=31.92&field2=28.30&field3=1009.71&field4=9.40&field5=19.50&field6=$GNGGA,142647.000,4900.5242,N,00825.4713,E,1,4,1.73,105.8,M,47.9,M,,*45

----
Resp:

OK



+CIPRCV,2:40
CLOSED
----
Msg: Send Completed!
Resp:
AT+CIPSTATUS
+CIPSTATUS:
STATE:CLOSED
----
Resp:
AT+CIPSTART="TCP","api.thingspeak.com",80
CONNECT OK
----
Msg: Connected!
Resp:
AT+GPSRD=5

OK
----
Msg: GPS Read Set!
Msg: Getting data from GPS using AT Cmd
Resp:
$GNGGA,142710.000,4900.5245,N,00825.5042,E,1,3,3.20,106.3,M,47.9,M,,*48
$GPGSA,A,2,19,17,24,,,,,,,,,,3.35,3.20,1.00*0E
$BDGSA,A,2,,,,,,,,,,,,,3.35,3.20,1.00*17
$GPGSV,3,1,11,24,65,292,15,15,54,189,,19,38,105,23,17,36,070,19*7C
$GPGSV,3,2,11,13,35,149,,12,30,223,,23,25,270,,10,21,307,*76
$GPGSV,3,3,11,14,19,054,16,01,03,029,,21,01,005,*4C
$BDGSV,1,1,00*68
$GNRMC,142710.000,A,4900.5245,N,00825.5042,E,3.790,107.22,211221,,,A*4E
$GNVTG,107.22,T,,M,3.790,N,7.022,K,A*2F
---
Msg: Getting data from GPS using AT done
Resp:
AT+GPSRD=0

OK
----
Msg: GPS Read Off!
Msg: Getting data from Sensors
Resp:
AT+CIPSEND

>
----
Msg: Send Started!
Resp:
GET https://api.thingspeak.com/update?api_key=AYKVFH212TKGNW2B&field1=31.97&field2=28.24&field3=1009.71&field4=10.20&field5=14.90&field6=$GNGGA,142710.000,4900.5245,N,00825.5042,E,1,3,3.20,106.3,M,47.9,M,,*48

----
Resp:

OK



+CIPRCV,2:41
CLOSED
----
Msg: Send Completed!
Resp:
AT+CIPSTATUS
+CIPSTATUS:
STATE:CLOSED
----
Resp:
AT+CIPSTART="TCP","api.thingspeak.com",80
CONNECT OK
----
Msg: Connected!
Resp:
AT+GPSRD=5

OK
----
Msg: GPS Read Set!
Msg: Getting data from GPS using AT Cmd
Resp:
$GNGGA,142730.000,4900.5165,N,00825.4847,E,1,4,1.73,106.4,M,47.9,M,,*43
$GPGSA,A,3,19,17,24,13,,,,,,,,,1.99,1.73,1.00*0D
$BDGSA,A,3,,,,,,,,,,,,,1.99,1.73,1.00*16
$GPGSV,3,1,11,24,65,292,13,15,54,189,,19,38,105,23,17,36,070,23*73
$GPGSV,3,2,11,13,35,149,18,12,30,223,,23,25,270,,10,21,307,*7F
$GPGSV,3,3,11,14,19,054,18,01,03,029,,21,01,005,*42
$BDGSV,1,1,00*68
$GNRMC,142730.000,A,4900.5165,N,00825.4847,E,2.096,295.18,211221,,,A*40
$GNVTG,295.18,T,,M,2.096,N,3.884,K,A*2E
---
Msg: Getting data from GPS using AT done
Resp:
AT+GPSRD=0

OK
----
Msg: GPS Read Off!
Msg: Getting data from Sensors
Resp:
AT+CIPSEND

>
----
Msg: Send Started!
Resp:
GET https://api.thingspeak.com/update?api_key=AYKVFH212TKGNW2B&field1=32.01&field2=28.01&field3=1009.69&field4=11.10&field5=17.80&field6=$GNGGA,142730.000,4900.5165,N,00825.4847,E,1,4,1.73,106.4,M,47.9,M,,*43

----
Resp:

OK



+CIPRCV,2:42
CLOSED
----
Msg: Send Completed!
Resp:
AT+CIPSTATUS
+CIPSTATUS:
STATE:CLOSED
----
Resp:
AT+CIPSTART="TCP","api.thingspeak.com",80
CONNECT OK
----
Msg: Connected!
Resp:
AT+GPSRD=5

OK
----
Msg: GPS Read Set!
Msg: Getting data from GPS using AT Cmd
Resp:
$GNGGA,142751.000,4900.5159,N,00825.4919,E,1,3,7.92,107.7,M,47.9,M,,*4D
$GPGSA,A,2,19,17,13,,,,,,,,,,7.99,7.92,1.00*05
$BDGSA,A,2,,,,,,,,,,,,,7.99,7.92,1.00*18
$GPGSV,3,1,11,24,65,292,,15,53,188,,19,38,104,24,17,36,070,23*71
$GPGSV,3,2,11,13,35,149,15,39,31,158,,12,30,223,,23,25,270,*70
$GPGSV,3,3,11,10,21,306,,14,19,054,19,01,03,029,18*4A
$BDGSV,1,1,00*68
$GNRMC,142751.000,A,4900.5159,N,00825.4919,E,2.406,109.82,211221,,,A*4A
$GNVTG,109.82,T,,M,2.406,N,4.458,K,A*2C
---
Msg: Getting data from GPS using AT done
Resp:
AT+GPSRD=0

OK
----
Msg: GPS Read Off!
Msg: Getting data from Sensors
Resp:
AT+CIPSEND

>
----
Msg: Send Started!
Resp:
GET https://api.thingspeak.com/update?api_key=AYKVFH212TKGNW2B&field1=32.05&field2=27.83&field3=1009.69&field4=10.30&field5=15.40&field6=$GNGGA,142751.000,4900.5159,N,00825.4919,E,1,3,7.92,107.7,M,47.9,M,,*4D

----
Resp:

OK



+CIPRCV,2:43
CLOSED
----
Msg: Send Completed!
Resp:
AT+CIPSTATUS
+CIPSTATUS:
STATE:CLOSED
----
Resp:
AT+CIPSTART="TCP","api.thingspeak.com",80
CONNECT OK
----
Msg: Connected!
Resp:
AT+GPSRD=5

OK
----
Msg: GPS Read Set!
Msg: Getting data from GPS using AT Cmd
Resp:
$GNGGA,142813.000,4900.5166,N,00825.4955,E,1,3,7.95,107.8,M,47.9,M,,*48
$GPGSA,A,2,19,17,13,,,,,,,,,,8.01,7.95,1.00*0C
$BDGSA,A,2,,,,,,,,,,,,,8.01,7.95,1.00*11
$GPGSV,3,1,11,24,65,292,,15,53,188,,19,38,104,25,17,36,070,22*71
$GPGSV,3,2,11,13,35,149,16,12,30,223,,23,25,270,,10,21,306,*70
$GPGSV,3,3,11,14,19,054,19,40,13,117,,01,03,029,18*4C
$BDGSV,1,1,00*68
$GNRMC,142813.000,A,4900.5166,N,00825.4955,E,1.426,91.50,211221,,,A*79
$GNVTG,91.50,T,,M,1.426,N,2.642,K,A*1D
---
Msg: Getting data from GPS using AT done
Resp:
AT+GPSRD=0

OK
----
Msg: GPS Read Off!
Msg: Getting data from Sensors
Resp:
AT+CIPSEND

>
----
Msg: Send Started!
Resp:
GET https://api.thingspeak.com/update?api_key=AYKVFH212TKGNW2B&field1=32.09&field2=27.51&field3=1009.67&field4=10.30&field5=17.40&field6=$GNGGA,142813.000,4900.5166,N,00825.4955,E,1,3,7.95,107.8,M,47.9,M,,*48

----
Resp:

OK



+CIPRCV,2:44
CLOSED
----
Msg: Send Completed!
Resp:
AT+CIPSTATUS
+CIPSTATUS:
STATE:CLOSED
----
Resp:
AT+CIPSTART="TCP","api.thingspeak.com",80
CONNECT OK
----
Msg: Connected!
Resp:
AT+GPSRD=5

OK
----
Msg: GPS Read Set!
Msg: Getting data from GPS using AT Cmd
Resp:
$GNGGA,142833.000,4900.5223,N,00825.4561,E,1,3,7.97,107.7,M,47.9,M,,*4E
$GPGSA,A,2,19,17,13,,,,,,,,,,8.03,7.97,1.00*0C
$BDGSA,A,2,,,,,,,,,,,,,8.03,7.97,1.00*11
$GPGSV,3,1,11,24,65,292,,15,53,188,,19,38,104,27,17,36,070,22*73
$GPGSV,3,2,11,13,35,149,16,37,32,162,,12,30,223,,23,25,270,*77
$GPGSV,3,3,11,10,21,306,,14,19,054,18,01,03,029,18*4B
$BDGSV,1,1,00*68
$GNRMC,142833.000,A,4900.5223,N,00825.4561,E,2.383,290.03,211221,,,A*4C
$GNVTG,290.03,T,,M,2.383,N,4.416,K,A*26
---
Msg: Getting data from GPS using AT done
Resp:
AT+GPSRD=0

OK
----
Msg: GPS Read Off!
Msg: Getting data from Sensors
Resp:
AT+CIPSEND

>
----
Msg: Send Started!
Resp:
GET https://api.thingspeak.com/update?api_key=AYKVFH212TKGNW2B&field1=32.12&field2=27.51&field3=1009.67&field4=9.80&field5=15.10&field6=$GNGGA,142833.000,4900.5223,N,00825.4561,E,1,3,7.97,107.7,M,47.9,M,,*4E

----
Resp:

OK



+CIPRCV,2:45
CLOSED
----
Msg: Send Completed!
Resp:
AT+CIPSTATUS
+CIPSTATUS:
STATE:CLOSED
----
Resp:
AT+CIPSTART="TCP","api.thingspeak.com",80
CONNECT OK
----
Msg: Connected!
Resp:
AT+GPSRD=5

OK
----
Msg: GPS Read Set!
Msg: Getting data from GPS using AT Cmd
Resp:
$GNGGA,142854.000,4900.5228,N,00825.3894,E,1,3,8.00,107.6,M,47.9,M,,*44
$GPGSA,A,2,19,17,13,,,,,,,,,,8.06,8.00,1.00*08
$BDGSA,A,2,,,,,,,,,,,,,8.06,8.00,1.00*15
$GPGSV,3,1,11,24,65,292,,15,53,188,,19,38,104,26,17,36,070,24*74
$GPGSV,3,2,11,13,34,150,11,12,31,223,,33,29,210,,23,25,270,*70
$GPGSV,3,3,11,10,21,306,,14,18,054,18,01,03,028,18*4B
$BDGSV,1,1,00*68
$GNRMC,142854.000,A,4900.5228,N,00825.3894,E,6.410,270.83,211221,,,A*49
$GNVTG,270.83,T,,M,6.410,N,11.878,K,A*19
---
Msg: Getting data from GPS using AT done
Resp:
AT+GPSRD=0

OK
----
Msg: GPS Read Off!
Msg: Getting data from Sensors
Resp:
AT+CIPSEND

>
----
Msg: Send Started!
Resp:
GET https://api.thingspeak.com/update?api_key=AYKVFH212TKGNW2B&field1=32.16&field2=27.66&field3=1009.67&field4=11.20&field5=17.70&field6=$GNGGA,142854.000,4900.5228,N,00825.3894,E,1,3,8.00,107.6,M,47.9,M,,*44

----
Resp:

OK



+CIPRCV,2:46
CLOSED
----
Msg: Send Completed!
Resp:
AT+CIPSTATUS
+CIPSTATUS:
STATE:CLOSED
----
Resp:
AT+CIPSTART="TCP","api.thingspeak.com",80
CONNECT OK
----
Msg: Connected!
Resp:
AT+GPSRD=5

OK
----
Msg: GPS Read Set!
Msg: Getting data from GPS using AT Cmd
Resp:
$GNGGA,142914.000,4900.5194,N,00825.3460,E,0,2,,107.5,M,47.9,M,,*57
$GPGSA,A,1,19,17,,,,,,,,,,,,,*10
$BDGSA,A,1,,,,,,,,,,,,,,,*0F
$GPGSV,3,1,10,24,66,293,,15,53,188,,19,38,103,26,17,36,069,23*7F
$GPGSV,3,2,10,13,34,150,,12,31,223,,23,25,269,,10,21,306,*76
$GPGSV,3,3,10,14,18,054,19,01,03,028,18*7C
$BDGSV,1,1,00*68
$GNRMC,142914.000,V,4900.5194,N,00825.3460,E,2.269,237.01,211221,,,N*52
$GNVTG,237.01,T,,M,2.269,N,4.204,K,N*26
---
Msg: Getting data from GPS using AT done
Resp:
AT+GPSRD=0

OK
----
Msg: GPS Read Off!
Msg: Getting data from Sensors
Resp:
AT+CIPSEND

>
----
Msg: Send Started!
Resp:
GET https://api.thingspeak.com/update?api_key=AYKVFH212TKGNW2B&field1=32.19&field2=27.84&field3=1009.66&field4=10.80&field5=16.00&field6=$GNGGA,142914.000,4900.5194,N,00825.3460,E,0,2,,107.5,M,47.9,M,,*57

----
Resp:

OK



+CIPRCV,2:47
CLOSED
----
Msg: Send Completed!
Resp:
AT+CIPSTATUS
+CIPSTATUS:
STATE:CLOSED
----
Resp:
AT+CIPSTART="TCP","api.thingspeak.com",80
CONNECT OK
----
Msg: Connected!
Resp:
AT+GPSRD=5

OK
----
Msg: GPS Read Set!
Msg: Getting data from GPS using AT Cmd
Resp:
$GNGGA,142934.000,4900.5197,N,00825.3412,E,1,4,1.72,107.3,M,47.9,M,,*48
$GPGSA,A,3,19,17,24,13,,,,,,,,,1.99,1.72,1.00*0C
$BDGSA,A,3,,,,,,,,,,,,,1.99,1.72,1.00*17
$GPGSV,3,1,11,24,66,293,17,15,53,188,,19,38,103,26,17,36,069,23*78
$GPGSV,3,2,11,13,34,150,18,12,31,223,,23,25,269,,10,21,306,*7E
$GPGSV,3,3,11,14,18,054,17,44,12,116,,01,03,028,18*46
$BDGSV,1,1,00*68
$GNRMC,142934.000,A,4900.5197,N,00825.3412,E,3.224,101.60,211221,,,A*47
$GNVTG,101.60,T,,M,3.224,N,5.975,K,A*2C
---
Msg: Getting data from GPS using AT done
Resp:
AT+GPSRD=0

OK
----
Msg: GPS Read Off!
Msg: Getting data from Sensors
Resp:
AT+CIPSEND

>
----
Msg: Send Started!
Resp:
GET https://api.thingspeak.com/update?api_key=AYKVFH212TKGNW2B&field1=32.22&field2=27.61&field3=1009.66&field4=10.40&field5=16.40&field6=$GNGGA,142934.000,4900.5197,N,00825.3412,E,1,4,1.72,107.3,M,47.9,M,,*48

----
Resp:

OK



+CIPRCV,2:48
CLOSED
----
Msg: Send Completed!
Resp:
AT+CIPSTATUS
+CIPSTATUS:
STATE:CLOSED
----
Resp:
AT+CIPSTART="TCP","api.thingspeak.com",80
CONNECT OK
----
Msg: Connected!
Resp:
AT+GPSRD=5

OK
----
Msg: GPS Read Set!
Msg: Getting data from GPS using AT Cmd
Resp:
$GNGGA,142955.000,4900.5183,N,00825.4277,E,1,3,8.08,106.5,M,47.9,M,,*4C
$GPGSA,A,2,19,17,13,,,,,,,,,,8.14,8.08,1.00*03
$BDGSA,A,2,,,,,,,,,,,,,8.14,8.08,1.00*1E
$GPGSV,3,1,11,24,66,293,,15,53,188,,19,38,103,24,17,36,069,24*7B
$GPGSV,3,2,11,13,34,150,16,12,31,223,,23,25,269,,10,21,306,*70
$GPGSV,3,3,11,14,18,054,17,01,03,028,18,38,,,*78
$BDGSV,1,1,00*68
$GNRMC,142955.000,A,4900.5183,N,00825.4277,E,10.030,90.78,211221,,,A*42
$GNVTG,90.78,T,,M,10.030,N,18.586,K,A*15
---
Msg: Getting data from GPS using AT done
Resp:
AT+GPSRD=0

OK
----
Msg: GPS Read Off!
Msg: Getting data from Sensors
Resp:
AT+CIPSEND

>
----
Msg: Send Started!
Resp:
GET https://api.thingspeak.com/update?api_key=AYKVFH212TKGNW2B&field1=32.25&field2=27.47&field3=1009.66&field4=9.90&field5=15.50&field6=$GNGGA,142955.000,4900.5183,N,00825.4277,E,1,3,8.08,106.5,M,47.9,M,,*4C

----
Resp:

OK



+CIPRCV,2:49
CLOSED
----
Msg: Send Completed!
Resp:
AT+CIPSTATUS
+CIPSTATUS:
STATE:CLOSED
----
Resp:
AT+CIPSTART="TCP","api.thingspeak.com",80
CONNECT OK
----
Msg: Connected!
Resp:
AT+GPSRD=5

OK
----
Msg: GPS Read Set!
Msg: Getting data from GPS using AT Cmd
Resp:
$GNGGA,143015.000,4900.5162,N,00825.5070,E,1,3,8.10,105.4,M,47.9,M,,*40
$GPGSA,A,2,19,17,13,,,,,,,,,,8.16,8.10,1.00*08
$BDGSA,A,2,,,,,,,,,,,,,8.16,8.10,1.00*15
$GPGSV,3,1,11,24,66,293,,15,52,188,,19,39,103,24,17,36,068,22*7C
$GPGSV,3,2,11,13,33,150,19,12,31,223,,23,25,269,,10,21,305,*7B
$GPGSV,3,3,11,14,17,054,19,01,03,028,17,45,,,*7C
$BDGSV,1,1,00*68
$GNRMC,143015.000,A,4900.5162,N,00825.5070,E,8.824,100.04,211221,,,A*42
$GNVTG,100.04,T,,M,8.824,N,16.351,K,A*10
---
Msg: Getting data from GPS using AT done
Resp:
AT+GPSRD=0

OK
----
Msg: GPS Read Off!
Msg: Getting data from Sensors
Resp:
AT+CIPSEND

>
----
Msg: Send Started!
Resp:
GET https://api.thingspeak.com/update?api_key=AYKVFH212TKGNW2B&field1=32.28&field2=27.56&field3=1009.67&field4=10.50&field5=14.50&field6=$GNGGA,143015.000,4900.5162,N,00825.5070,E,1,3,8.10,105.4,M,47.9,M,,*40

----
Resp:

OK



+CIPRCV,2:50
CLOSED
----
Msg: Send Completed!
Resp:
AT+CIPSTATUS
+CIPSTATUS:
STATE:CLOSED
----
Resp:
AT+CIPSTART="TCP","api.thingspeak.com",80
CONNECT OK
----
Msg: Connected!
Resp:
AT+GPSRD=5

OK
----
Msg: GPS Read Set!
Msg: Getting data from GPS using AT Cmd
Resp:
$GNGGA,143035.000,4900.5252,N,00825.4702,E,1,4,1.71,104.7,M,47.9,M,,*4A
$GPGSA,A,3,19,17,24,13,,,,,,,,,1.98,1.71,1.00*0E
$BDGSA,A,3,,,,,,,,,,,,,1.98,1.71,1.00*15
$GPGSV,3,1,11,24,67,293,14,15,52,188,,19,39,103,23,17,36,068,20*7D
$GPGSV,3,2,11,13,33,150,16,12,31,223,,23,24,268,,10,21,305,*74
$GPGSV,3,3,11,14,17,054,18,01,03,028,14,49,,,*72
$BDGSV,1,1,00*68
$GNRMC,143035.000,A,4900.5252,N,00825.4702,E,2.296,83.51,211221,,,A*70
$GNVTG,83.51,T,,M,2.296,N,4.255,K,A*15
---
Msg: Getting data from GPS using AT done
Resp:
AT+GPSRD=0

OK
----
Msg: GPS Read Off!
Msg: Getting data from Sensors
Resp:
AT+CIPSEND

>
----
Msg: Send Started!
Resp:
GET https://api.thingspeak.com/update?api_key=AYKVFH212TKGNW2B&field1=32.31&field2=27.55&field3=1009.67&field4=10.40&field5=16.50&field6=$GNGGA,143035.000,4900.5252,N,00825.4702,E,1,4,1.71,104.7,M,47.9,M,,*4A

----
Resp:

OK



+CIPRCV,2:51
CLOSED
----
Msg: Send Completed!
Resp:
AT+CIPSTATUS
+CIPSTATUS:
STATE:CLOSED
----
Resp:
AT+CIPSTART="TCP","api.thingspeak.com",80
CONNECT OK
----
Msg: Connected!
Resp:
AT+GPSRD=5

OK
----
Msg: GPS Read Set!
Msg: Getting data from GPS using AT Cmd
Resp:
$GNGGA,143056.000,4900.5226,N,00825.4741,E,1,3,8.16,104.2,M,47.9,M,,*41
$GPGSA,A,2,19,17,13,,,,,,,,,,8.22,8.16,1.00*09
$BDGSA,A,2,,,,,,,,,,,,,8.22,8.16,1.00*14
$GPGSV,3,1,11,24,67,293,,15,52,188,,19,39,103,22,17,36,068,19*73
$GPGSV,3,2,11,13,33,150,16,12,31,223,,33,29,210,,23,24,268,*78
$GPGSV,3,3,11,10,21,305,,14,17,054,14,01,03,028,13*40
$BDGSV,1,1,00*68
$GNRMC,143056.000,A,4900.5226,N,00825.4741,E,2.786,3.32,211221,,,A*48
$GNVTG,3.32,T,,M,2.786,N,5.162,K,A*2A
---
Msg: Getting data from GPS using AT done
Resp:
AT+GPSRD=0

OK
----
Msg: GPS Read Off!
Msg: Getting data from Sensors
Resp:
AT+CIPSEND

>
----
Msg: Send Started!
Resp:
GET https://api.thingspeak.com/update?api_key=AYKVFH212TKGNW2B&field1=32.34&field2=27.48&field3=1009.68&field4=9.30&field5=15.70&field6=$GNGGA,143056.000,4900.5226,N,00825.4741,E,1,3,8.16,104.2,M,47.9,M,,*41

----
Resp:

OK



+CIPRCV,2:52
CLOSED
----
Msg: Send Completed!
Resp:
AT+CIPSTATUS
+CIPSTATUS:
STATE:CLOSED
----
Resp:
AT+CIPSTART="TCP","api.thingspeak.com",80
CONNECT OK
----
Msg: Connected!
Resp:
AT+GPSRD=5

OK
----
Msg: GPS Read Set!
Msg: Getting data from GPS using AT Cmd
Resp:
$GNGGA,143116.000,4900.5159,N,00825.4664,E,1,3,8.18,104.0,M,47.9,M,,*45
$GPGSA,A,2,19,17,13,,,,,,,,,,8.24,8.18,1.00*01
$BDGSA,A,2,,,,,,,,,,,,,8.24,8.18,1.00*1C
$GPGSV,3,1,11,24,67,293,,15,52,188,,19,39,103,22,17,36,068,19*73
$GPGSV,3,2,11,13,33,150,14,12,31,223,,23,24,268,,10,21,305,*76
$GPGSV,3,3,11,14,17,054,18,44,12,116,,01,03,027,13*42
$BDGSV,1,1,00*68
$GNRMC,143116.000,A,4900.5159,N,00825.4664,E,1.196,230.65,211221,,,A*44
$GNVTG,230.65,T,,M,1.196,N,2.217,K,A*28
---
Msg: Getting data from GPS using AT done
Resp:
AT+GPSRD=0

OK
----
Msg: GPS Read Off!
Msg: Getting data from Sensors
Resp:
AT+CIPSEND

>
----
Msg: Send Started!
Resp:
GET https://api.thingspeak.com/update?api_key=AYKVFH212TKGNW2B&field1=32.36&field2=27.52&field3=1009.69&field4=8.70&field5=16.00&field6=$GNGGA,143116.000,4900.5159,N,00825.4664,E,1,3,8.18,104.0,M,47.9,M,,*45

----
Resp:

OK



+CIPRCV,2:53
CLOSED
----
Msg: Send Completed!
Resp:
AT+CIPSTATUS
+CIPSTATUS:
STATE:CLOSED
----
Resp:
AT+CIPSTART="TCP","api.thingspeak.com",80
CONNECT OK
----
Msg: Connected!
Resp:
AT+GPSRD=5

OK
----
Msg: GPS Read Set!
Msg: Getting data from GPS using AT Cmd
Resp:
$GNGGA,143136.000,4900.5069,N,00825.5003,E,1,3,8.20,103.7,M,47.9,M,,*48
$GPGSA,A,2,19,17,13,,,,,,,,,,8.26,8.20,1.00*08
$BDGSA,A,2,,,,,,,,,,,,,8.26,8.20,1.00*15
$GPGSV,3,1,11,24,67,294,,15,51,187,,19,39,102,22,17,36,068,18*78
$GPGSV,3,2,11,13,33,150,17,12,32,224,,23,24,268,,10,21,305,*71
$GPGSV,3,3,11,14,17,054,19,01,03,027,13,36,,,*73
$BDGSV,1,1,00*68
$GNRMC,143136.000,A,4900.5069,N,00825.5003,E,2.537,103.01,211221,,,A*4F
$GNVTG,103.01,T,,M,2.537,N,4.701,K,A*21
---
Msg: Getting data from GPS using AT done
Resp:
AT+GPSRD=0

OK
----
Msg: GPS Read Off!
Msg: Getting data from Sensors
Resp:
AT+CIPSEND

>
----
Msg: Send Started!
Resp:
