^STN: 37
+CTZV:21/11/06,05:49:18,+01

+CREG: 1

A9/A9G
V02.02.20190915R
Ai_Thinker_Co._Ltd.
READY
AT+GPS=1

OK
AT+GPSRD=10

OK
+GPSRD:$GNGGA,000010.263,4900.7843,N,00825.3939,E,0,0,,102.1,M,47.9,M,,*59
$GPGSA,A,1,,,,,,,,,,,,,,,*1E
$BDGSA,A,1,,,,,,,,,,,,,,,*0F
$GPGSV,1,1,00*79
$BDGSV,1,1,00*68
$GNRMC,000010.263,V,4900.7843,N,00825.3939,E,0.000,0.00,060180,,,N*5B
$GNVTG,0.00,T,,M,0.000,N,0.000,K,N*2C
+GPSRD:$GNGGA,000020.263,4900.7843,N,00825.3939,E,0,0,,102.1,M,47.9,M,,*5A
$GPGSA,A,1,,,,,,,,,,,,,,,*1E
$BDGSA,A,1,,,,,,,,,,,,,,,*0F
$GPGSV,1,1,00*79
$BDGSV,1,1,00*68
$GNRMC,000020.263,V,4900.7843,N,00825.3939,E,0.000,0.00,060180,,,N*58
$GNVTG,0.00,T,,M,0.000,N,0.000,K,N*2C
+GPSRD:$GNGGA,000030.263,4900.7843,N,00825.3939,E,0,0,,102.1,M,47.9,M,,*5B
$GPGSA,A,1,,,,,,,,,,,,,,,*1E
$BDGSA,A,1,,,,,,,,,,,,,,,*0F
$GPGSV,1,1,00*79
$BDGSV,1,1,00*68
$GNRMC,000030.263,V,4900.7843,N,00825.3939,E,0.000,0.00,060180,,,N*59
$GNVTG,0.00,T,,M,0.000,N,0.000,K,N*2C
+GPSRD:$GNGGA,000040.263,4900.7843,N,00825.3939,E,0,0,,102.1,M,47.9,M,,*5C
$GPGSA,A,1,,,,,,,,,,,,,,,*1E
$BDGSA,A,1,,,,,,,,,,,,,,,*0F
$GPGSV,1,1,00*79
$BDGSV,1,1,00*68
$GNRMC,000040.263,V,4900.7843,N,00825.3939,E,0.000,0.00,060180,,,N*5E
$GNVTG,0.00,T,,M,0.000,N,0.000,K,N*2C
+GPSRD:$GNGGA,000050.263,4900.7843,N,00825.3939,E,0,0,,102.1,M,47.9,M,,*5D
$GPGSA,A,1,,,,,,,,,,,,,,,*1E
$BDGSA,A,1,,,,,,,,,,,,,,,*0F
$GPGSV,1,1,00*79
$BDGSV,1,1,00*68
$GNRMC,000050.263,V,4900.7843,N,00825.3939,E,0.000,0.00,060180,,,N*5F
$GNVTG,0.00,T,,M,0.000,N,0.000,K,N*2C
+GPSRD:$GNGGA,000100.263,4900.7843,N,00825.3939,E,0,0,,102.1,M,47.9,M,,*59
$GPGSA,A,1,,,,,,,,,,,,,,,*1E
$BDGSA,A,1,,,,,,,,,,,,,,,*0F
$GPGSV,1,1,00*79
$BDGSV,1,1,00*68
$GNRMC,000100.263,V,4900.7843,N,00825.3939,E,0.000,0.00,060180,,,N*5B
$GNVTG,0.00,T,,M,0.000,N,0.000,K,N*2C
+GPSRD:$GNGGA,000110.263,4900.7843,N,00825.3939,E,0,0,,102.1,M,47.9,M,,*58
$GPGSA,A,1,,,,,,,,,,,,,,,*1E
$BDGSA,A,1,,,,,,,,,,,,,,,*0F
$GPGSV,1,1,00*79
$BDGSV,1,1,00*68
$GNRMC,000110.263,V,4900.7843,N,00825.3939,E,0.000,0.00,060180,,,N*5A
$GNVTG,0.00,T,,M,0.000,N,0.000,K,N*2C
+GPSRD:$GNGGA,000120.263,4900.7843,N,00825.3939,E,0,0,,102.1,M,47.9,M,,*5B
$GPGSA,A,1,,,,,,,,,,,,,,,*1E
$BDGSA,A,1,,,,,,,,,,,,,,,*0F
$GPGSV,1,1,00*79
$BDGSV,1,1,00*68
$GNRMC,000120.263,V,4900.7843,N,00825.3939,E,0.000,0.00,060180,,,N*59
$GNVTG,0.00,T,,M,0.000,N,0.000,K,N*2C
+GPSRD:$GNGGA,000130.263,4900.7843,N,00825.3939,E,0,0,,102.1,M,47.9,M,,*5A
$GPGSA,A,1,,,,,,,,,,,,,,,*1E
$BDGSA,A,1,,,,,,,,,,,,,,,*0F
$GPGSV,1,1,00*79
$BDGSV,1,1,00*68
$GNRMC,000130.263,V,4900.7843,N,00825.3939,E,0.000,0.00,060180,,,N*58
$GNVTG,0.00,T,,M,0.000,N,0.000,K,N*2C
+GPSRD:$GNGGA,000140.263,4900.7843,N,00825.3939,E,0,0,,102.1,M,47.9,M,,*5D
$GPGSA,A,1,,,,,,,,,,,,,,,*1E
$BDGSA,A,1,,,,,,,,,,,,,,,*0F
$GPGSV,1,1,00*79
$BDGSV,1,1,00*68
$GNRMC,000140.263,V,4900.7843,N,00825.3939,E,0.000,0.00,060180,,,N*5F
$GNVTG,0.00,T,,M,0.000,N,0.000,K,N*2C
+GPSRD:$GNGGA,000150.263,4900.7843,N,00825.3939,E,0,0,,102.1,M,47.9,M,,*5C
$GPGSA,A,1,,,,,,,,,,,,,,,*1E
$BDGSA,A,1,,,,,,,,,,,,,,,*0F
$GPGSV,1,1,00*79
$BDGSV,1,1,00*68
$GNRMC,000150.263,V,4900.7843,N,00825.3939,E,0.000,0.00,060180,,,N*5E
$GNVTG,0.00,T,,M,0.000,N,0.000,K,N*2C
+GPSRD:$GNGGA,000200.263,4900.7843,N,00825.3939,E,0,0,,102.1,M,47.9,M,,*5A
$GPGSA,A,1,,,,,,,,,,,,,,,*1E
$BDGSA,A,1,,,,,,,,,,,,,,,*0F
$GPGSV,1,1,00*79
$BDGSV,1,1,00*68
$GNRMC,000200.263,V,4900.7843,N,00825.3939,E,0.000,0.00,060180,,,N*58
$GNVTG,0.00,T,,M,0.000,N,0.000,K,N*2C
+GPSRD:$GNGGA,000210.263,4900.7843,N,00825.3939,E,0,0,,102.1,M,47.9,M,,*5B
$GPGSA,A,1,,,,,,,,,,,,,,,*1E
$BDGSA,A,1,,,,,,,,,,,,,,,*0F
$GPGSV,1,1,00*79
$BDGSV,1,1,00*68
$GNRMC,000210.263,V,4900.7843,N,00825.3939,E,0.000,0.00,060180,,,N*59
$GNVTG,0.00,T,,M,0.000,N,0.000,K,N*2C
+GPSRD:$GNGGA,000220.263,4900.7843,N,00825.3939,E,0,0,,102.1,M,47.9,M,,*58
$GPGSA,A,1,,,,,,,,,,,,,,,*1E
$BDGSA,A,1,,,,,,,,,,,,,,,*0F
$GPGSV,1,1,00*79
$BDGSV,1,1,00*68
$GNRMC,000220.263,V,4900.7843,N,00825.3939,E,0.000,0.00,060180,,,N*5A
$GNVTG,0.00,T,,M,0.000,N,0.000,K,N*2C
+GPSRD:$GNGGA,000230.263,4900.7843,N,00825.3939,E,0,0,,102.1,M,47.9,M,,*59
$GPGSA,A,1,,,,,,,,,,,,,,,*1E
$BDGSA,A,1,,,,,,,,,,,,,,,*0F
$GPGSV,1,1,00*79
$BDGSV,1,1,00*68
$GNRMC,000230.263,V,4900.7843,N,00825.3939,E,0.000,0.00,060180,,,N*5B
$GNVTG,0.00,T,,M,0.000,N,0.000,K,N*2C
+GPSRD:$GNGGA,000240.263,4900.7843,N,00825.3939,E,0,0,,102.1,M,47.9,M,,*5E
$GPGSA,A,1,,,,,,,,,,,,,,,*1E
$BDGSA,A,1,,,,,,,,,,,,,,,*0F
$GPGSV,1,1,00*79
$BDGSV,1,1,00*68
$GNRMC,000240.263,V,4900.7843,N,00825.3939,E,0.000,0.00,060180,,,N*5C
$GNVTG,0.00,T,,M,0.000,N,0.000,K,N*2C
+GPSRD:$GNGGA,000250.263,4900.7843,N,00825.3939,E,0,0,,102.1,M,47.9,M,,*5F
$GPGSA,A,1,,,,,,,,,,,,,,,*1E
$BDGSA,A,1,,,,,,,,,,,,,,,*0F
$GPGSV,1,1,00*79
$BDGSV,1,1,00*68
$GNRMC,000250.263,V,4900.7843,N,00825.3939,E,0.000,0.00,060180,,,N*5D
$GNVTG,0.00,T,,M,0.000,N,0.000,K,N*2C
+GPSRD:$GNGGA,000300.263,4900.7843,N,00825.3939,E,0,0,,102.1,M,47.9,M,,*5B
$GPGSA,A,1,,,,,,,,,,,,,,,*1E
$BDGSA,A,1,,,,,,,,,,,,,,,*0F
$GPGSV,1,1,00*79
$BDGSV,1,1,00*68
$GNRMC,000300.263,V,4900.7843,N,00825.3939,E,0.000,0.00,060180,,,N*59
$GNVTG,0.00,T,,M,0.000,N,0.000,K,N*2C
+GPSRD:$GNGGA,000309.750,4900.7843,N,00825.3939,E,0,0,,102.1,M,47.9,M,,*57
$GPGSA,A,1,,,,,,,,,,,,,,,*1E
$BDGSA,A,1,,,,,,,,,,,,,,,*0F
$GPGSV,1,1,02,32,,,39,21,,,24*75
$BDGSV,1,1,00*68
$GNRMC,000309.750,V,4900.7843,N,00825.3939,E,0.000,0.00,060180,,,N*55
$GNVTG,0.00,T,,M,0.000,N,0.000,K,N*2C
+GPSRD:$GNGGA,055258.089,4900.7843,N,00825.3939,E,0,0,,134.1,M,47.9,M,,*54
$GPGSA,A,1,,,,,,,,,,,,,,,*1E
$BDGSA,A,1,,,,,,,,,,,,,,,*0F
$GPGSV,2,1,07,21,84,003,25,01,60,298,,22,57,236,,03,32,233,*77
$GPGSV,2,2,07,27,17,157,,17,14,317,,32,,,38*72
$BDGSV,1,1,01,09,,,28*6A
$GNRMC,055258.089,V,4900.7843,N,00825.3939,E,0.000,0.00,061121,,,N*59
$GNVTG,0.00,T,,M,0.000,N,0.000,K,N*2C
+GPSRD:$GNGGA,055308.088,4900.7530,N,00825.2297,E,0,1,,134.1,M,47.9,M,,*57
$GPGSA,A,1,32,,,,,,,,,,,,,,*1F
$BDGSA,A,1,,,,,,,,,,,,,,,*0F
$GPGSV,2,1,08,21,84,003,25,01,60,298,,22,57,236,,32,41,074,38*74
$GPGSV,2,2,08,03,32,233,,27,17,157,24,17,14,317,,10,,,32*41
$BDGSV,1,1,01,09,,,28*6A
$GNRMC,055308.088,V,4900.7530,N,00825.2297,E,0.001,0.00,061121,,,N*5A
$GNVTG,0.00,T,,M,0.001,N,0.001,K,N*2C
+GPSRD:$GNGGA,055318.088,4900.7838,N,00825.3911,E,0,1,,134.1,M,47.9,M,,*57
$GPGSA,A,1,32,,,,,,,,,,,,,,*1F
$BDGSA,A,1,,,,,,,,,,,,,,,*0F
$GPGSV,2,1,08,21,85,005,26,01,60,298,,22,57,236,,32,41,074,38*70
$GPGSV,2,2,08,03,32,233,,27,17,157,27,17,14,317,,10,,,32*42
$BDGSV,1,1,01,09,,,28*6A
$GNRMC,055318.088,V,4900.7838,N,00825.3911,E,0.000,0.00,061121,,,N*5B
$GNVTG,0.00,T,,M,0.000,N,0.000,K,N*2C
+GPSRD:$GNGGA,055328.088,4900.7843,N,00825.3940,E,0,1,,134.1,M,47.9,M,,*5C
$GPGSA,A,1,32,,,,,,,,,,,,,,*1F
$BDGSA,A,1,,,,,,,,,,,,,,,*0F
$GPGSV,2,1,08,21,85,005,20,01,60,298,,22,57,236,,32,41,074,29*76
$GPGSV,2,2,08,03,32,233,,27,17,157,21,17,14,317,,10,,,26*41
$BDGSV,1,1,01,09,,,24*66
$GNRMC,055328.088,V,4900.7843,N,00825.3940,E,0.001,0.00,061121,,,N*51
$GNVTG,0.00,T,,M,0.001,N,0.002,K,N*2F
+GPSRD:$GNGGA,055338.088,4900.5457,N,00825.3082,E,0,2,,134.2,M,47.9,M,,*51
$GPGSA,A,1,32,10,,,,,,,,,,,,,*1E
$BDGSA,A,1,,,,,,,,,,,,,,,*0F
$GPGSV,2,1,08,21,85,005,20,01,60,298,,22,57,236,,32,41,074,34*7A
$GPGSV,2,2,08,03,32,233,,27,17,157,20,17,14,317,,10,13,056,27*70
$BDGSV,1,1,01,09,,,25*67
$GNRMC,055338.088,V,4900.5457,N,00825.3082,E,0.099,13.37,061121,,,N*6B
$GNVTG,13.37,T,,M,0.099,N,0.184,K,N*17
+GPSRD:$GNGGA,055348.100,4900.5404,N,00825.3048,E,0,2,,134.3,M,47.9,M,,*56
$GPGSA,A,1,32,10,,,,,,,,,,,,,*1E
$BDGSA,A,1,,,,,,,,,,,,,,,*0F
$GPGSV,2,1,08,21,85,005,23,01,60,298,,22,57,236,,32,41,074,35*78
$GPGSV,2,2,08,03,32,233,,27,17,157,18,17,14,317,,10,13,056,28*74
$BDGSV,1,1,01,09,,,26*64
$GNRMC,055348.100,V,4900.5404,N,00825.3048,E,0.476,193.51,061121,,,N*51
$GNVTG,193.51,T,,M,0.476,N,0.883,K,N*25
+GPSRD:$GNGGA,055358.100,4900.5382,N,00825.3029,E,0,2,,134.3,M,47.9,M,,*59
$GPGSA,A,1,32,10,,,,,,,,,,,,,*1E
$BDGSA,A,1,,,,,,,,,,,,,,,*0F
$GPGSV,2,1,08,21,85,005,23,01,60,298,,22,57,236,,32,41,074,36*7B
$GPGSV,2,2,08,03,32,233,,27,17,157,19,17,14,317,,10,13,056,28*75
$BDGSV,1,1,01,09,,,25*67
$GNRMC,055358.100,V,4900.5382,N,00825.3029,E,0.045,14.18,061121,,,N*69
$GNVTG,14.18,T,,M,0.045,N,0.083,K,N*1A
+GPSRD:$GNGGA,055408.100,4900.5452,N,00825.3040,E,0,2,,134.3,M,47.9,M,,*5E
$GPGSA,A,1,32,10,,,,,,,,,,,,,*1E
$BDGSA,A,1,,,,,,,,,,,,,,,*0F
$GPGSV,2,1,08,21,85,005,19,01,60,298,,22,57,236,,32,41,074,31*75
$GPGSV,2,2,08,03,32,233,,27,17,157,17,17,14,317,,10,13,056,24*77
$BDGSV,1,1,01,09,,,22*60
$GNRMC,055408.100,V,4900.5452,N,00825.3040,E,0.128,13.96,061121,,,N*65
$GNVTG,13.96,T,,M,0.128,N,0.237,K,N*1C
+GPSRD:$GNGGA,055418.100,4900.5414,N,00825.3016,E,0,2,,134.3,M,47.9,M,,*5E
$GPGSA,A,1,32,10,,,,,,,,,,,,,*1E
$BDGSA,A,1,,,,,,,,,,,,,,,*0F
$GPGSV,3,1,10,21,85,005,23,01,61,299,,22,57,236,,32,41,074,34*71
$GPGSV,3,2,10,03,33,233,,14,22,295,,27,17,157,21,17,14,317,*76
$GPGSV,3,3,10,10,13,056,29,08,,,25*4C
$BDGSV,1,1,01,09,,,25*67
$GNRMC,055418.100,V,4900.5414,N,00825.3016,E,0.672,193.99,061121,,,N*5B
$GNVTG,193.99,T,,M,0.672,N,1.245,K,N*26
+GPSRD:$GNGGA,055428.100,4900.5467,N,00825.3024,E,0,2,,134.3,M,47.9,M,,*58
$GPGSA,A,1,32,10,,,,,,,,,,,,,*1E
$BDGSA,A,1,,,,,,,,,,,,,,,*0F
$GPGSV,3,1,10,21,85,005,23,01,61,299,,22,57,236,,32,41,074,36*73
$GPGSV,3,2,10,03,33,233,,14,22,295,,27,17,157,23,17,14,317,*74
$GPGSV,3,3,10,10,13,056,30,08,,,26*47
$BDGSV,1,1,01,09,,,24*66
$GNRMC,055428.100,V,4900.5467,N,00825.3024,E,0.153,14.03,061121,,,N*64
$GNVTG,14.03,T,,M,0.153,N,0.283,K,N*14
+GPSRD:$GNGGA,055438.100,4900.5463,N,00825.3012,E,0,2,,134.3,M,47.9,M,,*58
$GPGSA,A,1,32,10,,,,,,,,,,,,,*1E
$BDGSA,A,1,,,,,,,,,,,,,,,*0F
$GPGSV,3,1,10,21,85,011,24,01,61,299,,22,58,237,,32,41,074,38*71
$GPGSV,3,2,10,03,33,233,,14,22,294,,27,17,157,26,17,15,317,*71
$GPGSV,3,3,10,10,13,056,31,08,,,29*49
$BDGSV,1,1,01,09,,,26*64
$GNRMC,055438.100,V,4900.5463,N,00825.3012,E,0.301,14.37,061121,,,N*66
$GNVTG,14.37,T,,M,0.301,N,0.557,K,N*18
+GPSRD:$GNGGA,055448.100,4900.5463,N,00825.3012,E,0,0,,102.1,M,47.9,M,,*5A
$GPGSA,A,1,,,,,,,,,,,,,,,*1E
$BDGSA,A,1,,,,,,,,,,,,,,,*0F
$GPGSV,3,1,10,21,85,011,24,01,61,299,,22,58,237,,32,41,073,41*78
$GPGSV,3,2,10,03,33,233,,14,22,294,,27,16,157,24,17,15,317,*72
$GPGSV,3,3,10,10,13,056,30,08,,,29*48
$BDGSV,1,1,01,09,,,30*63
$GNRMC,055448.100,V,4900.5463,N,00825.3012,E,0.000,0.00,061121,,,N*52
$GNVTG,0.00,T,,M,0.000,N,0.000,K,N*2C
+GPSRD:$GNGGA,055458.100,4900.5463,N,00825.3012,E,0,0,,102.1,M,47.9,M,,*5B
$GPGSA,A,1,,,,,,,,,,,,,,,*1E
$BDGSA,A,1,,,,,,,,,,,,,,,*0F
$GPGSV,3,1,10,21,85,011,34,01,61,299,,22,58,237,19,32,41,073,42*72
$GPGSV,3,2,10,03,33,233,,14,22,294,,27,16,157,35,17,15,317,*72
$GPGSV,3,3,10,10,13,056,33,08,,,21*43
$BDGSV,1,1,02,09,,,36,06,,,27*65
$GNRMC,055458.100,V,4900.5463,N,00825.3012,E,0.000,0.00,061121,,,N*53
$GNVTG,0.00,T,,M,0.000,N,0.000,K,N*2C
+GPSRD:$GNGGA,055508.100,4903.5521,N,00810.2687,E,0,4,,717.3,M,47.9,M,,*52
$GPGSA,A,1,32,10,27,,,,,,,,,,,,*1B
$BDGSA,A,1,09,,,,,,,,,,,,,,*06
$GPGSV,3,1,11,21,85,011,37,01,61,299,,22,58,237,23,32,41,073,44*7F
$GPGSV,3,2,11,03,33,233,,37,32,162,,14,22,294,,27,16,157,37*76
$GPGSV,3,3,11,17,15,317,,10,13,056,35,08,,,22*70
$BDGSV,1,1,02,09,31,074,36,06,,,29*5A
$GNRMC,055508.100,V,4903.5521,N,00810.2687,E,2.087,126.01,061121,,,N*57
$GNVTG,126.01,T,,M,2.087,N,3.868,K,N*20
+GPSRD:$GNGGA,055518.100,5025.4793,N,02641.4193,W,0,5,,87.3,M,62.7,M,,*7D
$GPGSA,A,1,32,10,27,,,,,,,,,,,,*1B
$BDGSA,A,1,09,06,,,,,,,,,,,,,*00
$GPGSV,2,1,06,32,,,43,21,,,36,08,,,25,10,,,34*75
$GPGSV,2,2,06,27,,,37,22,,,20*7C
$BDGSV,1,1,02,06,,,29,09,,,35*68
$GNRMC,055518.100,V,5025.4793,N,02641.4193,W,0.000,0.00,061121,,,N*47
$GNVTG,0.00,T,,M,0.000,N,0.000,K,N*2C
+GPSRD:$GNGGA,055528.094,4821.6734,N,00946.6582,E,0,0,,96.3,M,48.0,M,,*64
$GPGSA,A,1,,,,,,,,,,,,,,,*1E
$BDGSA,A,1,,,,,,,,,,,,,,,*0F
$GPGSV,1,1,04,21,,,35,27,,,34,32,,,41,10,,,30*7C
$BDGSV,1,1,01,09,,,33*60
$GNRMC,055528.094,V,4821.6734,N,00946.6582,E,19.694,106.32,061121,,,N*61
$GNVTG,106.32,T,,M,19.694,N,36.493,K,N*22
+GPSRD:$GNGGA,055537.304,4821.6691,N,00946.6804,E,0,0,,101.9,M,48.0,M,,*58
$GPGSA,A,1,,,,,,,,,,,,,,,*1E
$BDGSA,A,1,,,,,,,,,,,,,,,*0F
$GPGSV,1,1,04,21,,,38,27,,,38,32,,,44,10,,,34*7C
$BDGSV,1,1,02,05,,,32,09,,,37*63
$GNRMC,055537.304,V,4821.6691,N,00946.6804,E,0.175,106.32,061121,,,N*58
$GNVTG,106.32,T,,M,0.175,N,0.325,K,N*2D
+GPSRD:$GNGGA,055548.000,4900.5207,N,00825.4541,E,1,5,2.11,143.8,M,47.9,M,,*4E
$GPGSA,A,3,21,27,32,10,,,,,,,,,2.31,2.11,0.94*0B
$BDGSA,A,3,09,,,,,,,,,,,,2.31,2.11,0.94*15
$GPGSV,3,1,10,21,85,016,37,01,62,299,,22,58,237,27,32,40,072,43*79
$GPGSV,3,2,10,03,34,233,,14,22,294,,27,16,157,38,17,15,317,*78
$GPGSV,3,3,10,10,13,056,35,40,13,117,*7F
$BDGSV,1,1,03,09,31,074,36,06,29,059,,05,,,33*62
$GNRMC,055548.000,A,4900.5207,N,00825.4541,E,3.584,92.13,061121,,,A*79
$GNVTG,92.13,T,,M,3.584,N,6.641,K,A*15
+GPSRD:$GNGGA,055558.000,4900.5207,N,00825.4557,E,1,5,2.11,141.8,M,47.9,M,,*4A
$GPGSA,A,3,21,27,32,10,,,,,,,,,2.31,2.11,0.94*0B
$BDGSA,A,3,09,,,,,,,,,,,,2.31,2.11,0.94*15
$GPGSV,3,1,10,21,85,016,37,01,62,299,,22,58,237,27,32,40,072,44*7E
$GPGSV,3,2,10,03,34,233,,14,22,294,21,27,16,157,37,17,15,317,22*74
$GPGSV,3,3,10,10,13,056,35,44,12,116,*7B
$BDGSV,2,1,05,09,31,074,36,06,29,059,,16,27,051,,02,02,100,*65
$BDGSV,2,2,05,05,,,33*68
$GNRMC,055558.000,A,4900.5207,N,00825.4557,E,0.154,110.70,061121,,,A*4B
$GNVTG,110.70,T,,M,0.154,N,0.285,K,A*2B
+GPSRD:$GNGGA,055608.000,4900.5211,N,00825.4507,E,1,6,1.54,136.9,M,47.9,M,,*4E
$GPGSA,A,3,21,27,32,10,22,,,,,,,,1.80,1.54,0.92*06
$BDGSA,A,3,09,,,,,,,,,,,,1.80,1.54,0.92*18
$GPGSV,3,1,10,21,85,018,36,01,62,299,,22,59,237,26,32,40,072,44*71
$GPGSV,3,2,10,03,34,233,,37,32,162,,14,22,294,18,27,16,157,36*78
$GPGSV,3,3,10,17,15,317,20,10,13,056,33*7D
$BDGSV,2,1,05,09,31,074,34,06,29,059,,16,27,051,,05,18,121,32*69
$BDGSV,2,2,05,02,02,100,*5C
$GNRMC,055608.000,A,4900.5211,N,00825.4507,E,0.026,311.11,061121,,,A*4F
$GNVTG,311.11,T,,M,0.026,N,0.048,K,A*28
