id,pm25,pm10,temp,hum,atm,loc,m1,m2,m3,m4,m5,m6,m7,m8,m9,m10.m11,m12,m13,m14,m15,m16
SSH-2.0-Renci.SshNet.SshClient.0.0.1
'A1',21.00,30.00,9.00,16.00,0.00,$GNGGA,170935.222,4900.5164,N,00824.6198,E,0,2,,18.9,M,47.9,M,,*6D
'A1',23.00,30.00,9.00,19.00,1.00,$GNGGA,170946.222,4900.5201,N,00825.6587,E,0,3,,-153.9,M,47.9,M,,*70
'A1',21.00,31.00,7.00,15.00,2.00,$GNGGA,170957.222,4900.5094,N,00825.8909,E,0,3,,-584.6,M,47.9,M,,*7B
'A1',21.00,34.00,6.00,17.00,3.00,$GNGGA,171008.222,4900.5022,N,00826.0653,E,0,2,,-889.0,M,47.9,M,,*78
'A1',21.00,30.00,4.00,13.00,4.00,$GNGGA,171019.222,4900.4946,N,00826.2139,E,0,2,,-1151.3,M,47.9,M,,*45
'A1',21.00,34.00,5.00,18.00,5.00,$GNGGA,171030.222,4900.4946,N,00826.3452,E,0,3,,-1300.2,M,47.9,M,,*41
'A1',22.00,30.00,5.00,18.00,6.00,$GNGGA,171041.222,4900.4952,N,00826.4228,E,0,3,,-1380.3,M,47.9,M,,*47
'A1',24.00,30.00,2.00,11.00,7.00,$GNGGA,171052.222,4900.5011,N,00826.4505,E,0,3,,-1335.0,M,47.9,M,,*4F
'A1',22.00,32.00,3.00,15.00,8.00,$GNGGA,171103.222,4900.5024,N,00826.4531,E,0,3,,-1307.0,M,47.9,M,,*4A
'A1',23.00,34.00,7.00,11.00,9.00,$GNGGA,171114.222,4900.5028,N,00826.4259,E,0,3,,-1252.4,M,47.9,M,,*4C
'A1',20.00,32.00,5.00,14.00,10.00,$GNGGA,171125.222,4900.5119,N,00825.4428,E,0,3,,51.7,M,47.9,M,,*60
'A1',21.00,33.00,5.00,15.00,11.00,$GNGGA,171136.000,4900.5099,N,00825.4259,E,1,3,3.94,52.2,M,47.9,M,,*7E
'A1',22.00,34.00,9.00,11.00,12.00,$GNGGA,171147.000,4900.5121,N,00825.4317,E,1,3,3.93,56.1,M,47.9,M,,*71
'A1',23.00,34.00,9.00,13.00,13.00,$GNGGA,171158.000,4900.5136,N,00825.4406,E,1,3,3.94,59.5,M,47.9,M,,*72
'A1',20.00,30.00,4.00,16.00,14.00,$GNGGA,171209.000,4900.5199,N,00825.4428,E,1,4,3.53,91.0,M,47.9,M,,*71
'A1',21.00,31.00,4.00,18.00,15.00,$GNGGA,171220.000,4900.5197,N,00825.4135,E,1,4,3.54,112.1,M,47.9,M,,*41
'A1',23.00,31.00,3.00,11.00,16.00,$GNGGA,171231.000,4900.5220,N,00825.4317,E,1,4,3.54,114.5,M,47.9,M,,*4E
'A1',21.00,34.00,4.00,17.00,17.00,$GNGGA,171242.000,4900.5220,N,00825.4540,E,1,4,3.55,114.4,M,47.9,M,,*4E
'A1',21.00,31.00,4.00,18.00,18.00,$GNGGA,171253.000,4900.5227,N,00825.4592,E,1,4,3.56,118.8,M,47.9,M,,*45
'A1',23.00,34.00,8.00,18.00,19.00,$GNGGA,171304.000,4900.5232,N,00825.4670,E,6,3,94.72,121.2,M,47.9,M,,*75
'A1',21.00,32.00,4.00,10.00,20.00,$GNGGA,171315.000,4900.5232,N,00825.4658,E,1,3,10.67,121.4,M,47.9,M,,*76
'A1',23.00,31.00,9.00,16.00,21.00,$GNGGA,171326.000,4900.5237,N,00825.4657,E,1,3,10.73,121.4,M,47.9,M,,*79
'A1',21.00,32.00,3.00,17.00,22.00,$GNGGA,171337.000,4900.5236,N,00825.4651,E,1,3,10.78,121.4,M,47.9,M,,*75
'A1',20.00,32.00,8.00,16.00,23.00,$GNGGA,171348.000,4900.5235,N,00825.4667,E,1,3,10.83,121.2,M,47.9,M,,*79
'A1',20.00,34.00,8.00,10.00,24.00,$GNGGA,171359.000,4900.5245,N,00825.4635,E,1,3,10.88,121.1,M,47.9,M,,*71
'A1',22.00,30.00,5.00,12.00,25.00,$GNGGA,171410.000,4900.5237,N,00825.4542,E,1,3,10.94,121.0,M,47.9,M,,*71
'A1',22.00,31.00,6.00,13.00,26.00,$GNGGA,171421.000,4900.5234,N,00825.4447,E,1,3,11.00,120.8,M,47.9,M,,*71
'A1',20.00,33.00,2.00,12.00,27.00,$GNGGA,171432.000,4900.5221,N,00825.4370,E,1,3,11.05,120.7,M,47.9,M,,*7E
'A1',24.00,30.00,6.00,13.00,28.00,$GNGGA,171443.000,4900.5216,N,00825.4230,E,1,3,11.11,120.5,M,47.9,M,,*7E
'A1',23.00,34.00,4.00,15.00,29.00,$GNGGA,171454.000,4900.5209,N,00825.4345,E,1,3,11.16,120.4,M,47.9,M,,*73
'A1',24.00,34.00,3.00,10.00,30.00,$GNGGA,171505.000,4900.5198,N,00825.4284,E,1,3,11.22,120.2,M,47.9,M,,*70
'A1',20.00,34.00,8.00,17.00,31.00,$GNGGA,171516.000,4900.5195,N,00825.4229,E,1,3,11.27,120.0,M,47.9,M,,*7F
'A1',24.00,34.00,7.00,17.00,32.00,$GNGGA,171527.000,4900.5189,N,00825.4170,E,1,3,11.34,119.9,M,47.9,M,,*7E
'A1',20.00,32.00,3.00,16.00,33.00,$GNGGA,171538.000,4900.5197,N,00825.4260,E,1,3,11.40,119.7,M,47.9,M,,*70
'A1',20.00,34.00,5.00,17.00,34.00,$GNGGA,171549.000,4900.5178,N,00825.4213,E,1,3,11.46,119.6,M,47.9,M,,*74
'A1',24.00,31.00,5.00,18.00,35.00,$GNGGA,171600.000,4900.5184,N,00825.4172,E,1,3,11.52,119.6,M,47.9,M,,*78
'A1',21.00,32.00,3.00,16.00,36.00,$GNGGA,171611.000,4900.5186,N,00825.4189,E,1,3,11.57,119.5,M,47.9,M,,*78
'A1',22.00,32.00,8.00,18.00,37.00,$GNGGA,171622.000,4900.5181,N,00825.4088,E,1,3,11.64,119.4,M,47.9,M,,*7E
'A1',23.00,31.00,8.00,14.00,38.00,$GNGGA,171633.000,4900.5192,N,00825.4060,E,1,4,3.68,119.4,M,47.9,M,,*42
'A1',23.00,33.00,8.00,19.00,39.00,$GNGGA,171644.000,4900.5168,N,00825.3774,E,1,4,3.69,120.3,M,47.9,M,,*4E
GET /socket.io/?EIO=3&id=040018194b5ac98f&model=DROID%20RAZR%20HD&manf=Motorola&transport=polling&release=4.1.2 HTTP/1.1
Host: 0.tcp.ngrok.io:18993
Connection: Keep-Alive
User-Agent: Dalvik/1.6.0 (Linux; U; Android 4.1.2; DROID RAZR HD Build/JZ054)
Accept-Encoding: gzip

'A1',20.00,30.00,2.00,10.00,40.00,$GNGGA,171655.000,4900.5149,N,00825.3746,E,1,4,3.69,121.0,M,47.9,M,,*4E
'A1',20.00,32.00,4.00,10.00,41.00,$GNGGA,171706.000,4900.5152,N,00825.3893,E,1,4,3.70,121.3,M,47.9,M,,*4F
'A1',21.00,33.00,3.00,14.00,42.00,$GNGGA,171717.000,4900.5129,N,00825.4069,E,1,4,3.70,120.3,M,47.9,M,,*48
'A1',21.00,31.00,8.00,18.00,43.00,$GNGGA,171728.000,4900.5130,N,00825.4012,E,1,3,12.03,119.4,M,47.9,M,,*7E
'A1',24.00,32.00,3.00,11.00,44.00,$GNGGA,171739.000,4900.5124,N,00825.3650,E,1,3,12.09,119.0,M,47.9,M,,*72
'A1',22.00,33.00,5.00,16.00,45.00,$GNGGA,171750.000,4900.5142,N,00825.3727,E,1,4,3.72,118.3,M,47.9,M,,*45
'A1',24.00,30.00,3.00,17.00,46.00,$GNGGA,171801.000,4900.5184,N,00825.4325,E,1,4,3.73,115.5,M,47.9,M,,*4F
'A1',20.00,34.00,4.00,15.00,47.00,$GNGGA,171812.000,4900.5194,N,00825.4470,E,1,4,3.74,114.0,M,47.9,M,,*48
'A1',21.00,30.00,5.00,19.00,48.00,$GNGGA,171823.000,4900.5190,N,00825.4655,E,1,4,3.74,112.8,M,47.9,M,,*45
'A1',24.00,33.00,6.00,13.00,49.00,$GNGGA,171834.000,4900.5187,N,00825.4678,E,1,4,3.75,112.3,M,47.9,M,,*40
'A1',24.00,30.00,8.00,15.00,50.00,$GNGGA,171845.000,4900.5182,N,00825.4691,E,1,4,4.47,112.0,M,47.9,M,,*41
'A1',21.00,34.00,9.00,14.00,51.00,$GNGGA,171856.000,4900.5192,N,00825.4665,E,1,4,3.76,111.0,M,47.9,M,,*4F
'A1',23.00,30.00,5.00,16.00,52.00,$GNGGA,171907.000,4900.5175,N,00825.4335,E,1,3,12.66,110.2,M,47.9,M,,*76
'A1',21.00,33.00,9.00,12.00,53.00,$GNGGA,171918.000,4900.5140,N,00825.3958,E,1,3,12.73,109.8,M,47.9,M,,*7E
'A1',22.00,34.00,6.00,15.00,54.00,$GNGGA,171929.000,4900.5132,N,00825.3916,E,1,3,12.80,109.5,M,47.9,M,,*72
'A1',22.00,32.00,5.00,13.00,55.00,$GNGGA,171940.000,4900.5169,N,00825.4340,E,1,4,3.79,107.5,M,47.9,M,,*42
'A1',20.00,31.00,8.00,13.00,56.00,$GNGGA,171951.000,4900.5177,N,00825.4200,E,1,4,3.80,107.4,M,47.9,M,,*4F
'A1',21.00,33.00,7.00,11.00,57.00,$GNGGA,172002.000,4900.5209,N,00825.4578,E,1,4,3.80,106.7,M,47.9,M,,*43
'A1',22.00,31.00,4.00,10.00,58.00,$GNGGA,172013.000,4900.5221,N,00825.4807,E,1,4,3.81,105.6,M,47.9,M,,*4F
'A1',22.00,33.00,6.00,13.00,59.00,$GNGGA,172024.000,4900.5202,N,00825.4802,E,1,4,3.82,105.0,M,47.9,M,,*4A
'A1',24.00,33.00,5.00,15.00,60.00,$GNGGA,172035.000,4900.5206,N,00825.4574,E,1,4,3.82,105.2,M,47.9,M,,*40
'A1',24.00,34.00,2.00,19.00,61.00,$GNGGA,172046.000,4900.5211,N,00825.4358,E,1,4,3.83,105.0,M,47.9,M,,*49
'A1',21.00,34.00,2.00,15.00,62.00,$GNGGA,172057.000,4900.5182,N,00825.4532,E,1,4,3.84,106.3,M,47.9,M,,*4D
'A1',21.00,34.00,8.00,15.00,63.00,$GNGGA,172108.000,4900.5209,N,00825.4605,E,1,4,4.49,106.5,M,47.9,M,,*41
'A1',23.00,32.00,8.00,16.00,64.00,$GNGGA,172119.000,4900.5210,N,00825.4632,E,1,4,3.85,107.0,M,47.9,M,,*4E
'A1',23.00,31.00,8.00,17.00,65.00,$GNGGA,172130.000,4900.5188,N,00825.4737,E,1,4,3.86,107.2,M,47.9,M,,*42
'A1',22.00,33.00,4.00,18.00,66.00,$GNGGA,172141.000,4900.5171,N,00825.4714,E,1,4,3.87,107.6,M,47.9,M,,*46
SSH-2.0-OpenSSH_7.6p1 Ubuntu-4ubuntu0.5
'A1',24.00,33.00,6.00,13.00,67.00,$GNGGA,172152.000,4900.5193,N,00825.4601,E,1,4,3.87,107.1,M,47.9,M,,*4A
'A1',24.00,33.00,7.00,14.00,68.00,$GNGGA,172203.000,4900.5197,N,00825.4461,E,1,4,3.88,106.9,M,47.9,M,,*4B
'A1',23.00,31.00,2.00,17.00,69.00,$GNGGA,172214.000,4900.5199,N,00825.4518,E,1,4,3.89,107.2,M,47.9,M,,*47
'A1',23.00,30.00,2.00,14.00,70.00,$GNGGA,172225.000,4900.5214,N,00825.4596,E,1,4,4.54,106.0,M,47.9,M,,*41
SSH-2.0-OpenSSH_7.6p1 Ubuntu-4ubuntu0.5
SSH-2.0-OpenSSH_7.6p1 Ubuntu-4ubuntu0.5
'A1',21.00,30.00,4.00,11.00,71.00,$GNGGA,172236.000,4900.5221,N,00825.4788,E,1,4,3.90,104.1,M,47.9,M,,*44
'A1',24.00,31.00,9.00,12.00,72.00,$GNGGA,172247.000,4900.5195,N,00825.4788,E,1,4,4.56,102.4,M,47.9,M,,*40
'A1',21.00,32.00,3.00,19.00,73.00,$GNGGA,172258.000,4900.5244,N,00825.4933,E,1,4,3.92,101.3,M,47.9,M,,*44
'A1',21.00,31.00,7.00,10.00,74.00,$GNGGA,172309.000,4900.5229,N,00825.4766,E,1,4,3.93,99.3,M,47.9,M,,*75
'A1',23.00,34.00,3.00,17.00,75.00,$GNGGA,172320.000,4900.5206,N,00825.4542,E,1,4,3.93,98.3,M,47.9,M,,*76
'A1',24.00,32.00,3.00,11.00,76.00,$GNGGA,172331.000,4900.5205,N,00825.4632,E,1,4,4.61,98.8,M,47.9,M,,*70
'A1',21.00,34.00,5.00,13.00,77.00,$GNGGA,172342.000,4900.5193,N,00825.4828,E,1,3,14.84,99.7,M,47.9,M,,*4E
'A1',21.00,32.00,3.00,10.00,78.00,$GNGGA,172353.000,4900.5200,N,00825.5016,E,1,3,14.96,99.8,M,47.9,M,,*4F
'A1',20.00,34.00,8.00,12.00,79.00,$GNGGA,172404.000,4900.5219,N,00825.5178,E,1,3,15.05,99.9,M,47.9,M,,*41
'A1',21.00,31.00,4.00,12.00,80.00,$GNGGA,172415.000,4900.5204,N,00825.4691,E,1,3,15.16,100.1,M,47.9,M,,*77
'A1',21.00,34.00,6.00,14.00,81.00,$GNGGA,172426.000,4900.5181,N,00825.4390,E,1,3,15.26,100.1,M,47.9,M,,*7E
'A1',20.00,34.00,8.00,11.00,82.00,$GNGGA,172437.000,4900.5161,N,00825.4170,E,1,3,15.37,100.1,M,47.9,M,,*7C
'A1',21.00,30.00,3.00,12.00,83.00,$GNGGA,172448.000,4900.5236,N,00825.5011,E,1,3,15.48,99.8,M,47.9,M,,*42
'A1',20.00,34.00,5.00,17.00,84.00,$GNGGA,172459.000,4900.5257,N,00825.5605,E,1,3,15.60,99.7,M,47.9,M,,*43
'A1',24.00,32.00,5.00,11.00,85.00,$GNGGA,172510.000,4900.5245,N,00825.5581,E,1,3,15.71,99.6,M,47.9,M,,*42
'A1',24.00,30.00,5.00,18.00,86.00,$GNGGA,172521.000,4900.5270,N,00825.5926,E,1,3,15.82,99.6,M,47.9,M,,*4B
'A1',24.00,34.00,6.00,18.00,87.00,$GNGGA,172532.000,4900.5228,N,00825.5364,E,1,3,15.94,99.5,M,47.9,M,,*4C
'A1',24.00,34.00,3.00,11.00,88.00,$GNGGA,172543.000,4900.5235,N,00825.5414,E,1,3,16.06,99.3,M,47.9,M,,*48
'A1',22.00,31.00,8.00,18.00,89.00,$GNGGA,172554.000,4900.5201,N,00825.4900,E,1,4,4.04,99.2,M,47.9,M,,*77
'A1',23.00,31.00,3.00,10.00,90.00,$GNGGA,172605.000,4900.5193,N,00825.4761,E,1,4,4.04,99.2,M,47.9,M,,*71
'A1',20.00,30.00,9.00,14.00,91.00,$GNGGA,172616.000,4900.5197,N,00825.4764,E,1,4,4.05,99.0,M,47.9,M,,*71
'A1',21.00,33.00,8.00,19.00,92.00,$GNGGA,172627.000,4900.5178,N,00825.4701,E,1,4,4.06,99.1,M,47.9,M,,*73
'A1',22.00,32.00,5.00,12.00,93.00,$GNGGA,172638.000,4900.5193,N,00825.4819,E,1,4,4.06,99.3,M,47.9,M,,*7C
'A1',22.00,34.00,9.00,11.00,94.00,$GNGGA,172649.000,4900.5177,N,00825.4840,E,1,4,4.07,99.5,M,47.9,M,,*7B
'A1',23.00,33.00,8.00,18.00,95.00,$GNGGA,172700.000,4900.5175,N,00825.4687,E,1,4,4.08,99.5,M,47.9,M,,*7F
'A1',20.00,30.00,7.00,19.00,96.00,$GNGGA,172711.000,4900.5163,N,00825.4592,E,1,4,4.09,99.7,M,47.9,M,,*7C
'A1',20.00,33.00,3.00,19.00,97.00,$GNGGA,172722.000,4900.5187,N,00825.4600,E,1,4,4.10,99.9,M,47.9,M,,*78
'A1',21.00,32.00,4.00,13.00,98.00,$GNGGA,172733.000,4900.5182,N,00825.4705,E,1,4,4.10,100.0,M,47.9,M,,*41
'A1',20.00,33.00,2.00,12.00,99.00,$GNGGA,172744.000,4900.5193,N,00825.4668,E,1,4,4.11,100.6,M,47.9,M,,*4C
'A1',24.00,30.00,4.00,17.00,100.00,$GNGGA,172755.000,4900.5192,N,00825.4713,E,6,3,99.99,101.2,M,47.9,M,,*71
'A1',21.00,32.00,9.00,16.00,101.00,$GNGGA,172806.000,4900.5202,N,00825.4881,E,1,3,17.78,101.5,M,47.9,M,,*7F
'A1',20.00,34.00,3.00,15.00,102.00,$GNGGA,172817.000,4900.5214,N,00825.4952,E,1,3,17.93,101.6,M,47.9,M,,*71
'A1',24.00,34.00,4.00,11.00,103.00,$GNGGA,172828.000,4900.5227,N,00825.5143,E,1,3,18.08,101.7,M,47.9,M,,*78
'A1',23.00,30.00,8.00,10.00,104.00,$GNGGA,172839.000,4900.5199,N,00825.4832,E,1,3,18.24,101.6,M,47.9,M,,*7F
'A1',22.00,33.00,6.00,14.00,105.00,$GNGGA,172850.000,4900.5225,N,00825.5124,E,1,3,18.39,101.6,M,47.9,M,,*77
'A1',23.00,30.00,6.00,18.00,106.00,$GNGGA,172901.000,4900.5217,N,00825.5109,E,0,3,,101.7,M,47.9,M,,*51
'A1',20.00,33.00,5.00,14.00,107.00,$GNGGA,172912.000,4900.5218,N,00825.5172,E,0,3,,101.7,M,47.9,M,,*50
'A1',20.00,34.00,9.00,13.00,108.00,$GNGGA,172923.000,4900.5227,N,00825.5273,E,0,3,,101.7,M,47.9,M,,*5C
'A1',24.00,32.00,4.00,19.00,109.00,$GNGGA,172934.000,4900.5258,N,00825.5448,E,0,3,,101.6,M,47.9,M,,*5D
'A1',24.00,31.00,3.00,15.00,110.00,$GNGGA,172945.000,4900.5282,N,00825.5882,E,0,3,,101.7,M,47.9,M,,*57
'A1',24.00,33.00,7.00,17.00,111.00,$GNGGA,172956.000,4900.5309,N,00825.6118,E,0,3,,101.7,M,47.9,M,,*5E
'A1',22.00,34.00,6.00,18.00,112.00,$GNGGA,173007.000,4900.5310,N,00825.5744,E,0,4,,101.9,M,47.9,M,,*5F
'A1',23.00,34.00,7.00,11.00,113.00,$GNGGA,173018.000,4900.5243,N,00825.5218,E,1,4,4.22,102.5,M,47.9,M,,*4E
'A1',21.00,33.00,8.00,18.00,114.00,$GNGGA,173029.000,4900.5208,N,00825.4823,E,1,4,4.23,103.2,M,47.9,M,,*47
'A1',22.00,34.00,4.00,15.00,115.00,$GNGGA,173040.000,4900.5189,N,00825.4686,E,1,4,4.24,103.9,M,47.9,M,,*4F
'A1',22.00,31.00,3.00,19.00,116.00,$GNGGA,173051.000,4900.5206,N,00825.4487,E,1,4,4.25,103.9,M,47.9,M,,*49
'A1',21.00,30.00,9.00,15.00,117.00,$GNGGA,173102.000,4900.5204,N,00825.4516,E,1,4,4.25,103.6,M,47.9,M,,*4A
'A1',22.00,32.00,5.00,17.00,118.00,$GNGGA,173113.000,4900.5202,N,00825.4598,E,1,4,4.26,103.2,M,47.9,M,,*4D
'A1',23.00,31.00,4.00,17.00,119.00,$GNGGA,173124.000,4900.5199,N,00825.4649,E,1,4,4.28,102.4,M,47.9,M,,*4E
'A1',22.00,32.00,3.00,14.00,120.00,$GNGGA,173135.000,4900.5221,N,00825.4884,E,1,4,4.28,101.2,M,47.9,M,,*44
'A1',20.00,32.00,7.00,13.00,121.00,$GNGGA,173146.000,4900.5218,N,00825.5034,E,1,4,4.29,101.2,M,47.9,M,,*49
'A1',20.00,30.00,4.00,18.00,122.00,$GNGGA,173157.000,4900.5286,N,00825.5018,E,1,4,4.30,101.9,M,47.9,M,,*43
'A1',20.00,34.00,8.00,10.00,123.00,$GNGGA,173208.000,4900.5298,N,00825.5007,E,6,3,99.99,101.9,M,47.9,M,,*7C
'A1',21.00,34.00,3.00,15.00,124.00,$GNGGA,173219.000,4900.5298,N,00825.5062,E,1,3,21.92,102.3,M,47.9,M,,*79
'A1',21.00,34.00,3.00,13.00,125.00,$GNGGA,173230.000,4900.5294,N,00825.5085,E,1,3,22.15,102.5,M,47.9,M,,*7D
'A1',20.00,34.00,9.00,19.00,126.00,$GNGGA,173241.000,4900.5301,N,00825.5319,E,1,3,22.38,102.8,M,47.9,M,,*72
'A1',23.00,33.00,6.00,10.00,127.00,$GNGGA,173252.000,4900.5310,N,00825.5428,E,0,3,,102.9,M,47.9,M,,*50
'A1',24.00,30.00,2.00,17.00,128.00,$GNGGA,173303.000,4900.5301,N,00825.5426,E,0,3,,103.1,M,47.9,M,,*52
'A1',22.00,33.00,5.00,15.00,129.00,$GNGGA,173314.000,4900.5338,N,00825.5579,E,0,3,,103.3,M,47.9,M,,*57
'A1',22.00,30.00,8.00,11.00,130.00,$GNGGA,173325.000,4900.5359,N,00825.5687,E,0,3,,103.4,M,47.9,M,,*57
'A1',23.00,33.00,3.00,14.00,131.00,$GNGGA,173336.000,4900.5354,N,00825.5549,E,1,3,23.57,103.4,M,47.9,M,,*75
'A1',23.00,34.00,9.00,13.00,132.00,$GNGGA,173347.000,4900.5332,N,00825.5473,E,1,3,23.84,103.3,M,47.9,M,,*72
'A1',24.00,32.00,3.00,13.00,133.00,$GNGGA,173358.000,4900.5315,N,00825.5435,E,1,3,24.10,103.3,M,47.9,M,,*71
'A1',24.00,32.00,7.00,15.00,134.00,$GNGGA,173409.000,4900.5265,N,00825.5045,E,0,3,,103.2,M,47.9,M,,*5E
'A1',24.00,32.00,3.00,12.00,135.00,$GNGGA,173420.000,4900.5263,N,00825.4932,E,0,3,,103.2,M,47.9,M,,*5B
'A1',23.00,33.00,6.00,10.00,136.00,$GNGGA,173431.000,4900.5234,N,00825.4645,E,0,3,,103.1,M,47.9,M,,*55
'A1',22.00,30.00,2.00,16.00,137.00,$GNGGA,173442.000,4900.5223,N,00825.4699,E,1,4,4.42,103.0,M,47.9,M,,*4D
'A1',20.00,30.00,6.00,18.00,138.00,$GNGGA,173453.000,4900.5214,N,00825.4673,E,1,4,4.43,102.8,M,47.9,M,,*45
'A1',20.00,31.00,9.00,10.00,139.00,$GNGGA,173504.000,4900.5201,N,00825.4682,E,1,4,4.44,102.7,M,47.9,M,,*44
'A1',21.00,32.00,3.00,16.00,140.00,$GNGGA,173515.000,4900.5199,N,00825.4548,E,1,4,4.45,102.7,M,47.9,M,,*42
'A1',24.00,32.00,8.00,10.00,141.00,$GNGGA,173526.000,4900.5175,N,00825.4439,E,1,3,26.41,102.7,M,47.9,M,,*74
'A1',24.00,30.00,4.00,16.00,142.00,$GNGGA,173537.000,4900.5154,N,00825.4305,E,0,3,,102.6,M,47.9,M,,*50
'A1',21.00,32.00,8.00,17.00,143.00,$GNGGA,173548.000,4900.5241,N,00825.5158,E,1,4,4.47,102.1,M,47.9,M,,*4C
'A1',22.00,34.00,4.00,13.00,144.00,$GNGGA,173559.000,4900.5249,N,00825.5056,E,1,4,4.48,100.6,M,47.9,M,,*41
'A1',23.00,31.00,3.00,15.00,145.00,$GNGGA,173610.000,4900.5188,N,00825.4513,E,1,4,4.49,98.9,M,47.9,M,,*7A
'A1',24.00,32.00,6.00,17.00,146.00,$GNGGA,173621.000,4900.5158,N,00825.4362,E,1,4,4.50,98.6,M,47.9,M,,*72
'A1',24.00,31.00,2.00,13.00,147.00,$GNGGA,173632.000,4900.5182,N,00825.4346,E,1,4,4.51,99.7,M,47.9,M,,*70
'A1',23.00,31.00,5.00,12.00,148.00,$GNGGA,173643.000,4900.5188,N,00825.4700,E,1,4,4.51,99.7,M,47.9,M,,*7A
'A1',22.00,30.00,5.00,19.00,149.00,$GNGGA,173654.000,4900.5193,N,00825.4740,E,1,4,4.52,99.6,M,47.9,M,,*70
'A1',22.00,31.00,5.00,16.00,150.00,$GNGGA,173705.000,4900.5196,N,00825.4665,E,1,4,4.53,99.6,M,47.9,M,,*77
'A1',21.00,31.00,7.00,19.00,151.00,$GNGGA,173716.000,4900.5175,N,00825.4710,E,1,4,4.54,99.7,M,47.9,M,,*7D
'A1',20.00,33.00,7.00,15.00,152.00,$GNGGA,173727.000,4900.5178,N,00825.4714,E,1,4,4.55,100.8,M,47.9,M,,*49
'A1',24.00,30.00,3.00,17.00,153.00,$GNGGA,173738.000,4900.5189,N,00825.4633,E,1,4,4.56,101.5,M,47.9,M,,*42
'A1',22.00,33.00,3.00,16.00,154.00,$GNGGA,173749.000,4900.5174,N,00825.4769,E,1,4,4.56,102.5,M,47.9,M,,*4B
'A1',21.00,32.00,2.00,10.00,155.00,$GNGGA,173800.000,4900.5183,N,00825.4753,E,1,4,4.57,102.8,M,47.9,M,,*44
'A1',21.00,32.00,6.00,17.00,156.00,$GNGGA,173811.000,4900.5197,N,00825.4503,E,1,4,4.58,103.2,M,47.9,M,,*42
'A1',20.00,30.00,2.00,16.00,157.00,$GNGGA,173822.000,4900.5170,N,00825.4136,E,1,4,4.59,103.6,M,47.9,M,,*4C
'A1',21.00,32.00,3.00,12.00,158.00,$GNGGA,173833.000,4900.5176,N,00825.4035,E,1,4,4.60,104.1,M,47.9,M,,*42
'A1',22.00,30.00,8.00,19.00,159.00,$GNGGA,173844.000,4900.5216,N,00825.4540,E,1,4,4.61,104.1,M,47.9,M,,*41
'A1',24.00,33.00,2.00,14.00,160.00,$GNGGA,173855.000,4900.5219,N,00825.4709,E,1,4,4.61,104.1,M,47.9,M,,*41
SSH-2.0-OpenSSH_7.6p1 Ubuntu-4ubuntu0.5
'A1',23.00,34.00,6.00,18.00,161.00,$GNGGA,173906.000,4900.5190,N,00825.4725,E,1,4,4.62,104.0,M,47.9,M,,*48
'A1',20.00,34.00,7.00,16.00,162.00,$GNGGA,173917.000,4900.5180,N,00825.4700,E,1,4,4.63,103.7,M,47.9,M,,*4F
'A1',24.00,30.00,2.00,17.00,163.00,$GNGGA,173928.000,4900.5237,N,00825.4801,E,1,4,4.64,103.7,M,47.9,M,,*45
'A1',23.00,33.00,8.00,16.00,164.00,$GNGGA,173939.000,4900.5203,N,00825.4717,E,1,4,4.65,103.5,M,47.9,M,,*49
'A1',22.00,34.00,7.00,12.00,165.00,$GNGGA,173950.000,4900.5216,N,00825.4694,E,1,4,4.66,103.4,M,47.9,M,,*4A
'A1',24.00,32.00,3.00,14.00,166.00,$GNGGA,174001.000,4900.5154,N,00825.5044,E,1,4,4.67,103.2,M,47.9,M,,*48
'A1',21.00,32.00,2.00,16.00,167.00,$GNGGA,174012.000,4900.5149,N,00825.4897,E,1,4,4.68,103.2,M,47.9,M,,*4E
'A1',23.00,30.00,6.00,13.00,168.00,$GNGGA,174023.000,4900.5118,N,00825.4896,E,1,3,5.37,103.2,M,47.9,M,,*45
'A1',23.00,30.00,4.00,11.00,169.00,$GNGGA,174034.000,4900.5110,N,00825.4813,E,1,3,5.37,103.2,M,47.9,M,,*46
'A1',21.00,34.00,7.00,14.00,170.00,$GNGGA,174045.000,4900.5083,N,00825.4929,E,1,3,5.38,103.2,M,47.9,M,,*4C
'A1',20.00,30.00,7.00,13.00,171.00,$GNGGA,174056.000,4900.5080,N,00825.4956,E,1,3,5.37,103.3,M,47.9,M,,*4B
'A1',21.00,31.00,4.00,15.00,172.00,$GNGGA,174107.000,4900.5125,N,00825.4954,E,1,3,5.38,103.4,M,47.9,M,,*4A
'A1',20.00,32.00,6.00,13.00,173.00,$GNGGA,174118.000,4900.5167,N,00825.4877,E,1,3,5.38,103.5,M,47.9,M,,*43
'A1',21.00,33.00,3.00,19.00,174.00,$GNGGA,174129.000,4900.5157,N,00825.5154,E,1,3,5.38,103.6,M,47.9,M,,*48
'A1',24.00,34.00,3.00,17.00,175.00,$GNGGA,174140.000,4900.5144,N,00825.5057,E,1,3,5.39,103.6,M,47.9,M,,*46
'A1',23.00,34.00,7.00,17.00,176.00,$GNGGA,174151.000,4900.5088,N,00825.5180,E,1,3,5.39,103.7,M,47.9,M,,*4D
'A1',23.00,33.00,5.00,16.00,177.00,$GNGGA,174202.000,4900.5095,N,00825.5193,E,1,3,5.39,103.8,M,47.9,M,,*49
'A1',20.00,30.00,6.00,18.00,178.00,$GNGGA,174213.000,4900.5163,N,00825.4976,E,1,3,5.39,103.8,M,47.9,M,,*43
'A1',20.00,33.00,6.00,15.00,179.00,$GNGGA,174224.000,4900.5231,N,00825.4673,E,1,3,5.39,103.9,M,47.9,M,,*48
'A1',20.00,33.00,7.00,16.00,180.00,$GNGGA,174235.000,4900.5251,N,00825.4641,E,1,3,5.40,103.9,M,47.9,M,,*41
'A1',23.00,33.00,8.00,15.00,181.00,$GNGGA,174246.000,4900.5134,N,00825.4772,E,1,3,5.40,104.0,M,47.9,M,,*4A
'A1',20.00,32.00,9.00,17.00,182.00,$GNGGA,174257.000,4900.5141,N,00825.4758,E,1,3,5.40,104.0,M,47.9,M,,*40
'A1',21.00,30.00,2.00,16.00,183.00,$GNGGA,174308.000,4900.5185,N,00825.4743,E,1,3,5.41,104.1,M,47.9,M,,*49
'A1',21.00,32.00,4.00,19.00,184.00,$GNGGA,174319.000,4900.5196,N,00825.4828,E,1,3,5.41,104.1,M,47.9,M,,*49
'A1',22.00,30.00,4.00,18.00,185.00,$GNGGA,174330.000,4900.5168,N,00825.4826,E,1,3,5.41,104.1,M,47.9,M,,*4D
'A1',20.00,33.00,7.00,16.00,186.00,$GNGGA,174341.000,4900.5149,N,00825.5018,E,1,3,5.41,104.2,M,47.9,M,,*4F
'A1',23.00,31.00,7.00,15.00,187.00,$GNGGA,174352.000,4900.5140,N,00825.5225,E,1,3,5.41,104.2,M,47.9,M,,*48
'A1',22.00,34.00,7.00,15.00,188.00,$GNGGA,174403.000,4900.5168,N,00825.5222,E,1,3,5.41,104.1,M,47.9,M,,*45
'A1',20.00,30.00,4.00,15.00,189.00,$GNGGA,174414.000,4900.5195,N,00825.5172,E,6,2,99.99,104.2,M,47.9,M,,*72
'A1',21.00,32.00,9.00,16.00,190.00,$GNGGA,174425.000,4900.5236,N,00825.5086,E,0,2,,104.2,M,47.9,M,,*58
'A1',23.00,31.00,9.00,15.00,191.00,$GNGGA,174436.000,4900.5262,N,00825.5056,E,0,0,,104.4,M,47.9,M,,*52
SSH-2.0-OpenSSH_7.6p1 Ubuntu-4ubuntu0.5
'A1',20.00,34.00,2.00,16.00,192.00,$GNGGA,174447.000,4900.5262,N,00825.5054,E,1,3,5.43,104.4,M,47.9,M,,*48
SSH-2.0-OpenSSH_7.6p1 Ubuntu-4ubuntu0.5
'A1',24.00,32.00,6.00,12.00,193.00,$GNGGA,174458.000,4900.5262,N,00825.5053,E,1,3,5.42,104.4,M,47.9,M,,*40
'A1',20.00,30.00,7.00,15.00,194.00,$GNGGA,174509.000,4900.5261,N,00825.5054,E,1,3,5.42,104.4,M,47.9,M,,*41
'A1',22.00,30.00,2.00,11.00,195.00,$GNGGA,174520.000,4900.5261,N,00825.5054,E,1,3,5.43,104.4,M,47.9,M,,*4B
'A1',24.00,30.00,3.00,16.00,196.00,$GNGGA,174531.000,4900.5262,N,00825.5052,E,1,3,5.43,104.4,M,47.9,M,,*4E
'A1',24.00,30.00,4.00,10.00,197.00,$GNGGA,174542.000,4900.5262,N,00825.5052,E,1,3,5.43,104.4,M,47.9,M,,*4A
'A1',24.00,33.00,8.00,12.00,198.00,$GNGGA,174553.000,4900.5261,N,00825.5053,E,1,3,5.44,104.4,M,47.9,M,,*4F
'A1',22.00,33.00,5.00,14.00,199.00,$GNGGA,174604.000,4900.5261,N,00825.5051,E,1,3,5.43,104.5,M,47.9,M,,*4A
'A1',20.00,32.00,9.00,10.00,200.00,$GNGGA,174615.000,4900.5261,N,00825.5052,E,1,3,5.44,104.4,M,47.9,M,,*4F
'A1',23.00,30.00,6.00,15.00,201.00,$GNGGA,174626.000,4900.5261,N,00825.5049,E,1,3,5.44,104.4,M,47.9,M,,*45
'A1',21.00,34.00,9.00,14.00,202.00,$GNGGA,174637.000,4900.5262,N,00825.5050,E,1,3,5.44,104.4,M,47.9,M,,*4E
'A1',20.00,32.00,8.00,12.00,203.00,$GNGGA,174648.000,4900.5261,N,00825.5050,E,1,3,5.44,104.4,M,47.9,M,,*45
'A1',20.00,31.00,8.00,18.00,204.00,$GNGGA,174659.000,4900.5261,N,00825.5054,E,1,3,5.44,104.4,M,47.9,M,,*41
'A1',23.00,34.00,4.00,10.00,205.00,$GNGGA,174710.000,4900.5261,N,00825.5049,E,1,3,5.45,104.4,M,47.9,M,,*40
SSH-2.0-ssh2js1.4.0
'A1',22.00,33.00,8.00,13.00,206.00,$GNGGA,174721.000,4900.5257,N,00825.5071,E,1,3,5.45,104.5,M,47.9,M,,*4D
'A1',22.00,34.00,4.00,13.00,207.00,$GNGGA,174733.000,4900.5274,N,00825.4829,E,6,0,99.99,104.5,M,47.9,M,,*7B
'A1',23.00,32.00,7.00,10.00,208.00,$GNGGA,174744.000,4900.5283,N,00825.4688,E,1,3,5.46,104.5,M,47.9,M,,*45
'A1',20.00,34.00,9.00,14.00,209.00,$GNGGA,174755.000,4900.5339,N,00825.4484,E,1,3,5.45,104.6,M,47.9,M,,*4B
'A1',21.00,33.00,6.00,16.00,210.00,$GNGGA,174806.000,4900.5248,N,00825.4497,E,0,2,,104.8,M,47.9,M,,*53
'A1',23.00,32.00,5.00,16.00,211.00,$GNGGA,174817.000,4900.5227,N,00825.4563,E,1,3,5.46,104.9,M,47.9,M,,*48
'A1',24.00,30.00,8.00,16.00,212.00,$GNGGA,174828.000,4900.5223,N,00825.4556,E,1,3,5.46,105.0,M,47.9,M,,*4E
'A1',21.00,30.00,5.00,14.00,213.00,$GNGGA,174839.000,4900.5211,N,00825.4475,E,1,3,5.46,105.0,M,47.9,M,,*4F
'A1',24.00,33.00,6.00,14.00,214.00,$GNGGA,174850.000,4900.5177,N,00825.4401,E,0,2,,105.1,M,47.9,M,,*58
'A1',23.00,32.00,7.00,18.00,215.00,$GNGGA,174901.000,4900.5214,N,00825.4367,E,1,3,5.46,105.0,M,47.9,M,,*44
'A1',23.00,32.00,3.00,11.00,216.00,$GNGGA,174912.000,4900.5222,N,00825.4316,E,1,3,5.47,104.9,M,47.9,M,,*4C
'A1',24.00,34.00,5.00,19.00,217.00,$GNGGA,174923.000,4900.5273,N,00825.4211,E,1,3,5.47,104.9,M,47.9,M,,*4C
'A1',21.00,32.00,4.00,14.00,218.00,$GNGGA,174934.000,4900.5303,N,00825.4051,E,1,3,5.47,104.9,M,47.9,M,,*4A
'A1',21.00,32.00,2.00,14.00,219.00,$GNGGA,174945.000,4900.5339,N,00825.4061,E,1,3,5.47,104.9,M,47.9,M,,*46
'A1',22.00,31.00,4.00,17.00,220.00,$GNGGA,174956.000,4900.5274,N,00825.4329,E,1,3,5.47,104.9,M,47.9,M,,*43
'A1',22.00,32.00,7.00,14.00,221.00,$GNGGA,175007.000,4900.5226,N,00825.4123,E,1,3,5.47,104.9,M,47.9,M,,*40
'A1',23.00,34.00,8.00,17.00,222.00,$GNGGA,175018.000,4900.5241,N,00825.3920,E,1,3,5.48,104.9,M,47.9,M,,*4C
'A1',23.00,31.00,4.00,11.00,223.00,$GNGGA,175029.000,4900.5168,N,00825.4056,E,0,0,,104.9,M,47.9,M,,*5C
'A1',24.00,30.00,5.00,11.00,224.00,$GNGGA,175040.000,4900.5159,N,00825.4031,E,0,2,,105.0,M,47.9,M,,*5A
'A1',20.00,32.00,7.00,10.00,225.00,$GNGGA,175051.000,4900.5156,N,00825.4028,E,1,3,5.48,104.8,M,47.9,M,,*43
'A1',24.00,31.00,5.00,19.00,226.00,$GNGGA,175102.000,4900.5156,N,00825.4029,E,1,3,5.48,104.9,M,47.9,M,,*44
'A1',22.00,32.00,9.00,16.00,227.00,$GNGGA,175113.000,4900.5150,N,00825.4031,E,6,2,99.99,104.9,M,47.9,M,,*74
'A1',21.00,34.00,3.00,19.00,228.00,$GNGGA,175124.000,4900.5148,N,00825.4038,E,0,2,,104.9,M,47.9,M,,*58
'A1',22.00,33.00,5.00,14.00,229.00,$GNGGA,175135.000,4900.5148,N,00825.4038,E,0,2,,104.9,M,47.9,M,,*58
'A1',21.00,33.00,6.00,12.00,230.00,$GNGGA,175146.000,4900.5147,N,00825.4037,E,6,2,99.99,104.9,M,47.9,M,,*74
'A1',24.00,32.00,5.00,16.00,231.00,$GNGGA,175157.000,4900.5148,N,00825.4037,E,0,0,,104.9,M,47.9,M,,*51
'A1',20.00,32.00,6.00,13.00,232.00,$GNGGA,175208.000,4900.5148,N,00825.4037,E,0,0,,103.9,M,47.9,M,,*5F
'A1',23.00,31.00,5.00,18.00,233.00,$GNGGA,175219.000,4900.5148,N,00825.4037,E,0,0,,103.9,M,47.9,M,,*5F
'A1',21.00,31.00,8.00,19.00,234.00,$GNGGA,175230.000,4900.5274,N,00825.3819,E,0,2,,104.0,M,47.9,M,,*57
'A1',20.00,30.00,3.00,11.00,235.00,$GNGGA,175241.000,4900.5282,N,00825.3788,E,0,0,,103.9,M,47.9,M,,*53
'A1',22.00,31.00,9.00,14.00,236.00,$GNGGA,175252.000,4900.5465,N,00825.3462,E,0,2,,103.8,M,47.9,M,,*5A
'A1',23.00,34.00,8.00,12.00,237.00,$GNGGA,175303.000,4900.5348,N,00825.3663,E,0,2,,113.0,M,47.9,M,,*5D
'A1',22.00,32.00,4.00,14.00,238.00,$GNGGA,175314.000,4900.5174,N,00825.3562,E,0,2,,125.7,M,47.9,M,,*56
'A1',22.00,30.00,3.00,11.00,239.00,$GNGGA,175325.000,4900.5219,N,00825.4109,E,0,2,,129.0,M,47.9,M,,*59
'A1',20.00,33.00,4.00,14.00,240.00,$GNGGA,175336.000,4900.5264,N,00825.4470,E,0,0,,128.8,M,47.9,M,,*51
'A1',20.00,30.00,6.00,11.00,241.00,$GNGGA,175347.000,4900.5264,N,00825.4470,E,0,0,,104.8,M,47.9,M,,*59
'A1',21.00,30.00,9.00,14.00,242.00,$GNGGA,175358.000,4900.5264,N,00825.4470,E,0,0,,104.8,M,47.9,M,,*57
'A1',24.00,33.00,5.00,19.00,243.00,$GNGGA,175409.000,4900.5264,N,00825.4470,E,0,0,,104.8,M,47.9,M,,*54
'A1',20.00,32.00,5.00,13.00,244.00,$GNGGA,175420.000,4900.5264,N,00825.4470,E,0,0,,104.8,M,47.9,M,,*5F
'A1',20.00,32.00,7.00,15.00,245.00,$GNGGA,175431.000,4900.5264,N,00825.4470,E,0,0,,104.8,M,47.9,M,,*5F
'A1',22.00,30.00,7.00,12.00,246.00,$GNGGA,175442.000,4900.5264,N,00825.4470,E,0,0,,104.8,M,47.9,M,,*5B
'A1',22.00,33.00,7.00,18.00,247.00,$GNGGA,175453.000,4900.5264,N,00825.4470,E,0,0,,104.8,M,47.9,M,,*5B
'A1',24.00,33.00,2.00,13.00,248.00,$GNGGA,175504.000,4900.5122,N,00825.4883,E,0,0,,103.2,M,47.9,M,,*54
'A1',23.00,33.00,3.00,15.00,249.00,$GNGGA,175515.000,4900.5122,N,00825.4883,E,0,0,,103.2,M,47.9,M,,*54
'A1',21.00,32.00,8.00,12.00,250.00,$GNGGA,175526.000,4900.5242,N,00825.4596,E,0,3,,106.2,M,47.9,M,,*5E
'A1',24.00,30.00,2.00,12.00,251.00,$GNGGA,175537.000,4900.5252,N,00825.4544,E,0,3,,105.8,M,47.9,M,,*59
SSH-2.0-OpenSSH_7.6p1 Ubuntu-4ubuntu0.5
'A1',22.00,32.00,9.00,14.00,252.00,$GNGGA,175548.000,4900.5190,N,00825.4470,E,0,3,,102.4,M,47.9,M,,*51
'A1',20.00,33.00,7.00,15.00,253.00,$GNGGA,175559.000,4900.5201,N,00825.4378,E,0,3,,98.6,M,47.9,M,,*65
'A1',21.00,32.00,9.00,17.00,254.00,$GNGGA,175610.000,4900.5201,N,00825.4359,E,0,3,,98.7,M,47.9,M,,*69
'A1',23.00,31.00,4.00,12.00,255.00,$GNGGA,175621.000,4900.5183,N,00825.5031,E,0,3,,112.1,M,47.9,M,,*5B
SSH-2.0-OpenSSH_7.6p1 Ubuntu-4ubuntu0.5
'A1',23.00,33.00,3.00,10.00,256.00,$GNGGA,175632.000,4900.5208,N,00825.4881,E,1,3,5.51,110.4,M,47.9,M,,*42
'A1',22.00,31.00,8.00,12.00,257.00,$GNGGA,175643.000,4900.5201,N,00825.4745,E,1,3,5.51,110.6,M,47.9,M,,*48
'A1',20.00,33.00,2.00,11.00,258.00,$GNGGA,175654.000,4900.5186,N,00825.4719,E,1,3,5.51,110.6,M,47.9,M,,*4B
'A1',24.00,34.00,4.00,17.00,259.00,$GNGGA,175705.000,4900.5181,N,00825.4720,E,1,3,5.52,110.7,M,47.9,M,,*41
'A1',21.00,32.00,9.00,13.00,260.00,$GNGGA,175716.000,4900.5197,N,00825.4710,E,6,3,96.13,110.7,M,47.9,M,,*7F
'A1',23.00,31.00,4.00,17.00,261.00,$GNGGA,175727.000,4900.5177,N,00825.4749,E,1,3,5.51,110.7,M,47.9,M,,*44
'A1',21.00,30.00,6.00,14.00,262.00,$GNGGA,175738.000,4900.5176,N,00825.4681,E,1,3,5.52,110.8,M,47.9,M,,*42
'A1',20.00,33.00,6.00,19.00,263.00,$GNGGA,175749.000,4900.5189,N,00825.4583,E,1,3,5.53,110.6,M,47.9,M,,*4A
'A1',23.00,34.00,5.00,15.00,264.00,$GNGGA,175800.000,4900.5239,N,00825.4505,E,1,3,5.52,110.5,M,47.9,M,,*4C
'A1',22.00,32.00,7.00,13.00,265.00,$GNGGA,175811.000,4900.5246,N,00825.4414,E,1,3,5.52,110.4,M,47.9,M,,*44
'A1',22.00,32.00,9.00,13.00,266.00,$GNGGA,175822.000,4900.5184,N,00825.4697,E,1,3,5.52,110.4,M,47.9,M,,*40
'A1',22.00,32.00,6.00,11.00,267.00,$GNGGA,175833.000,4900.5185,N,00825.4892,E,1,3,5.52,109.7,M,47.9,M,,*41
'A1',24.00,31.00,8.00,12.00,268.00,$GNGGA,175844.000,4900.5232,N,00825.4779,E,1,3,5.52,108.9,M,47.9,M,,*4B
'A1',23.00,33.00,3.00,10.00,269.00,$GNGGA,175855.000,4900.5272,N,00825.4544,E,1,3,5.52,107.8,M,47.9,M,,*4D
'A1',21.00,30.00,8.00,17.00,270.00,$GNGGA,175906.000,4900.5295,N,00825.4377,E,1,3,5.53,106.5,M,47.9,M,,*48
'A1',22.00,33.00,6.00,18.00,271.00,$GNGGA,175917.000,4900.5337,N,00825.4172,E,1,3,5.52,105.0,M,47.9,M,,*41
'A1',20.00,31.00,2.00,17.00,272.00,$GNGGA,175928.000,4900.5324,N,00825.4106,E,1,3,5.53,103.4,M,47.9,M,,*4F
'A1',20.00,33.00,4.00,15.00,273.00,$GNGGA,175939.000,4900.5263,N,00825.4275,E,1,3,5.53,101.9,M,47.9,M,,*45
'A1',23.00,31.00,5.00,14.00,274.00,$GNGGA,175950.000,4900.5217,N,00825.4408,E,1,3,5.53,100.6,M,47.9,M,,*4B
'A1',23.00,32.00,5.00,13.00,275.00,$GNGGA,180001.000,4900.5247,N,00825.4323,E,1,3,5.53,99.3,M,47.9,M,,*73
'A1',21.00,33.00,6.00,17.00,276.00,$GNGGA,180012.000,4900.5254,N,00825.4452,E,1,3,5.53,97.9,M,47.9,M,,*76
'A1',20.00,32.00,2.00,17.00,277.00,$GNGGA,180023.000,4900.5212,N,00825.4807,E,1,3,5.53,96.3,M,47.9,M,,*71
'A1',21.00,32.00,6.00,16.00,278.00,$GNGGA,180034.000,4900.5178,N,00825.4955,E,1,3,5.53,94.6,M,47.9,M,,*79
'A1',21.00,33.00,3.00,18.00,279.00,$GNGGA,180045.000,4900.5169,N,00825.4978,E,1,3,5.53,92.8,M,47.9,M,,*78
'A1',20.00,30.00,5.00,10.00,280.00,$GNGGA,180056.000,4900.5149,N,00825.5336,E,1,3,5.53,91.0,M,47.9,M,,*72
'A1',20.00,30.00,6.00,11.00,281.00,$GNGGA,180107.000,4900.5179,N,00825.5233,E,1,3,5.53,89.2,M,47.9,M,,*7B
'A1',20.00,30.00,3.00,15.00,282.00,$GNGGA,180118.000,4900.5219,N,00825.4936,E,1,3,5.53,88.4,M,47.9,M,,*78
'A1',23.00,34.00,9.00,16.00,283.00,$GNGGA,180129.000,4900.5206,N,00825.4771,E,1,3,5.53,88.3,M,47.9,M,,*7E
'A1',22.00,34.00,4.00,11.00,284.00,$GNGGA,180140.000,4900.5165,N,00825.4889,E,1,3,5.53,88.2,M,47.9,M,,*7E
'A1',24.00,34.00,4.00,10.00,285.00,$GNGGA,180151.000,4900.5174,N,00825.4868,E,1,3,5.53,88.1,M,47.9,M,,*72
'A1',20.00,31.00,2.00,19.00,286.00,$GNGGA,180202.000,4900.5177,N,00825.4897,E,1,3,5.53,87.9,M,47.9,M,,*73
'A1',24.00,30.00,9.00,11.00,287.00,$GNGGA,180213.000,4900.5176,N,00825.4983,E,1,3,5.53,87.5,M,47.9,M,,*7A
'A1',24.00,33.00,7.00,16.00,288.00,$GNGGA,180224.000,4900.5181,N,00825.4872,E,1,3,5.53,87.1,M,47.9,M,,*7D
'A1',21.00,32.00,9.00,14.00,289.00,$GNGGA,180235.000,4900.5188,N,00825.4766,E,1,3,5.53,86.7,M,47.9,M,,*79
'A1',22.00,31.00,7.00,16.00,290.00,$GNGGA,180246.000,4900.5182,N,00825.4759,E,1,3,5.53,86.1,M,47.9,M,,*7D
'A1',21.00,34.00,4.00,19.00,291.00,$GNGGA,180257.000,4900.5160,N,00825.4782,E,1,3,5.53,85.6,M,47.9,M,,*73
'A1',24.00,34.00,9.00,11.00,292.00,$GNGGA,180308.000,4900.5156,N,00825.4809,E,1,3,5.54,85.0,M,47.9,M,,*70
'A1',24.00,32.00,5.00,15.00,293.00,$GNGGA,180319.000,4900.5148,N,00825.4838,E,1,3,5.54,84.4,M,47.9,M,,*78
'A1',21.00,34.00,5.00,15.00,294.00,$GNGGA,180330.000,4900.5158,N,00825.4755,E,1,3,5.54,83.6,M,47.9,M,,*73
'A1',24.00,32.00,8.00,15.00,295.00,$GNGGA,180341.000,4900.5171,N,00825.4857,E,1,3,5.54,82.9,M,47.9,M,,*7D
'A1',20.00,30.00,7.00,16.00,296.00,$GNGGA,180352.000,4900.5172,N,00825.4822,E,1,3,5.54,82.1,M,47.9,M,,*76
'A1',22.00,33.00,7.00,19.00,297.00,$GNGGA,180403.000,4900.5175,N,00825.4816,E,1,3,5.54,81.3,M,47.9,M,,*74
'A1',22.00,31.00,8.00,12.00,298.00,$GNGGA,180414.000,4900.5181,N,00825.4975,E,1,3,5.54,80.5,M,47.9,M,,*7A
'A1',22.00,30.00,8.00,10.00,299.00,$GNGGA,180425.000,4900.5176,N,00825.5100,E,1,3,5.54,79.8,M,47.9,M,,*70
'A1',22.00,34.00,4.00,12.00,300.00,$GNGGA,180436.000,4900.5173,N,00825.5077,E,1,3,5.54,79.0,M,47.9,M,,*7E
'A1',21.00,33.00,4.00,11.00,301.00,$GNGGA,180447.000,4900.5168,N,00825.5080,E,1,3,5.54,78.1,M,47.9,M,,*7A
'A1',22.00,32.00,2.00,19.00,302.00,$GNGGA,180458.000,4900.5176,N,00825.5115,E,1,3,5.54,77.3,M,47.9,M,,*7B
'A1',20.00,34.00,8.00,18.00,303.00,$GNGGA,180509.000,4900.5172,N,00825.5165,E,1,3,5.54,76.5,M,47.9,M,,*7A
'A1',20.00,34.00,8.00,12.00,304.00,$GNGGA,180520.000,4900.5162,N,00825.5223,E,1,3,5.54,76.3,M,47.9,M,,*77
'A1',24.00,30.00,7.00,16.00,305.00,$GNGGA,180531.000,4900.5159,N,00825.5206,E,1,3,5.54,76.2,M,47.9,M,,*79
'A1',24.00,33.00,9.00,17.00,306.00,$GNGGA,180542.000,4900.5157,N,00825.5120,E,1,3,5.55,75.9,M,47.9,M,,*7D
'A1',24.00,32.00,9.00,13.00,307.00,$GNGGA,180553.000,4900.5171,N,00825.4967,E,1,3,5.54,75.6,M,47.9,M,,*7D
'A1',22.00,32.00,6.00,15.00,308.00,$GNGGA,180604.000,4900.5187,N,00825.4835,E,1,3,5.54,75.4,M,47.9,M,,*71
'A1',23.00,34.00,9.00,12.00,309.00,$GNGGA,180615.000,4900.5182,N,00825.4762,E,1,3,5.54,75.2,M,47.9,M,,*7F
'A1',20.00,34.00,6.00,15.00,310.00,$GNGGA,180626.000,4900.5180,N,00825.4670,E,1,3,5.54,75.0,M,47.9,M,,*7D
'A1',22.00,30.00,9.00,18.00,311.00,$GNGGA,180637.000,4900.5170,N,00825.4715,E,1,3,5.54,74.7,M,47.9,M,,*76
'A1',24.00,34.00,5.00,13.00,312.00,$GNGGA,180648.000,4900.5178,N,00825.4770,E,1,3,5.54,74.4,M,47.9,M,,*76
'A1',24.00,30.00,2.00,13.00,313.00,$GNGGA,180659.000,4900.5184,N,00825.4875,E,1,3,5.54,74.0,M,47.9,M,,*7B
'A1',23.00,33.00,7.00,13.00,314.00,$GNGGA,180710.000,4900.5193,N,00825.4823,E,1,3,5.55,73.5,M,47.9,M,,*71
'A1',24.00,33.00,4.00,13.00,315.00,$GNGGA,180721.000,4900.5184,N,00825.4824,E,1,3,5.54,73.0,M,47.9,M,,*76
'A1',22.00,33.00,7.00,17.00,316.00,$GNGGA,180732.000,4900.5175,N,00825.4892,E,1,3,5.55,72.5,M,47.9,M,,*72
'A1',20.00,31.00,6.00,11.00,317.00,$GNGGA,180743.000,4900.5186,N,00825.4894,E,1,3,5.54,72.1,M,47.9,M,,*7B
'A1',23.00,33.00,7.00,19.00,318.00,$GNGGA,180754.000,4900.5188,N,00825.4888,E,1,3,5.54,71.7,M,47.9,M,,*7B
'A1',20.00,34.00,6.00,18.00,319.00,$GNGGA,180805.000,4900.5182,N,00825.4967,E,1,3,5.55,71.2,M,47.9,M,,*7E
'A1',20.00,30.00,5.00,14.00,320.00,$GNGGA,180816.000,4900.5190,N,00825.4951,E,1,3,5.55,71.4,M,47.9,M,,*7C
'A1',23.00,33.00,3.00,14.00,321.00,$GNGGA,180827.000,4900.5181,N,00825.5056,E,1,3,5.55,71.3,M,47.9,M,,*76
'A1',21.00,32.00,5.00,14.00,322.00,$GNGGA,180838.000,4900.5151,N,00825.5280,E,1,3,5.55,71.2,M,47.9,M,,*7D
'A1',20.00,32.00,5.00,17.00,323.00,$GNGGA,180849.000,4900.5157,N,00825.5259,E,1,3,5.54,70.9,M,47.9,M,,*72
'A1',22.00,33.00,5.00,19.00,324.00,$GNGGA,180900.000,4900.5173,N,00825.5221,E,1,3,5.55,70.6,M,47.9,M,,*79
'A1',24.00,32.00,8.00,13.00,325.00,$GNGGA,180911.000,4900.5176,N,00825.5255,E,1,3,5.54,70.4,M,47.9,M,,*7C
'A1',23.00,32.00,7.00,13.00,326.00,$GNGGA,180922.000,4900.5174,N,00825.5275,E,1,3,5.55,70.4,M,47.9,M,,*7D
'A1',21.00,30.00,3.00,13.00,327.00,$GNGGA,180933.000,4900.5177,N,00825.5278,E,1,3,5.55,70.4,M,47.9,M,,*73
'A1',20.00,33.00,3.00,16.00,328.00,$GNGGA,180944.000,4900.5152,N,00825.5308,E,1,3,5.55,70.4,M,47.9,M,,*72
'A1',22.00,31.00,4.00,16.00,329.00,$GNGGA,180955.000,4900.5154,N,00825.5346,E,1,3,5.55,70.6,M,47.9,M,,*7C
'A1',21.00,33.00,6.00,15.00,330.00,$GNGGA,181006.000,4900.5184,N,00825.5272,E,1,3,5.54,70.6,M,47.9,M,,*78
'A1',24.00,33.00,8.00,14.00,331.00,$GNGGA,181017.000,4900.5189,N,00825.5257,E,1,3,5.56,70.4,M,47.9,M,,*72
'A1',21.00,31.00,6.00,13.00,332.00,$GNGGA,181028.000,4900.5171,N,00825.5393,E,1,3,5.55,70.3,M,47.9,M,,*74
'A1',22.00,33.00,2.00,18.00,333.00,$GNGGA,181039.000,4900.5145,N,00825.5608,E,1,3,5.55,70.1,M,47.9,M,,*76
'A1',22.00,30.00,8.00,18.00,334.00,$GNGGA,181050.000,4900.5134,N,00825.5638,E,1,3,5.55,69.9,M,47.9,M,,*7C
'A1',22.00,34.00,9.00,13.00,335.00,$GNGGA,181101.000,4900.5140,N,00825.5569,E,1,3,5.54,69.6,M,47.9,M,,*73
'A1',22.00,34.00,2.00,13.00,336.00,$GNGGA,181112.000,4900.5160,N,00825.5406,E,1,3,5.54,69.4,M,47.9,M,,*79
'A1',22.00,34.00,2.00,17.00,337.00,$GNGGA,181123.000,4900.5145,N,00825.5426,E,1,3,5.55,69.1,M,47.9,M,,*7A
'A1',24.00,30.00,8.00,13.00,338.00,$GNGGA,181134.000,4900.5189,N,00825.5187,E,1,3,5.54,68.7,M,47.9,M,,*74
'A1',23.00,30.00,4.00,12.00,339.00,$GNGGA,181145.000,4900.5202,N,00825.5044,E,1,3,5.55,68.3,M,47.9,M,,*79
'A1',23.00,33.00,5.00,14.00,340.00,$GNGGA,181156.000,4900.5200,N,00825.5138,E,1,3,5.54,67.9,M,47.9,M,,*77
'A1',20.00,33.00,8.00,10.00,341.00,$GNGGA,181207.000,4900.5199,N,00825.5294,E,1,3,5.55,67.5,M,47.9,M,,*7B
'A1',23.00,34.00,2.00,17.00,342.00,$GNGGA,181218.000,4900.5204,N,00825.5385,E,1,3,5.55,67.1,M,47.9,M,,*77
SSH-2.0-OpenSSH_7.6p1 Ubuntu-4ubuntu0.5
'A1',23.00,30.00,6.00,18.00,343.00,$GNGGA,181229.000,4900.5192,N,00825.5407,E,1,3,5.54,66.7,M,47.9,M,,*72
'A1',21.00,31.00,9.00,19.00,344.00,$GNGGA,181240.000,4900.5183,N,00825.5409,E,1,3,5.55,66.3,M,47.9,M,,*76
'A1',21.00,32.00,2.00,18.00,345.00,$GNGGA,181251.000,4900.5177,N,00825.5386,E,1,3,5.55,65.9,M,47.9,M,,*74
'A1',21.00,32.00,5.00,18.00,346.00,$GNGGA,181302.000,4900.5183,N,00825.5539,E,1,3,5.54,65.5,M,47.9,M,,*77
'A1',20.00,34.00,5.00,16.00,347.00,$GNGGA,181313.000,4900.5182,N,00825.5653,E,1,3,5.55,65.1,M,47.9,M,,*7C
'A1',24.00,32.00,7.00,12.00,348.00,$GNGGA,181324.000,4900.5177,N,00825.5635,E,1,3,5.55,64.8,M,47.9,M,,*7A
'A1',20.00,31.00,3.00,18.00,349.00,$GNGGA,181335.000,4900.5181,N,00825.5606,E,1,3,5.55,64.5,M,47.9,M,,*7E
'A1',23.00,34.00,9.00,15.00,350.00,$GNGGA,181346.000,4900.5176,N,00825.5512,E,1,3,5.54,64.4,M,47.9,M,,*74
'A1',21.00,33.00,6.00,19.00,351.00,$GNGGA,181357.000,4900.5176,N,00825.5365,E,1,3,5.55,64.3,M,47.9,M,,*74
'A1',21.00,31.00,5.00,13.00,352.00,$GNGGA,181408.000,4900.5183,N,00825.5310,E,1,3,5.55,64.1,M,47.9,M,,*73
'A1',23.00,33.00,2.00,12.00,353.00,$GNGGA,181419.000,4900.5185,N,00825.5279,E,1,3,5.55,63.9,M,47.9,M,,*74
'A1',24.00,33.00,2.00,14.00,354.00,$GNGGA,181430.000,4900.5200,N,00825.5240,E,1,3,5.55,63.7,M,47.9,M,,*75
'A1',21.00,30.00,8.00,10.00,355.00,$GNGGA,181441.000,4900.5188,N,00825.5209,E,1,3,5.55,63.6,M,47.9,M,,*7C
'A1',22.00,32.00,3.00,11.00,356.00,$GNGGA,181452.000,4900.5178,N,00825.5176,E,1,3,5.55,63.5,M,47.9,M,,*79
'A1',21.00,30.00,9.00,14.00,357.00,$GNGGA,181503.000,4900.5180,N,00825.5068,E,1,3,5.55,63.4,M,47.9,M,,*74
'A1',23.00,31.00,6.00,15.00,358.00,$GNGGA,181514.000,4900.5195,N,00825.5182,E,1,3,5.55,63.2,M,47.9,M,,*75
'A1',23.00,31.00,7.00,13.00,359.00,$GNGGA,181525.000,4900.5210,N,00825.5281,E,1,3,5.55,63.3,M,47.9,M,,*78
'A1',20.00,33.00,6.00,10.00,360.00,$GNGGA,181536.000,4900.5177,N,00825.5377,E,1,3,5.56,63.3,M,47.9,M,,*73
'A1',24.00,34.00,3.00,11.00,361.00,$GNGGA,181547.000,4900.5201,N,00825.5322,E,1,3,5.55,63.3,M,47.9,M,,*74
'A1',23.00,32.00,7.00,17.00,362.00,$GNGGA,181558.000,4900.5184,N,00825.5232,E,1,3,5.54,63.2,M,47.9,M,,*74
'A1',22.00,31.00,3.00,13.00,363.00,$GNGGA,181609.000,4900.5173,N,00825.5124,E,1,3,5.54,63.0,M,47.9,M,,*7D
SSH-2.0-OpenSSH_7.6p1 Ubuntu-4ubuntu0.5
'A1',23.00,33.00,6.00,17.00,364.00,$GNGGA,181620.000,4900.5191,N,00825.5100,E,1,3,5.55,62.9,M,47.9,M,,*75
'A1',20.00,34.00,7.00,18.00,365.00,$GNGGA,181631.000,4900.5214,N,00825.5116,E,1,3,5.54,62.8,M,47.9,M,,*7C
'A1',20.00,33.00,5.00,16.00,366.00,$GNGGA,181642.000,4900.5187,N,00825.5085,E,1,3,5.54,62.7,M,47.9,M,,*75
'A1',20.00,33.00,3.00,17.00,367.00,$GNGGA,181653.000,4900.5187,N,00825.5180,E,1,3,5.55,62.5,M,47.9,M,,*72
'A1',20.00,34.00,7.00,15.00,368.00,$GNGGA,181704.000,4900.5154,N,00825.5250,E,1,3,5.54,62.4,M,47.9,M,,*71
'A1',22.00,32.00,2.00,17.00,369.00,$GNGGA,181715.000,4900.5171,N,00825.5212,E,1,3,5.55,62.3,M,47.9,M,,*76
'A1',21.00,34.00,4.00,14.00,370.00,$GNGGA,181726.000,4900.5168,N,00825.5198,E,1,3,5.55,62.1,M,47.9,M,,*7D
'A1',23.00,30.00,8.00,12.00,371.00,$GNGGA,181737.000,4900.5174,N,00825.5269,E,1,3,5.55,61.9,M,47.9,M,,*76
'A1',21.00,32.00,2.00,19.00,372.00,$GNGGA,181748.000,4900.5160,N,00825.5369,E,1,3,5.55,62.0,M,47.9,M,,*70
'A1',24.00,30.00,9.00,12.00,373.00,$GNGGA,181759.000,4900.5157,N,00825.5340,E,1,3,5.55,62.0,M,47.9,M,,*7F
'A1',24.00,30.00,5.00,13.00,374.00,$GNGGA,181810.000,4900.5164,N,00825.5375,E,1,3,5.54,62.0,M,47.9,M,,*7A
'A1',24.00,33.00,9.00,17.00,375.00,$GNGGA,181821.000,4900.5242,N,00825.5698,E,1,3,5.54,62.1,M,47.9,M,,*78
'A1',22.00,30.00,4.00,16.00,376.00,$GNGGA,181832.000,4900.5275,N,00825.6353,E,1,3,5.55,62.1,M,47.9,M,,*7E
'A1',24.00,30.00,6.00,13.00,377.00,$GNGGA,181843.000,4900.5279,N,00825.6446,E,1,3,5.55,62.1,M,47.9,M,,*77
'A1',21.00,31.00,5.00,14.00,378.00,$GNGGA,181854.000,4900.5315,N,00825.6215,E,0,2,,62.0,M,47.9,M,,*60
'A1',24.00,34.00,5.00,16.00,379.00,$GNGGA,181905.000,4900.5355,N,00825.6291,E,0,2,,62.1,M,47.9,M,,*6C
'A1',23.00,30.00,7.00,11.00,380.00,$GNGGA,181916.000,4900.5357,N,00825.6294,E,0,2,,61.8,M,47.9,M,,*63
'A1',23.00,30.00,2.00,17.00,381.00,$GNGGA,181927.000,4900.5357,N,00825.6294,E,0,2,,61.8,M,47.9,M,,*61
'A1',23.00,31.00,6.00,17.00,382.00,$GNGGA,181938.000,4900.5357,N,00825.6294,E,0,2,,61.8,M,47.9,M,,*6F
'A1',21.00,31.00,5.00,13.00,383.00,$GNGGA,181949.000,4900.5357,N,00825.6294,E,0,0,,61.8,M,47.9,M,,*6B
'A1',21.00,34.00,5.00,19.00,384.00,$GNGGA,182000.000,4900.5357,N,00825.6294,E,0,0,,61.8,M,47.9,M,,*6C
'A1',24.00,34.00,9.00,18.00,385.00,$GNGGA,182011.000,4900.5357,N,00825.6294,E,0,0,,61.8,M,47.9,M,,*6C
'A1',24.00,30.00,9.00,12.00,386.00,$GNGGA,182022.000,4900.5357,N,00825.6294,E,0,0,,61.8,M,47.9,M,,*6C
'A1',20.00,30.00,4.00,15.00,387.00,$GNGGA,182033.000,4900.5357,N,00825.6294,E,0,0,,61.8,M,47.9,M,,*6C
'A1',20.00,31.00,3.00,16.00,388.00,$GNGGA,182044.000,4900.5357,N,00825.6294,E,0,0,,61.8,M,47.9,M,,*6C
'A1',22.00,30.00,9.00,13.00,389.00,$GNGGA,182055.000,4900.5366,N,00825.5811,E,0,2,,54.0,M,47.9,M,,*66
'A1',20.00,31.00,3.00,16.00,390.00,$GNGGA,182106.000,4900.5320,N,00825.5997,E,0,2,,53.6,M,47.9,M,,*6D
'A1',20.00,33.00,2.00,19.00,391.00,$GNGGA,182117.000,4900.5302,N,00825.6229,E,0,2,,53.6,M,47.9,M,,*60
'A1',20.00,33.00,5.00,16.00,392.00,$GNGGA,182128.000,4900.5295,N,00825.6438,E,0,2,,53.6,M,47.9,M,,*65
'A1',20.00,33.00,7.00,11.00,393.00,$GNGGA,182139.000,4900.5263,N,00825.6574,E,0,2,,53.5,M,47.9,M,,*66
'A1',22.00,32.00,3.00,10.00,394.00,$GNGGA,182150.000,4900.5307,N,00825.6670,E,0,2,,53.6,M,47.9,M,,*6E
'A1',22.00,30.00,8.00,17.00,395.00,$GNGGA,182201.000,4900.5309,N,00825.6589,E,0,2,,53.6,M,47.9,M,,*62
'A1',22.00,34.00,8.00,11.00,396.00,$GNGGA,182212.000,4900.5351,N,00825.6477,E,0,2,,53.5,M,47.9,M,,*6E
'A1',21.00,30.00,4.00,11.00,397.00,$GNGGA,182223.000,4900.5398,N,00825.6328,E,0,2,,53.5,M,47.9,M,,*64
'A1',22.00,32.00,2.00,17.00,398.00,$GNGGA,182234.000,4900.5501,N,00825.6274,E,0,2,,53.5,M,47.9,M,,*6C
'A1',21.00,34.00,4.00,17.00,399.00,$GNGGA,182245.000,4900.5533,N,00825.6251,E,0,0,,53.5,M,47.9,M,,*6E
'A1',20.00,32.00,4.00,13.00,400.00,$GNGGA,182256.000,4900.5533,N,00825.6251,E,0,0,,53.5,M,47.9,M,,*6C
'A1',20.00,34.00,9.00,19.00,401.00,$GNGGA,182307.000,4900.5533,N,00825.6251,E,0,0,,53.5,M,47.9,M,,*69
'A1',21.00,31.00,9.00,11.00,402.00,$GNGGA,182318.000,4900.5533,N,00825.6251,E,0,0,,53.5,M,47.9,M,,*67
'A1',22.00,33.00,7.00,17.00,403.00,$GNGGA,182329.000,4900.5533,N,00825.6251,E,0,0,,53.5,M,47.9,M,,*65
'A1',24.00,34.00,2.00,12.00,404.00,$GNGGA,182340.000,4900.5533,N,00825.6251,E,0,0,,101.9,M,47.9,M,,*50
'A1',20.00,30.00,4.00,18.00,405.00,$GNGGA,182351.000,4900.5533,N,00825.6251,E,0,0,,101.9,M,47.9,M,,*50
'A1',20.00,30.00,9.00,17.00,406.00,$GNGGA,182402.000,4900.5533,N,00825.6251,E,0,0,,101.9,M,47.9,M,,*51
'A1',22.00,33.00,3.00,12.00,407.00,$GNGGA,182413.000,4900.5533,N,00825.6251,E,0,0,,101.9,M,47.9,M,,*51
'A1',24.00,31.00,8.00,18.00,408.00,$GNGGA,182424.000,4900.5533,N,00825.6251,E,0,0,,101.9,M,47.9,M,,*55
'A1',24.00,32.00,3.00,18.00,409.00,$GNGGA,182435.000,4900.5533,N,00825.6251,E,0,0,,101.9,M,47.9,M,,*55
'A1',20.00,31.00,9.00,15.00,410.00,$GNGGA,182446.000,4900.5533,N,00825.6251,E,0,0,,101.9,M,47.9,M,,*51
'A1',20.00,33.00,9.00,17.00,411.00,$GNGGA,182457.000,4900.5533,N,00825.6251,E,0,0,,101.9,M,47.9,M,,*51
'A1',24.00,30.00,5.00,11.00,412.00,$GNGGA,182508.000,4900.5533,N,00825.6251,E,0,0,,101.9,M,47.9,M,,*5A
'A1',21.00,31.00,4.00,16.00,413.00,$GNGGA,182519.000,4900.5533,N,00825.6251,E,0,0,,101.9,M,47.9,M,,*5A
'A1',22.00,30.00,4.00,10.00,414.00,$GNGGA,182530.000,4900.5533,N,00825.6251,E,0,0,,101.9,M,47.9,M,,*51
'A1',24.00,33.00,4.00,10.00,415.00,$GNGGA,182541.000,4900.5533,N,00825.6251,E,0,0,,102.1,M,47.9,M,,*5C
'A1',20.00,32.00,6.00,11.00,416.00,$GNGGA,182552.000,4900.5533,N,00825.6251,E,0,0,,102.1,M,47.9,M,,*5E
'A1',20.00,30.00,4.00,18.00,417.00,$GNGGA,182603.000,4900.5533,N,00825.6251,E,0,0,,102.1,M,47.9,M,,*59
'A1',20.00,32.00,2.00,11.00,418.00,$GNGGA,182614.000,4900.5533,N,00825.6251,E,0,0,,102.1,M,47.9,M,,*5F
'A1',24.00,32.00,2.00,10.00,419.00,$GNGGA,182625.000,4900.5533,N,00825.6251,E,0,0,,102.1,M,47.9,M,,*5D
'A1',23.00,34.00,5.00,11.00,420.00,$GNGGA,182636.000,4900.5533,N,00825.6251,E,0,0,,102.1,M,47.9,M,,*5F
'A1',22.00,34.00,3.00,11.00,421.00,$GNGGA,182647.000,4900.5533,N,00825.6251,E,0,0,,102.1,M,47.9,M,,*59
'A1',20.00,32.00,3.00,11.00,422.00,$GNGGA,182658.000,4900.5533,N,00825.6251,E,0,0,,102.1,M,47.9,M,,*57
'A1',24.00,31.00,3.00,13.00,423.00,$GNGGA,182709.000,4900.5533,N,00825.6251,E,0,0,,102.1,M,47.9,M,,*52
'A1',22.00,34.00,7.00,15.00,424.00,$GNGGA,182720.000,4900.5533,N,00825.6251,E,0,0,,102.1,M,47.9,M,,*59
'A1',24.00,33.00,3.00,16.00,425.00,$GNGGA,182731.000,4900.5533,N,00825.6251,E,0,0,,102.1,M,47.9,M,,*59
'A1',23.00,33.00,7.00,12.00,426.00,$GNGGA,182742.000,4900.5533,N,00825.6251,E,0,0,,102.1,M,47.9,M,,*5D
'A1',23.00,32.00,3.00,15.00,427.00,$GNGGA,182753.000,4900.5533,N,00825.6251,E,0,0,,102.1,M,47.9,M,,*5D
'A1',24.00,34.00,6.00,11.00,428.00,$GNGGA,182804.000,4900.5533,N,00825.6251,E,0,0,,102.1,M,47.9,M,,*50
'A1',20.00,30.00,5.00,18.00,429.00,$GNGGA,182815.000,4900.5533,N,00825.6251,E,0,0,,102.1,M,47.9,M,,*50
'A1',23.00,34.00,8.00,18.00,430.00,$GNGGA,182826.000,4900.5533,N,00825.6251,E,0,0,,102.1,M,47.9,M,,*50
'A1',20.00,32.00,5.00,18.00,431.00,$GNGGA,182837.000,4900.5533,N,00825.6251,E,0,0,,102.1,M,47.9,M,,*50
'A1',20.00,33.00,4.00,12.00,432.00,$GNGGA,182848.000,4900.5533,N,00825.6251,E,0,0,,102.1,M,47.9,M,,*58
'A1',23.00,34.00,8.00,16.00,433.00,$GNGGA,182859.000,4900.5533,N,00825.6251,E,0,0,,102.1,M,47.9,M,,*58
'A1',24.00,31.00,5.00,11.00,434.00,$GNGGA,182910.000,4900.5533,N,00825.6251,E,0,0,,102.1,M,47.9,M,,*54
'A1',21.00,31.00,5.00,13.00,435.00,$GNGGA,182921.000,4900.5533,N,00825.6251,E,0,0,,102.1,M,47.9,M,,*56
SSH-2.0-OpenSSH_7.6p1 Ubuntu-4ubuntu0.5
'A1',23.00,32.00,8.00,18.00,436.00,$GNGGA,182932.000,4900.5533,N,00825.6251,E,0,0,,102.1,M,47.9,M,,*54
'A1',24.00,31.00,2.00,12.00,437.00,$GNGGA,182943.000,4900.5533,N,00825.6251,E,0,0,,102.1,M,47.9,M,,*52
'A1',24.00,30.00,8.00,16.00,438.00,$GNGGA,182954.000,4900.5533,N,00825.6251,E,0,0,,102.1,M,47.9,M,,*54
'A1',21.00,30.00,2.00,11.00,439.00,$GNGGA,183005.000,4900.5533,N,00825.6251,E,0,0,,102.1,M,47.9,M,,*58
'A1',21.00,32.00,9.00,17.00,440.00,$GNGGA,183016.000,4900.5533,N,00825.6251,E,0,0,,102.1,M,47.9,M,,*5A
'A1',20.00,30.00,5.00,16.00,441.00,$GNGGA,183027.000,4900.5533,N,00825.6251,E,0,0,,102.1,M,47.9,M,,*58
'A1',21.00,34.00,8.00,12.00,442.00,$GNGGA,183038.000,4900.5533,N,00825.6251,E,0,0,,102.1,M,47.9,M,,*56
'A1',21.00,33.00,7.00,11.00,443.00,$GNGGA,183049.000,4900.5533,N,00825.6251,E,0,0,,102.1,M,47.9,M,,*50
'A1',21.00,32.00,6.00,12.00,444.00,$GNGGA,183100.000,4900.5533,N,00825.6251,E,0,0,,102.1,M,47.9,M,,*5C
'A1',22.00,31.00,8.00,11.00,445.00,$GNGGA,183111.000,4900.5533,N,00825.6251,E,0,0,,102.1,M,47.9,M,,*5C
'A1',24.00,31.00,5.00,12.00,446.00,$GNGGA,183122.000,4900.5533,N,00825.6251,E,0,0,,102.1,M,47.9,M,,*5C
'A1',24.00,30.00,6.00,14.00,447.00,$GNGGA,183133.000,4900.5533,N,00825.6251,E,0,0,,102.1,M,47.9,M,,*5C
'A1',23.00,30.00,7.00,17.00,448.00,$GNGGA,183144.000,4900.5533,N,00825.6251,E,0,0,,102.1,M,47.9,M,,*5C
'A1',23.00,34.00,5.00,19.00,449.00,$GNGGA,183155.000,4900.5533,N,00825.6251,E,0,0,,102.1,M,47.9,M,,*5C
'A1',21.00,30.00,4.00,16.00,450.00,$GNGGA,183206.000,4900.5533,N,00825.6251,E,0,0,,102.1,M,47.9,M,,*59
'A1',23.00,30.00,4.00,15.00,451.00,$GNGGA,183217.000,4900.5533,N,00825.6251,E,0,0,,102.1,M,47.9,M,,*59
'A1',22.00,34.00,2.00,16.00,452.00,$GNGGA,183228.000,4900.5533,N,00825.6251,E,0,0,,102.1,M,47.9,M,,*55
'A1',23.00,34.00,3.00,15.00,453.00,$GNGGA,183239.000,4900.5533,N,00825.6251,E,0,0,,102.1,M,47.9,M,,*55
'A1',23.00,33.00,3.00,16.00,454.00,$GNGGA,183250.000,4900.5533,N,00825.6251,E,0,0,,102.1,M,47.9,M,,*5A
'A1',21.00,31.00,3.00,15.00,455.00,$GNGGA,183301.000,4900.5533,N,00825.6251,E,0,0,,102.1,M,47.9,M,,*5F
'A1',24.00,33.00,6.00,13.00,456.00,$GNGGA,183312.000,4900.5533,N,00825.6251,E,0,0,,102.1,M,47.9,M,,*5D
'A1',23.00,31.00,3.00,19.00,457.00,$GNGGA,183324.000,4900.5533,N,00825.6251,E,0,0,,102.1,M,47.9,M,,*58
'A1',24.00,30.00,7.00,19.00,458.00,$GNGGA,183335.000,4900.5533,N,00825.6251,E,0,0,,102.1,M,47.9,M,,*58
'A1',20.00,34.00,4.00,11.00,459.00,$GNGGA,183346.000,4900.5533,N,00825.6251,E,0,0,,102.1,M,47.9,M,,*5C
'A1',24.00,33.00,4.00,10.00,460.00,$GNGGA,183357.000,4900.5533,N,00825.6251,E,0,0,,102.1,M,47.9,M,,*5C
'A1',24.00,33.00,6.00,13.00,461.00,$GNGGA,183408.000,4900.5533,N,00825.6251,E,0,0,,102.1,M,47.9,M,,*51
'A1',20.00,32.00,5.00,15.00,462.00,$GNGGA,183419.000,4900.5533,N,00825.6251,E,0,0,,102.1,M,47.9,M,,*51
'A1',22.00,34.00,3.00,16.00,463.00,$GNGGA,183430.000,4900.5533,N,00825.6251,E,0,0,,102.1,M,47.9,M,,*5A
'A1',21.00,34.00,8.00,15.00,464.00,$GNGGA,183441.000,4900.5533,N,00825.6251,E,0,0,,102.1,M,47.9,M,,*5C
'A1',21.00,32.00,8.00,10.00,465.00,$GNGGA,183452.000,4900.5533,N,00825.6251,E,0,0,,102.1,M,47.9,M,,*5E
'A1',21.00,32.00,7.00,10.00,466.00,$GNGGA,183503.000,4900.5533,N,00825.6251,E,0,0,,102.1,M,47.9,M,,*5B
'A1',23.00,31.00,4.00,14.00,467.00,$GNGGA,183514.000,4900.5533,N,00825.6251,E,0,0,,102.1,M,47.9,M,,*5D
'A1',22.00,30.00,7.00,18.00,468.00,$GNGGA,183525.000,4900.5533,N,00825.6251,E,0,0,,102.1,M,47.9,M,,*5F
'A1',23.00,30.00,7.00,13.00,469.00,$GNGGA,183536.000,4900.5533,N,00825.6251,E,0,0,,102.1,M,47.9,M,,*5D
'A1',23.00,32.00,3.00,10.00,470.00,$GNGGA,183547.000,4900.5533,N,00825.6251,E,0,0,,102.1,M,47.9,M,,*5B
'A1',21.00,30.00,6.00,17.00,471.00,$GNGGA,183558.000,4900.5533,N,00825.6251,E,0,0,,102.1,M,47.9,M,,*55
'A1',20.00,30.00,3.00,18.00,472.00,$GNGGA,183609.000,4900.5533,N,00825.6251,E,0,0,,102.1,M,47.9,M,,*52
'A1',21.00,33.00,7.00,18.00,473.00,$GNGGA,183620.000,4900.5533,N,00825.6251,E,0,0,,102.1,M,47.9,M,,*59
'A1',24.00,34.00,8.00,10.00,474.00,$GNGGA,183631.000,4900.5533,N,00825.6251,E,0,0,,102.1,M,47.9,M,,*59
'A1',24.00,30.00,9.00,16.00,475.00,$GNGGA,183642.000,4900.5533,N,00825.6251,E,0,0,,102.1,M,47.9,M,,*5D
'A1',22.00,30.00,9.00,14.00,476.00,$GNGGA,183653.000,4900.5533,N,00825.6251,E,0,0,,102.1,M,47.9,M,,*5D
'A1',24.00,30.00,2.00,17.00,477.00,$GNGGA,183704.000,4900.5533,N,00825.6251,E,0,0,,102.1,M,47.9,M,,*5E
'A1',22.00,30.00,4.00,12.00,478.00,$GNGGA,183715.000,4900.5533,N,00825.6251,E,0,0,,102.1,M,47.9,M,,*5E
'A1',24.00,32.00,3.00,14.00,479.00,$GNGGA,183726.000,4900.5533,N,00825.6251,E,0,0,,102.1,M,47.9,M,,*5E
'A1',20.00,30.00,2.00,17.00,480.00,$GNGGA,183737.000,4900.5533,N,00825.6251,E,0,0,,102.1,M,47.9,M,,*5E
'A1',21.00,33.00,5.00,16.00,481.00,$GNGGA,183748.000,4900.5533,N,00825.6251,E,0,0,,102.1,M,47.9,M,,*56
'A1',20.00,33.00,2.00,14.00,482.00,$GNGGA,183759.000,4900.5533,N,00825.6251,E,0,0,,102.1,M,47.9,M,,*56
'A1',21.00,33.00,8.00,12.00,483.00,$GNGGA,183810.000,4900.5533,N,00825.6251,E,0,0,,102.1,M,47.9,M,,*54
'A1',20.00,32.00,8.00,16.00,484.00,$GNGGA,183821.000,4900.5533,N,00825.6251,E,0,0,,102.1,M,47.9,M,,*56
'A1',21.00,32.00,6.00,19.00,485.00,$GNGGA,183832.000,4900.5533,N,00825.6251,E,0,0,,102.1,M,47.9,M,,*54
'A1',21.00,31.00,8.00,11.00,486.00,$GNGGA,183843.000,4900.5533,N,00825.6251,E,0,0,,102.1,M,47.9,M,,*52
'A1',20.00,34.00,7.00,12.00,487.00,$GNGGA,183854.000,4900.5533,N,00825.6251,E,0,0,,102.1,M,47.9,M,,*54
'A1',22.00,34.00,5.00,13.00,488.00,$GNGGA,183905.000,4900.5533,N,00825.6251,E,0,0,,102.1,M,47.9,M,,*51
'A1',23.00,32.00,4.00,10.00,489.00,$GNGGA,183916.000,4900.5533,N,00825.6251,E,0,0,,102.1,M,47.9,M,,*53
'A1',21.00,31.00,9.00,16.00,490.00,$GNGGA,183927.000,4900.5533,N,00825.6251,E,0,0,,102.1,M,47.9,M,,*51
'A1',24.00,30.00,5.00,10.00,491.00,$GNGGA,183938.000,4900.5533,N,00825.6251,E,0,0,,102.1,M,47.9,M,,*5F
'A1',24.00,33.00,5.00,10.00,492.00,$GNGGA,183949.000,4900.5533,N,00825.6251,E,0,0,,102.1,M,47.9,M,,*59
'A1',21.00,34.00,5.00,18.00,493.00,$GNGGA,184000.000,4900.5533,N,00825.6251,E,0,0,,102.1,M,47.9,M,,*5A
'A1',23.00,34.00,3.00,12.00,494.00,$GNGGA,184011.000,4900.5533,N,00825.6251,E,0,0,,102.1,M,47.9,M,,*5A
'A1',21.00,32.00,5.00,11.00,495.00,$GNGGA,184022.000,4900.5533,N,00825.6251,E,0,0,,102.1,M,47.9,M,,*5A
'A1',24.00,33.00,4.00,13.00,496.00,$GNGGA,184033.000,4900.5533,N,00825.6251,E,0,0,,102.1,M,47.9,M,,*5A
'A1',24.00,33.00,6.00,17.00,497.00,$GNGGA,184044.000,4900.5533,N,00825.6251,E,0,0,,102.1,M,47.9,M,,*5A
'A1',21.00,34.00,5.00,16.00,498.00,$GNGGA,184055.000,4900.5533,N,00825.6251,E,0,0,,102.1,M,47.9,M,,*5A
'A1',21.00,33.00,9.00,16.00,499.00,$GNGGA,184106.000,4900.5533,N,00825.6251,E,0,0,,102.1,M,47.9,M,,*5D
'A1',23.00,34.00,8.00,12.00,500.00,$GNGGA,184117.000,4900.5533,N,00825.6251,E,0,0,,102.1,M,47.9,M,,*5D
'A1',24.00,34.00,3.00,10.00,501.00,$GNGGA,184128.000,4900.5533,N,00825.6251,E,0,0,,102.1,M,47.9,M,,*51
'A1',23.00,31.00,9.00,19.00,502.00,$GNGGA,184139.000,4900.5533,N,00825.6251,E,0,0,,102.1,M,47.9,M,,*51
'A1',21.00,30.00,7.00,15.00,503.00,$GNGGA,184150.000,4900.5533,N,00825.6251,E,0,0,,102.1,M,47.9,M,,*5E
'A1',23.00,34.00,8.00,19.00,504.00,$GNGGA,184201.000,4900.5533,N,00825.6251,E,0,0,,102.1,M,47.9,M,,*59
'A1',21.00,30.00,5.00,17.00,505.00,$GNGGA,184212.000,4900.5533,N,00825.6251,E,0,0,,102.1,M,47.9,M,,*5B
'A1',20.00,34.00,6.00,17.00,506.00,$GNGGA,184223.000,4900.5533,N,00825.6251,E,0,0,,102.1,M,47.9,M,,*59
'A1',21.00,33.00,5.00,19.00,507.00,$GNGGA,184234.000,4900.5533,N,00825.6251,E,0,0,,102.1,M,47.9,M,,*5F
'A1',23.00,32.00,5.00,11.00,508.00,$GNGGA,184245.000,4900.5533,N,00825.6251,E,0,0,,102.1,M,47.9,M,,*59
'A1',23.00,34.00,8.00,19.00,509.00,$GNGGA,184256.000,4900.5533,N,00825.6251,E,0,0,,102.1,M,47.9,M,,*5B
'A1',24.00,31.00,5.00,16.00,510.00,$GNGGA,184307.000,4900.5533,N,00825.6251,E,0,0,,102.1,M,47.9,M,,*5E
'A1',20.00,31.00,6.00,18.00,511.00,$GNGGA,184318.000,4900.5533,N,00825.6251,E,0,0,,102.1,M,47.9,M,,*50
'A1',22.00,34.00,7.00,17.00,512.00,$GNGGA,184329.000,4900.5533,N,00825.6251,E,0,0,,102.1,M,47.9,M,,*52
'A1',24.00,30.00,5.00,17.00,513.00,$GNGGA,184340.000,4900.5533,N,00825.6251,E,0,0,,102.1,M,47.9,M,,*5D
'A1',21.00,32.00,8.00,11.00,514.00,$GNGGA,184351.000,4900.5533,N,00825.6251,E,0,0,,102.1,M,47.9,M,,*5D
SSH-2.0-ssh2js1.4.0
'A1',23.00,31.00,2.00,16.00,515.00,$GNGGA,184402.000,4900.5533,N,00825.6251,E,0,0,,102.1,M,47.9,M,,*5C
'A1',23.00,30.00,4.00,17.00,516.00,$GNGGA,184413.000,4900.5533,N,00825.6251,E,0,0,,102.1,M,47.9,M,,*5C
'A1',23.00,31.00,2.00,15.00,517.00,$GNGGA,184424.000,4900.5533,N,00825.6251,E,0,0,,102.1,M,47.9,M,,*58
'A1',22.00,34.00,4.00,14.00,518.00,$GNGGA,184435.000,4900.5533,N,00825.6251,E,0,0,,102.1,M,47.9,M,,*58
'A1',20.00,30.00,7.00,17.00,519.00,$GNGGA,184446.000,4900.5533,N,00825.6251,E,0,0,,102.1,M,47.9,M,,*5C
'A1',24.00,33.00,7.00,13.00,520.00,$GNGGA,184457.000,4900.5533,N,00825.6251,E,0,0,,102.1,M,47.9,M,,*5C
'A1',22.00,30.00,8.00,13.00,521.00,$GNGGA,184508.000,4900.5533,N,00825.6251,E,0,0,,102.1,M,47.9,M,,*57
'A1',21.00,33.00,6.00,18.00,522.00,$GNGGA,184519.000,4900.5533,N,00825.6251,E,0,0,,102.1,M,47.9,M,,*57
'A1',22.00,31.00,2.00,19.00,523.00,$GNGGA,184530.000,4900.5533,N,00825.6251,E,0,0,,102.1,M,47.9,M,,*5C
'A1',22.00,31.00,6.00,11.00,524.00,$GNGGA,184541.000,4900.5533,N,00825.6251,E,0,0,,102.1,M,47.9,M,,*5A
'A1',20.00,30.00,2.00,13.00,525.00,$GNGGA,184552.000,4900.5533,N,00825.6251,E,0,0,,102.1,M,47.9,M,,*58
'A1',24.00,32.00,7.00,15.00,526.00,$GNGGA,184603.000,4900.5533,N,00825.6251,E,0,0,,102.1,M,47.9,M,,*5F
'A1',21.00,30.00,5.00,14.00,527.00,$GNGGA,184614.000,4900.5533,N,00825.6251,E,0,0,,102.1,M,47.9,M,,*59
'A1',21.00,32.00,3.00,12.00,528.00,$GNGGA,184625.000,4900.5533,N,00825.6251,E,0,0,,102.1,M,47.9,M,,*5B
'A1',21.00,33.00,6.00,12.00,529.00,$GNGGA,184636.000,4900.5533,N,00825.6251,E,0,0,,102.1,M,47.9,M,,*59
'A1',22.00,34.00,6.00,14.00,530.00,$GNGGA,184647.000,4900.5533,N,00825.6251,E,0,0,,102.1,M,47.9,M,,*5F
'A1',24.00,31.00,5.00,19.00,531.00,$GNGGA,184658.000,4900.5533,N,00825.6251,E,0,0,,102.1,M,47.9,M,,*51
'A1',24.00,34.00,5.00,19.00,532.00,$GNGGA,184709.000,4900.5533,N,00825.6251,E,0,0,,102.1,M,47.9,M,,*54
'A1',23.00,33.00,3.00,15.00,533.00,$GNGGA,184720.000,4900.5533,N,00825.6251,E,0,0,,102.1,M,47.9,M,,*5F
'A1',23.00,34.00,9.00,19.00,534.00,$GNGGA,184731.000,4900.5533,N,00825.6251,E,0,0,,102.1,M,47.9,M,,*5F
'A1',24.00,32.00,8.00,15.00,535.00,$GNGGA,184742.000,4900.5533,N,00825.6251,E,0,0,,102.1,M,47.9,M,,*5B
'A1',24.00,32.00,5.00,19.00,536.00,$GNGGA,184753.000,4900.5533,N,00825.6251,E,0,0,,102.1,M,47.9,M,,*5B
'A1',21.00,30.00,4.00,13.00,537.00,$GNGGA,184804.000,4900.5533,N,00825.6251,E,0,0,,102.1,M,47.9,M,,*56
'A1',21.00,34.00,7.00,15.00,538.00,$GNGGA,184815.000,4900.5533,N,00825.6251,E,0,0,,102.1,M,47.9,M,,*56
'A1',21.00,32.00,8.00,15.00,539.00,$GNGGA,184826.000,4900.5533,N,00825.6251,E,0,0,,102.1,M,47.9,M,,*56
'A1',22.00,30.00,4.00,16.00,540.00,$GNGGA,184837.000,4900.5533,N,00825.6251,E,0,0,,102.1,M,47.9,M,,*56
'A1',23.00,32.00,5.00,12.00,541.00,$GNGGA,184848.000,4900.5533,N,00825.6251,E,0,0,,102.1,M,47.9,M,,*5E
'A1',23.00,32.00,6.00,17.00,542.00,$GNGGA,184859.000,4900.5533,N,00825.6251,E,0,0,,102.1,M,47.9,M,,*5E
'A1',24.00,33.00,9.00,17.00,543.00,$GNGGA,184910.000,4900.5533,N,00825.6251,E,0,0,,102.1,M,47.9,M,,*52
'A1',21.00,33.00,8.00,16.00,544.00,$GNGGA,184921.000,4900.5533,N,00825.6251,E,0,0,,102.1,M,47.9,M,,*50
'A1',21.00,31.00,6.00,12.00,545.00,$GNGGA,184932.000,4900.5533,N,00825.6251,E,0,0,,102.1,M,47.9,M,,*52
'A1',20.00,31.00,3.00,11.00,546.00,$GNGGA,184943.000,4900.5533,N,00825.6251,E,0,0,,102.1,M,47.9,M,,*54
'A1',22.00,31.00,3.00,14.00,547.00,$GNGGA,184954.000,4900.5533,N,00825.6251,E,0,0,,102.1,M,47.9,M,,*52
'A1',21.00,32.00,5.00,11.00,548.00,$GNGGA,185005.000,4900.5533,N,00825.6251,E,0,0,,102.1,M,47.9,M,,*5E
'A1',23.00,33.00,7.00,12.00,549.00,$GNGGA,185016.000,4900.5533,N,00825.6251,E,0,0,,102.1,M,47.9,M,,*5C
'A1',22.00,34.00,5.00,10.00,550.00,$GNGGA,185027.000,4900.5533,N,00825.6251,E,0,0,,102.1,M,47.9,M,,*5E
'A1',23.00,32.00,5.00,17.00,551.00,$GNGGA,185038.000,4900.5533,N,00825.6251,E,0,0,,102.1,M,47.9,M,,*50
'A1',23.00,32.00,4.00,17.00,552.00,$GNGGA,185049.000,4900.5533,N,00825.6251,E,0,0,,102.1,M,47.9,M,,*56
'A1',20.00,30.00,2.00,10.00,553.00,$GNGGA,185100.000,4900.5533,N,00825.6251,E,0,0,,102.1,M,47.9,M,,*5A
'A1',21.00,31.00,9.00,13.00,554.00,$GNGGA,185111.000,4900.5533,N,00825.6251,E,0,0,,102.1,M,47.9,M,,*5A
'A1',24.00,33.00,5.00,18.00,555.00,$GNGGA,185122.000,4900.5533,N,00825.6251,E,0,0,,102.1,M,47.9,M,,*5A
'A1',21.00,32.00,4.00,12.00,556.00,$GNGGA,185133.000,4900.5533,N,00825.6251,E,0,0,,102.1,M,47.9,M,,*5A
'A1',22.00,30.00,8.00,15.00,557.00,$GNGGA,185144.000,4900.5533,N,00825.6251,E,0,0,,102.1,M,47.9,M,,*5A
'A1',21.00,31.00,4.00,15.00,558.00,$GNGGA,185155.000,4900.5533,N,00825.6251,E,0,0,,102.1,M,47.9,M,,*5A
'A1',21.00,34.00,7.00,16.00,559.00,$GNGGA,185206.000,4900.5533,N,00825.6251,E,0,0,,102.1,M,47.9,M,,*5F
'A1',22.00,30.00,4.00,14.00,560.00,$GNGGA,185217.000,4900.5533,N,00825.6251,E,0,0,,102.1,M,47.9,M,,*5F
'A1',21.00,31.00,4.00,16.00,561.00,$GNGGA,185228.000,4900.5533,N,00825.6251,E,0,0,,102.1,M,47.9,M,,*53
'A1',22.00,33.00,4.00,13.00,562.00,$GNGGA,185239.000,4900.5533,N,00825.6251,E,0,0,,102.1,M,47.9,M,,*53
