


delay(5000); to delay(4000); x 2
AT+GPSRD=2
missed some values












Start...
Resp:

+CREG: 2
----
Resp:
^STN: 37
+CTZV:21/12/13,21:58:09,+01

+CREG: 1

A9/A9G
V02.02.20190915R
Ai_Thinker_Co._Ltd.
READY
----
Init Ready Done!
Resp:

----
Resp:
AT

OK
----
Could not find a valid BME680 sensor, check wiring!
Msg: Could not find a valid BME680 sensor, check wiring!

*****Error No.0
Resp:
AT+CREG=1

OK
----
Msg: Netwoek Set!
Resp:
AT+CREG?

+CREG: 1,1
----
Msg: Network Registered!
Resp:
AT+GPS=1

OK
----
Msg: GPS Set!
Resp:
AT+CGATT=1

+CGATT:1

OK
----
Msg: PS Attached!
Resp:
AT+CGDCONT?

OK
----
Msg: Context Set!
Resp:
AT+CGDCONT=1,"IP","pinternet.interkom.de"

OK
----
Msg: Context Changed!
Resp:
AT+CGACT=1,1

OK
----
Msg: Context Selected!
Resp:
AT+CGACT?

+CGACT: 1, 1
----
Msg: Context is Correct!
Resp:
AT+CIPSTATUS
+CIPSTATUS:
STATE:IP INITIAL
----
Msg: Status INITIAL!
Resp:
AT+CIPSTART="TCP","api.thingspeak.com",80
CONNECT OK
----
Msg: Connected!
Resp:
AT+GPSRD=2

OK
----
Msg: GPS Read Set!
Msg: Getting data from GPS using AT Cmd
Resp:
$GNGGA,000030.264,4900.5216,N,00825.4475,E,0,0,,102.1,M,47.9,M,,*56

$GPGSA,A,1,,,,,,,,,,,,,,,*1E

$BDGSA,A,1,,,,,,,,,,,,,,,*0F

$GPGSV,1,1,00*79

$BDGSV,1,1,00*68

$GNRMC,000030.264,V,4900.5216,N,00825.4475,E,0.000,0.00,060180,,,N*54

$GNVTG,0.00,T,,M,0.000,N,0.000,K,N*2C
---
Msg: Getting data from GPS using AT done
Resp:
AT+GPSRD=0

OK
----
Msg: GPS Read Off!
Msg: Getting data from Sensors
Msg: Failed to perform reading!
Resp:
AT+CIPSEND

>
----
Msg: Send Started!
Resp:
GET https://api.thingspeak.com/update?api_key=AYKVFH212TKGNW2B&field1=8.00&field2=16.00&field3=0.00&field4=24.00&field5=33.00&field6=$GNGGA,000030.264,4900.5216,N,00825.4475,E,0,0,,102.1,M,47.9,M,,*56

----
Resp:

OK



+CIPRCV,3:195
CLOSED
----
Msg: Send Completed!
Resp:
AT+CIPSTATUS
+CIPSTATUS:
STATE:CLOSED
----
Resp:
AT+CIPSTART="TCP","api.thingspeak.com",80
CONNECT OK
----
Msg: Connected!
Resp:
AT+GPSRD=2

OK
----
Msg: GPS Read Set!
Msg: Getting data from GPS using AT Cmd
Resp:
$GNGGA,000045.264,4900.5216,N,00825.4475,E,0,0,,102.1,M,47.9,M,,*54

$GPGSA,A,1,,,,,,,,,,,,,,,*1E

$BDGSA,A,1,,,,,,,,,,,,,,,*0F

$GPGSV,1,1,00*79

$BDGSV,1,1,00*68

$GNRMC,000045.264,V,4900.5216,N,00825.4475,E,0.000,0.00,060180,,,N*56

$GNVTG,0.00,T,,M,0.000,N,0.000,K,N*2C
---
Msg: Getting data from GPS using AT done
Resp:
AT+GPSRD=0

OK
----
Msg: GPS Read Off!
Msg: Getting data from Sensors
Msg: Failed to perform reading!
Resp:
AT+CIPSEND

>
----
Msg: Send Started!
Resp:
GET https://api.thingspeak.com/update?api_key=AYKVFH212TKGNW2B&field1=5.00&field2=14.00&field3=1.00&field4=23.00&field5=33.00&field6=$GNGGA,000045.264,4900.5216,N,00825.4475,E,0,0,,102.1,M,47.9,M,,*54

----
Resp:

OK



+CIPRCV,3:196
CLOSED
----
Msg: Send Completed!
Resp:
AT+CIPSTATUS
+CIPSTATUS:
STATE:CLOSED
----
Resp:
AT+CIPSTART="TCP","api.thingspeak.com",80
CONNECT OK
----
Msg: Connected!
Resp:
AT+GPSRD=2

OK
----
Msg: GPS Read Set!
Msg: Getting data from GPS using AT Cmd
Resp:
$GNGGA,000100.264,4900.5216,N,00825.4475,E,0,0,,102.1,M,47.9,M,,*54

$GPGSA,A,1,,,,,,,,,,,,,,,*1E

$BDGSA,A,1,,,,,,,,,,,,,,,*0F

$GPGSV,1,1,01,05,,,24*7B

$BDGSV,1,1,00*68

$GNRMC,000100.264,V,4900.5216,N,00825.4475,E,0.000,0.00,060180,,,N*56

$GNVTG,0.00,T,,M,0.000,N,0.000,K,N*2C
---
Msg: Getting data from GPS using AT done
Resp:
AT+GPSRD=0

OK
----
Msg: GPS Read Off!
Msg: Getting data from Sensors
Msg: Failed to perform reading!
Resp:
AT+CIPSEND

>
----
Msg: Send Started!
Resp:
GET https://api.thingspeak.com/update?api_key=AYKVFH212TKGNW2B&field1=2.00&field2=17.00&field3=2.00&field4=21.00&field5=31.00&field6=$GNGGA,000100.264,4900.5216,N,00825.4475,E,0,0,,102.1,M,47.9,M,,*54

----
Resp:

OK



+CIPRCV,3:197
CLOSED
----
Msg: Send Completed!
Resp:
AT+CIPSTATUS
+CIPSTATUS:
STATE:CLOSED
----
Resp:
AT+CIPSTART="TCP","api.thingspeak.com",80
CONNECT OK
----
Msg: Connected!
Resp:
AT+GPSRD=2

OK
----
Msg: GPS Read Set!
Msg: Getting data from GPS using AT Cmd
Resp:
$GNGGA,215912.091,4900.5252,N,00825.4493,E,0,1,,127.6,M,47.9,M,,*58

$GPGSA,A,1,05,,,,,,,,,,,,,,*1B

$BDGSA,A,1,,,,,,,,,,,,,,,*0F

$GPGSV,3,1,10,26,76,244,,18,74,117,,16,43,303,,29,29,077,*70

$GPGSV,3,2,10,31,21,207,,27,20,271,,23,19,143,,05,19,045,28*77

$GPGSV,3,3,10,25,04,136,,20,02,024,*79

$BDGSV,1,1,00*68

$GNRMC,215912.091,V,4900.5252,N,00825.4493,E,0.136,45.11,131221,,,N*63

$GNVTG,45.11,T,,M,0.136,N,0.251,K,N*1F
---
Msg: Getting data from GPS using AT done
Resp:
AT+GPSRD=0

OK
----
Msg: GPS Read Off!
Msg: Getting data from Sensors
Msg: Failed to perform reading!
Resp:
AT+CIPSEND

>
----
Msg: Send Started!
Resp:
GET https://api.thingspeak.com/update?api_key=AYKVFH212TKGNW2B&field1=4.00&field2=13.00&field3=3.00&field4=24.00&field5=34.00&field6=$GNGGA,215912.091,4900.5252,N,00825.4493,E,0,1,,127.6,M,47.9,M,,*58

----
Resp:

OK



+CIPRCV,3:198
CLOSED
----
Msg: Send Completed!
Resp:
AT+CIPSTATUS
+CIPSTATUS:
STATE:CLOSED
----
Resp:
AT+CIPSTART="TCP","api.thingspeak.com",80
CONNECT OK
----
Msg: Connected!
Resp:
AT+GPSRD=2

OK
----
Msg: GPS Read Set!
Msg: Getting data from GPS using AT Cmd
Resp:
$GNGGA,215927.000,4900.5209,N,00825.4203,E,1,4,2.77,109.9,M,47.9,M,,*4C

$GPGSA,A,3,05,18,29,23,,,,,,,,,2.93,2.77,0.95*02

$BDGSA,A,3,,,,,,,,,,,,,2.93,2.77,0.95*15

$GPGSV,3,1,11,26,76,244,,18,74,116,20,16,43,303,,39,31,158,*76

$GPGSV,3,2,11,29,29,077,22,31,21,207,,27,20,271,,23,19,143,23*71

$GPGSV,3,3,11,05,19,045,26,25,04,136,16,20,02,024,*47

$BDGSV,1,1,00*68

$GNRMC,215927.000,A,4900.5209,N,00825.4203,E,2.803,268.44,131221,,,A*44

$GNVTG,268.44,T,,M,2.803,N,5.194,K,A*2F
---
Msg: Getting data from GPS using AT done
Resp:
AT+GPSRD=0

OK
----
Msg: GPS Read Off!
Msg: Getting data from Sensors
Msg: Failed to perform reading!
Resp:
AT+CIPSEND

>
----
Msg: Send Started!
Resp:
GET https://api.thingspeak.com/update?api_key=AYKVFH212TKGNW2B&field1=2.00&field2=13.00&field3=4.00&field4=20.00&field5=34.00&field6=$GNGGA,215927.000,4900.5209,N,00825.4203,E,1,4,2.77,109.9,M,47.9,M,,*4C

----
Resp:

OK

+CIPRCV,1:0


CLOSED
----
Msg: Send Completed!
Resp:
AT+CIPSTATUS
+CIPSTATUS:
STATE:CLOSED
----
Resp:
AT+CIPSTART="TCP","api.thingspeak.com",80
CONNECT OK
----
Msg: Connected!
Resp:
AT+GPSRD=2

OK
----
Msg: GPS Read Set!
Msg: Getting data from GPS using AT Cmd
Resp:
$GNGGA,215942.000,4900.5203,N,00825.4223,E,1,4,2.76,110.7,M,47.9,M,,*40

$GPGSA,A,3,05,18,29,23,,,,,,,,,2.92,2.76,0.95*02

$BDGSA,A,3,,,,,,,,,,,,,2.92,2.76,0.95*15

$GPGSV,3,1,11,26,76,243,18,18,74,116,21,16,43,303,,33,29,210,*75

$GPGSV,3,2,11,29,28,077,21,31,21,207,,27,20,271,,23,19,143,25*75

$GPGSV,3,3,11,05,19,045,29,25,04,136,17,20,02,024,*49

$BDGSV,1,1,00*68

$GNRMC,215942.000,A,4900.5203,N,00825.4223,E,1.892,293.00,131221,,,A*40

$GNVTG,293.00,T,,M,1.892,N,3.506,K,A*29
---
Msg: Getting data from GPS using AT done
Resp:
AT+GPSRD=0

OK
----
Msg: GPS Read Off!
Msg: Getting data from Sensors
Msg: Failed to perform reading!
Resp:
AT+CIPSEND

>
----
Msg: Send Started!
Resp:
GET https://api.thingspeak.com/update?api_key=AYKVFH212TKGNW2B&field1=3.00&field2=19.00&field3=5.00&field4=23.00&field5=30.00&field6=$GNGGA,215942.000,4900.5203,N,00825.4223,E,1,4,2.76,110.7,M,47.9,M,,*40

----
Resp:

OK



+CIPRCV,3:199
CLOSED
----
Msg: Send Completed!
Resp:
AT+CIPSTATUS
+CIPSTATUS:
STATE:CLOSED
----
Resp:
AT+CIPSTART="TCP","api.thingspeak.com",80
CONNECT OK
----
Msg: Connected!
Resp:
AT+GPSRD=2

OK
----
Msg: GPS Read Set!
Msg: Getting data from GPS using AT Cmd
Resp:
$GNGGA,215957.000,4900.5214,N,00825.4169,E,1,4,2.76,113.2,M,47.9,M,,*49

$GPGSA,A,3,05,18,29,23,,,,,,,,,2.92,2.76,0.95*02

$BDGSA,A,3,,,,,,,,,,,,,2.92,2.76,0.95*15

$GPGSV,3,1,11,26,76,243,16,18,74,116,18,16,43,303,,29,28,077,19*70

$GPGSV,3,2,11,31,21,207,,27,20,271,,23,19,143,24,05,19,045,26*7E

$GPGSV,3,3,11,44,12,116,,25,04,136,16,20,02,024,*4A

$BDGSV,1,1,00*68

$GNRMC,215957.000,A,4900.5214,N,00825.4169,E,4.304,272.76,131221,,,A*40

$GNVTG,272.76,T,,M,4.304,N,7.975,K,A*2A
---
Msg: Getting data from GPS using AT done
Resp:
AT+GPSRD=0

OK
----
Msg: GPS Read Off!
Msg: Getting data from Sensors
Msg: Failed to perform reading!
Resp:
AT+CIPSEND

>
----
Msg: Send Started!
Resp:
GET https://api.thingspeak.com/update?api_key=AYKVFH212TKGNW2B&field1=9.00&field2=14.00&field3=6.00&field4=23.00&field5=30.00&field6=$GNGGA,215957.000,4900.5214,N,00825.4169,E,1,4,2.76,113.2,M,47.9,M,,*49

----
Resp:

OK



+CIPRCV,3:200
CLOSED
----
Msg: Send Completed!
Resp:
AT+CIPSTATUS
+CIPSTATUS:
STATE:CLOSED
----
Resp:
AT+CIPSTART="TCP","api.thingspeak.com",80
CONNECT OK
----
Msg: Connected!
Resp:
AT+GPSRD=2

OK
----
Msg: GPS Read Set!
Msg: Getting data from GPS using AT Cmd
Resp:
$GNGGA,220012.000,4900.5199,N,00825.4477,E,1,4,2.76,116.4,M,47.9,M,,*48

$GPGSA,A,3,05,18,29,23,,,,,,,,,2.92,2.76,0.95*02

$BDGSA,A,3,,,,,,,,,,,,,2.92,2.76,0.95*15

$GPGSV,3,1,11,26,76,243,14,18,74,116,18,16,43,303,,39,31,158,*7F

$GPGSV,3,2,11,29,28,077,15,31,21,207,,27,20,271,,23,19,143,23*74

$GPGSV,3,3,11,05,19,045,25,25,04,136,14,20,02,024,*46

$BDGSV,1,1,00*68

$GNRMC,220012.000,A,4900.5199,N,00825.4477,E,2.086,95.47,131221,,,A*74

$GNVTG,95.47,T,,M,2.086,N,3.865,K,A*18
---
Msg: Getting data from GPS using AT done
Resp:
AT+GPSRD=0

OK
----
Msg: GPS Read Off!
Msg: Getting data from Sensors
Msg: Failed to perform reading!
Resp:
AT+CIPSEND

>
----
Msg: Send Started!
Resp:
GET https://api.thingspeak.com/update?api_key=AYKVFH212TKGNW2B&field1=9.00&field2=19.00&field3=7.00&field4=23.00&field5=33.00&field6=$GNGGA,220012.000,4900.5199,N,00825.4477,E,1,4,2.76,116.4,M,47.9,M,,*48

----
Resp:

OK

+CIPRCV,1:0


CLOSED
----
Msg: Send Completed!
Resp:
AT+CIPSTATUS
+CIPSTATUS:
STATE:CLOSED
----
Resp:
AT+CIPSTART="TCP","api.thingspeak.com",80
CONNECT OK
----
Msg: Connected!
Resp:
AT+GPSRD=2

OK
----
Msg: GPS Read Set!
Msg: Getting data from GPS using AT Cmd
Resp:
$GNGGA,220027.000,4900.5189,N,00825.4705,E,1,4,2.76,119.8,M,47.9,M,,*4A

$GPGSA,A,3,05,18,29,23,,,,,,,,,2.92,2.76,0.95*02

$BDGSA,A,3,,,,,,,,,,,,,2.92,2.76,0.95*15

$GPGSV,3,1,11,26,76,243,11,18,74,116,18,16,43,303,,33,29,210,*76

$GPGSV,3,2,11,29,28,077,15,31,21,207,,27,20,271,,23,19,143,23*74

$GPGSV,3,3,11,05,19,045,25,25,04,136,13,20,02,024,*41

$BDGSV,1,1,00*68

$GNRMC,220027.000,A,4900.5189,N,00825.4705,E,0.255,83.17,131221,,,A*79

$GNVTG,83.17,T,,M,0.255,N,0.472,K,A*1D
---
Msg: Getting data from GPS using AT done
Resp:
AT+GPSRD=0

OK
----
Msg: GPS Read Off!
Msg: Getting data from Sensors
Msg: Failed to perform reading!
Resp:
AT+CIPSEND

>
----
Msg: Send Started!
Resp:
GET https://api.thingspeak.com/update?api_key=AYKVFH212TKGNW2B&field1=3.00&field2=15.00&field3=8.00&field4=20.00&field5=34.00&field6=$GNGGA,220027.000,4900.5189,N,00825.4705,E,1,4,2.76,119.8,M,47.9,M,,*4A

----
Resp:

OK



+CIPRCV,3:201
CLOSED
----
Msg: Send Completed!
Resp:
AT+CIPSTATUS
+CIPSTATUS:
STATE:CLOSED
----
Resp:
AT+CIPSTART="TCP","api.thingspeak.com",80
CONNECT OK
----
Msg: Connected!
Resp:
AT+GPSRD=2

OK
----
Msg: GPS Read Set!
Msg: Getting data from GPS using AT Cmd
Resp:
$GNGGA,220042.000,4900.5186,N,00825.4594,E,1,4,2.75,121.7,M,47.9,M,,*4B

$GPGSA,A,3,05,18,29,23,,,,,,,,,2.91,2.75,0.95*02

$BDGSA,A,3,,,,,,,,,,,,,2.91,2.75,0.95*15

$GPGSV,3,1,11,26,76,243,,18,74,116,17,16,44,303,,29,28,077,16*70

$GPGSV,3,2,11,31,21,207,,27,20,271,,23,19,143,22,05,19,045,26*78

$GPGSV,3,3,11,44,12,116,,25,04,136,14,20,02,024,*48

$BDGSV,1,1,00*68

$GNRMC,220042.000,A,4900.5186,N,00825.4594,E,2.318,277.26,131221,,,A*4E

$GNVTG,277.26,T,,M,2.318,N,4.296,K,A*24
---
Msg: Getting data from GPS using AT done
Resp:
AT+GPSRD=0

OK
----
Msg: GPS Read Off!
Msg: Getting data from Sensors
Msg: Failed to perform reading!
Resp:
AT+CIPSEND

>
----
Msg: Send Started!
Resp:
GET https://api.thingspeak.com/update?api_key=AYKVFH212TKGNW2B&field1=7.00&field2=10.00&field3=9.00&field4=23.00&field5=32.00&field6=$GNGGA,220042.000,4900.5186,N,00825.4594,E,1,4,2.75,121.7,M,47.9,M,,*4B

----
Resp:

OK



+CIPRCV,1:0
CLOSED
----
Msg: Send Completed!
Resp:
AT+CIPSTATUS
+CIPSTATUS:
STATE:CLOSED
----
Resp:
AT+CIPSTART="TCP","api.thingspeak.com",80
CONNECT OK
----
Msg: Connected!
Resp:
AT+GPSRD=2

OK
----
Msg: GPS Read Set!
Msg: Getting data from GPS using AT Cmd
Resp:
$GNGGA,220057.000,4900.5200,N,00825.4440,E,1,4,2.75,117.6,M,47.9,M,,*4E

$GPGSA,A,3,05,18,29,23,,,,,,,,,2.91,2.75,0.95*02

$BDGSA,A,3,,,,,,,,,,,,,2.91,2.75,0.95*15

$GPGSV,3,1,11,26,76,240,,18,74,114,16,16,44,303,,29,28,077,17*71

$GPGSV,3,2,11,31,21,206,,27,20,271,,23,19,143,25,05,19,045,27*7F

$GPGSV,3,3,11,25,04,136,14,20,01,024,,35,,,*78

$BDGSV,1,1,00*68

$GNRMC,220057.000,A,4900.5200,N,00825.4440,E,2.475,275.01,131221,,,A*44

$GNVTG,275.01,T,,M,2.475,N,4.586,K,A*29
---
Msg: Getting data from GPS using AT done
Resp:
AT+GPSRD=0

OK
----
Msg: GPS Read Off!
Msg: Getting data from Sensors
Msg: Failed to perform reading!
Resp:
AT+CIPSEND

>
----
Msg: Send Started!
Resp:
GET https://api.thingspeak.com/update?api_key=AYKVFH212TKGNW2B&field1=3.00&field2=17.00&field3=10.00&field4=21.00&field5=32.00&field6=$GNGGA,220057.000,4900.5200,N,00825.4440,E,1,4,2.75,117.6,M,47.9,M,,*4E

----
Resp:

OK



+CIPRCV,3:202
CLOSED
----
Msg: Send Completed!
Resp:
AT+CIPSTATUS
+CIPSTATUS:
STATE:CLOSED
----
Resp:
AT+CIPSTART="TCP","api.thingspeak.com",80
CONNECT OK
----
Msg: Connected!
Resp:
AT+GPSRD=2

OK
----
Msg: GPS Read Set!
Msg: Getting data from GPS using AT Cmd
Resp:
$GNGGA,220112.000,4900.5216,N,00825.4321,E,1,4,2.75,114.8,M,47.9,M,,*44

$GPGSA,A,3,05,18,29,23,,,,,,,,,2.91,2.75,0.95*02

$BDGSA,A,3,,,,,,,,,,,,,2.91,2.75,0.95*15

$GPGSV,3,1,11,26,76,240,,18,74,114,16,16,44,303,,29,28,077,12*74

$GPGSV,3,2,11,31,21,206,,27,20,271,,23,19,143,26,05,19,045,27*7C

$GPGSV,3,3,11,25,04,136,15,20,01,024,,38,,,*74

$BDGSV,1,1,00*68

$GNRMC,220112.000,A,4900.5216,N,00825.4321,E,4.005,276.23,131221,,,A*45

$GNVTG,276.23,T,,M,4.005,N,7.421,K,A*20
---
Msg: Getting data from GPS using AT done
Resp:
AT+GPSRD=0

OK
----
Msg: GPS Read Off!
Msg: Getting data from Sensors
Msg: Failed to perform reading!
Resp:
AT+CIPSEND

>
----
Msg: Send Started!
Resp:
GET https://api.thingspeak.com/update?api_key=AYKVFH212TKGNW2B&field1=8.00&field2=14.00&field3=11.00&field4=20.00&field5=32.00&field6=$GNGGA,220112.000,4900.5216,N,00825.4321,E,1,4,2.75,114.8,M,47.9,M,,*44

----
Resp:

OK



+CIPRCV,3:203
CLOSED
----
Msg: Send Completed!
Resp:
AT+CIPSTATUS
+CIPSTATUS:
STATE:CLOSED
----
Resp:
AT+CIPSTART="TCP","api.thingspeak.com",80
CONNECT OK
----
Msg: Connected!
Resp:
AT+GPSRD=2

OK
----
Msg: GPS Read Set!
Msg: Getting data from GPS using AT Cmd
Resp:
$GNGGA,220127.000,4900.5230,N,00825.4021,E,1,4,3.48,114.2,M,47.9,M,,*40

$GPGSA,A,3,05,18,25,23,,,,,,,,,3.62,3.48,1.00*01

$BDGSA,A,3,,,,,,,,,,,,,3.62,3.48,1.00*1A

$GPGSV,3,1,10,26,76,240,,18,74,114,13,16,44,303,,29,28,077,*73

$GPGSV,3,2,10,31,21,206,,27,20,271,,23,19,143,25,05,19,045,26*7F

$GPGSV,3,3,10,25,04,136,15,20,01,024,*7E

$BDGSV,1,1,00*68

$GNRMC,220127.000,A,4900.5230,N,00825.4021,E,6.643,275.86,131221,,,A*4E

$GNVTG,275.86,T,,M,6.643,N,12.309,K,A*13
---
Msg: Getting data from GPS using AT done
Resp:
AT+GPSRD=0

OK
----
Msg: GPS Read Off!
Msg: Getting data from Sensors
Msg: Failed to perform reading!
Resp:
AT+CIPSEND

>
----
Msg: Send Started!
Resp:
GET https://api.thingspeak.com/update?api_key=AYKVFH212TKGNW2B&field1=7.00&field2=11.00&field3=12.00&field4=24.00&field5=32.00&field6=$GNGGA,220127.000,4900.5230,N,00825.4021,E,1,4,3.48,114.2,M,47.9,M,,*40

----
Resp:

OK



+CIPRCV,1:0
CLOSED
----
Msg: Send Completed!
Resp:
AT+CIPSTATUS
+CIPSTATUS:
STATE:CLOSED
----
Resp:
AT+CIPSTART="TCP","api.thingspeak.com",80
CONNECT OK
----
Msg: Connected!
Resp:
AT+GPSRD=2

OK
----
Msg: GPS Read Set!
Msg: Getting data from GPS using AT Cmd
Resp:
$GNGGA,220142.000,4900.5225,N,00825.3934,E,1,4,5.19,113.9,M,47.9,M,,*43

$GPGSA,A,3,05,29,25,23,,,,,,,,,5.28,5.19,0.97*06

$BDGSA,A,3,,,,,,,,,,,,,5.28,5.19,0.97*1F

$GPGSV,3,1,11,26,76,240,,18,74,114,,16,44,303,,29,28,077,17*76

$GPGSV,3,2,11,31,21,206,,27,20,271,,23,19,143,26,05,19,045,27*7C

$GPGSV,3,3,11,25,04,136,15,20,01,024,,43,,,*78

$BDGSV,1,1,00*68

$GNRMC,220142.000,A,4900.5225,N,00825.3934,E,4.695,282.04,131221,,,A*48

$GNVTG,282.04,T,,M,4.695,N,8.701,K,A*2F
---
Msg: Getting data from GPS using AT done
Resp:
AT+GPSRD=0

OK
----
Msg: GPS Read Off!
Msg: Getting data from Sensors
Msg: Failed to perform reading!
Resp:
AT+CIPSEND

>
----
Msg: Send Started!
Resp:
GET https://api.thingspeak.com/update?api_key=AYKVFH212TKGNW2B&field1=9.00&field2=18.00&field3=13.00&field4=23.00&field5=31.00&field6=$GNGGA,220142.000,4900.5225,N,00825.3934,E,1,4,5.19,113.9,M,47.9,M,,*43

----
Resp:

OK



+CIPRCV,3:204
CLOSED
----
Msg: Send Completed!
Resp:
AT+CIPSTATUS
+CIPSTATUS:
STATE:CLOSED
----
Resp:
AT+CIPSTART="TCP","api.thingspeak.com",80
CONNECT OK
----
Msg: Connected!
Resp:
AT+GPSRD=2

OK
----
Msg: GPS Read Set!
Msg: Getting data from GPS using AT Cmd
Resp:
$GNGGA,220157.000,4900.5216,N,00825.4359,E,1,4,5.17,114.1,M,47.9,M,,*40

$GPGSA,A,3,05,29,25,23,,,,,,,,,5.26,5.17,0.97*06

$BDGSA,A,3,,,,,,,,,,,,,5.26,5.17,0.97*1F

$GPGSV,3,1,11,26,76,240,,18,74,114,,16,44,303,,29,28,077,16*77

$GPGSV,3,2,11,31,21,206,,27,20,271,,23,19,143,26,05,19,044,26*7C

$GPGSV,3,3,11,25,04,136,12,20,01,024,,10,01,166,*49

$BDGSV,1,1,00*68

$GNRMC,220157.000,A,4900.5216,N,00825.4359,E,4.201,90.78,131221,,,A*79

$GNVTG,90.78,T,,M,4.201,N,7.785,K,A*1F
---
Msg: Getting data from GPS using AT done
Resp:
AT+GPSRD=0

OK
----
Msg: GPS Read Off!
Msg: Getting data from Sensors
Msg: Failed to perform reading!
Resp:
AT+CIPSEND

>
----
Msg: Send Started!
Resp:
GET https://api.thingspeak.com/update?api_key=AYKVFH212TKGNW2B&field1=8.00&field2=15.00&field3=14.00&field4=21.00&field5=30.00&field6=$GNGGA,220157.000,4900.5216,N,00825.4359,E,1,4,5.17,114.1,M,47.9,M,,*40

----
Resp:

OK



+CIPRCV,1:0
CLOSED
----
Msg: Send Completed!
Resp:
AT+CIPSTATUS
+CIPSTATUS:
STATE:CLOSED
----
Resp:
AT+CIPSTART="TCP","api.thingspeak.com",80
CONNECT OK
----
Msg: Connected!
Resp:
AT+GPSRD=2

OK
----
Msg: GPS Read Set!
Msg: Getting data from GPS using AT Cmd
Resp:
$GNGGA,220212.000,4900.5208,N,00825.4813,E,1,3,5.33,113.4,M,47.9,M,,*4B

$GPGSA,A,2,05,29,23,,,,,,,,,,5.43,5.33,1.00*0A

$BDGSA,A,2,,,,,,,,,,,,,5.43,5.33,1.00*14

$GPGSV,3,1,11,26,76,238,,18,74,112,,16,45,303,,29,27,078,16*7F

$GPGSV,3,2,11,27,21,272,,31,21,206,,23,20,143,26,05,19,044,26*74

$GPGSV,3,3,11,25,03,136,,20,01,024,,10,01,166,*4D

$BDGSV,1,1,00*68

$GNRMC,220212.000,A,4900.5208,N,00825.4813,E,4.087,89.42,131221,,,A*7C

$GNVTG,89.42,T,,M,4.087,N,7.574,K,A*1E
---
Msg: Getting data from GPS using AT done
Resp:
AT+GPSRD=0

OK
----
Msg: GPS Read Off!
Msg: Getting data from Sensors
Msg: Failed to perform reading!
Resp:
AT+CIPSEND

>
----
Msg: Send Started!
Resp:
GET https://api.thingspeak.com/update?api_key=AYKVFH212TKGNW2B&field1=5.00&field2=17.00&field3=15.00&field4=24.00&field5=33.00&field6=$GNGGA,220212.000,4900.5208,N,00825.4813,E,1,3,5.33,113.4,M,47.9,M,,*4B

----
Resp:

OK

+CIPRCV,3:205


CLOSED
----
Msg: Send Completed!
Resp:
AT+CIPSTATUS
+CIPSTATUS:
STATE:CLOSED
----
Resp:
AT+CIPSTART="TCP","api.thingspeak.com",80
CONNECT OK
----
Msg: Connected!
Resp:
AT+GPSRD=2

OK
----
Msg: GPS Read Set!
Msg: Getting data from GPS using AT Cmd
Resp:
$GNGGA,220227.000,4900.5206,N,00825.4848,E,1,3,5.30,112.9,M,47.9,M,,*42

$GPGSA,A,2,05,29,23,,,,,,,,,,5.39,5.30,1.00*04

$BDGSA,A,2,,,,,,,,,,,,,5.39,5.30,1.00*1A

$GPGSV,3,1,11,26,76,238,,18,74,112,,16,45,303,,29,27,078,16*7F

$GPGSV,3,2,11,27,21,272,,23,20,143,25,31,20,206,,05,19,044,26*76

$GPGSV,3,3,11,25,03,136,,20,01,024,,10,01,166,*4D

$BDGSV,1,1,00*68

$GNRMC,220227.000,A,4900.5206,N,00825.4848,E,0.823,71.28,131221,,,A*73

$GNVTG,71.28,T,,M,0.823,N,1.525,K,A*15
---
Msg: Getting data from GPS using AT done
Resp:
AT+GPSRD=0

OK
----
Msg: GPS Read Off!
Msg: Getting data from Sensors
Msg: Failed to perform reading!
Resp:
AT+CIPSEND

>
----
Msg: Send Started!
Resp:
GET https://api.thingspeak.com/update?api_key=AYKVFH212TKGNW2B&field1=7.00&field2=11.00&field3=16.00&field4=20.00&field5=31.00&field6=$GNGGA,220227.000,4900.5206,N,00825.4848,E,1,3,5.30,112.9,M,47.9,M,,*42

----
Resp:

OK



+CIPRCV,3:206
CLOSED
----
Msg: Send Completed!
Resp:
AT+CIPSTATUS
+CIPSTATUS:
STATE:CLOSED
----
Resp:
AT+CIPSTART="TCP","api.thingspeak.com",80
CONNECT OK
----
Msg: Connected!
Resp:
AT+GPSRD=2

OK
----
Msg: GPS Read Set!
Msg: Getting data from GPS using AT Cmd
Resp:
$GNGGA,220242.000,4900.5207,N,00825.4854,E,1,3,5.26,112.4,M,47.9,M,,*47

$GPGSA,A,2,05,29,23,,,,,,,,,,5.35,5.26,1.00*0F

$BDGSA,A,2,,,,,,,,,,,,,5.35,5.26,1.00*11

$GPGSV,3,1,11,26,76,238,,18,74,112,,16,45,303,17,29,27,078,20*7C

$GPGSV,3,2,11,27,21,272,,23,20,143,26,31,20,206,,05,19,044,27*74

$GPGSV,3,3,11,25,03,136,,20,01,024,,10,01,166,*4D

$BDGSV,1,1,00*68

$GNRMC,220242.000,A,4900.5207,N,00825.4854,E,0.499,298.65,131221,,,A*4D

$GNVTG,298.65,T,,M,0.499,N,0.925,K,A*29
---
Msg: Getting data from GPS using AT done
Resp:
AT+GPSRD=0

OK
----
Msg: GPS Read Off!
Msg: Getting data from Sensors
Msg: Failed to perform reading!
Resp:
AT+CIPSEND

>
----
Msg: Send Started!
Resp:
GET https://api.thingspeak.com/update?api_key=AYKVFH212TKGNW2B&field1=5.00&field2=15.00&field3=17.00&field4=20.00&field5=31.00&field6=$GNGGA,220242.000,4900.5207,N,00825.4854,E,1,3,5.26,112.4,M,47.9,M,,*47

----
Resp:

OK



+CIPRCV,1:0
CLOSED
----
Msg: Send Completed!
Resp:
AT+CIPSTATUS
+CIPSTATUS:
STATE:CLOSED
----
Resp:
AT+CIPSTART="TCP","api.thingspeak.com",80
CONNECT OK
----
Msg: Connected!
Resp:
AT+GPSRD=2

OK
----
Msg: GPS Read Set!
Msg: Getting data from GPS using AT Cmd
Resp:
$GNGGA,220257.000,4900.5209,N,00825.4859,E,1,3,5.23,112.2,M,47.9,M,,*43

$GPGSA,A,2,05,29,23,,,,,,,,,,5.33,5.23,1.00*0C

$BDGSA,A,2,,,,,,,,,,,,,5.33,5.23,1.00*12

$GPGSV,3,1,11,26,76,238,,18,74,112,,16,45,303,16,29,27,078,19*77

$GPGSV,3,2,11,27,21,272,,23,20,143,26,31,20,206,,05,19,044,25*76

$GPGSV,3,3,11,25,03,136,,20,01,024,,10,01,166,*4D

$BDGSV,1,1,00*68

$GNRMC,220257.000,A,4900.5209,N,00825.4859,E,0.388,166.85,131221,,,A*41

$GNVTG,166.85,T,,M,0.388,N,0.720,K,A*29
---
Msg: Getting data from GPS using AT done
Resp:
AT+GPSRD=0

OK
----
Msg: GPS Read Off!
Msg: Getting data from Sensors
Msg: Failed to perform reading!
Resp:
AT+CIPSEND

>
----
Msg: Send Started!
Resp:
GET https://api.thingspeak.com/update?api_key=AYKVFH212TKGNW2B&field1=2.00&field2=15.00&field3=18.00&field4=21.00&field5=32.00&field6=$GNGGA,220257.000,4900.5209,N,00825.4859,E,1,3,5.23,112.2,M,47.9,M,,*43

----
Resp:

OK



+CIPRCV,3:207
CLOSED
----
Msg: Send Completed!
Resp:
AT+CIPSTATUS
+CIPSTATUS:
STATE:CLOSED
----
Resp:
AT+CIPSTART="TCP","api.thingspeak.com",80
CONNECT OK
----
Msg: Connected!
Resp:
AT+GPSRD=2

OK
----
Msg: GPS Read Set!
Msg: Getting data from GPS using AT Cmd
Resp:
$GNGGA,220312.000,4900.5210,N,00825.4859,E,1,3,5.19,112.5,M,47.9,M,,*45

$GPGSA,A,2,05,29,23,,,,,,,,,,5.29,5.19,1.00*0E

$BDGSA,A,2,,,,,,,,,,,,,5.29,5.19,1.00*10

$GPGSV,3,1,11,26,76,238,,18,74,112,,16,45,303,16,29,27,078,19*77

$GPGSV,3,2,11,27,21,272,,23,20,143,25,31,20,206,,05,19,044,24*74

$GPGSV,3,3,11,25,03,136,,20,01,024,,10,01,166,*4D

$BDGSV,1,1,00*68

$GNRMC,220312.000,A,4900.5210,N,00825.4859,E,0.615,294.35,131221,,,A*4D

$GNVTG,294.35,T,,M,0.615,N,1.139,K,A*22
---
Msg: Getting data from GPS using AT done
Resp:
AT+GPSRD=0

OK
----
Msg: GPS Read Off!
Msg: Getting data from Sensors
Msg: Failed to perform reading!
Resp:
AT+CIPSEND

>
----
Msg: Send Started!
Resp:
GET https://api.thingspeak.com/update?api_key=AYKVFH212TKGNW2B&field1=5.00&field2=13.00&field3=19.00&field4=21.00&field5=33.00&field6=$GNGGA,220312.000,4900.5210,N,00825.4859,E,1,3,5.19,112.5,M,47.9,M,,*45

----
Resp:

OK

+CIPRCV,1:0


CLOSED
----
Msg: Send Completed!
Resp:
AT+CIPSTATUS
+CIPSTATUS:
STATE:CLOSED
----
Resp:
AT+CIPSTART="TCP","api.thingspeak.com",80
CONNECT OK
----
Msg: Connected!
Resp:
AT+GPSRD=2

OK
----
Msg: GPS Read Set!
Msg: Getting data from GPS using AT Cmd
Resp:
$GNGGA,220327.000,4900.5214,N,00825.4854,E,1,3,5.16,112.3,M,47.9,M,,*43

$GPGSA,A,2,05,29,23,,,,,,,,,,5.25,5.16,1.00*0D

$BDGSA,A,2,,,,,,,,,,,,,5.25,5.16,1.00*13

$GPGSV,3,1,11,26,76,235,,18,74,109,,16,45,303,14,29,27,078,19*72

$GPGSV,3,2,11,27,21,272,,23,20,142,26,31,20,206,,05,19,044,22*70

$GPGSV,3,3,11,25,03,136,,20,01,024,,10,01,166,*4D

$BDGSV,1,1,00*68

$GNRMC,220327.000,A,4900.5214,N,00825.4854,E,0.436,303.95,131221,,,A*44

$GNVTG,303.95,T,,M,0.436,N,0.807,K,A*21
---
Msg: Getting data from GPS using AT done
Resp:
AT+GPSRD=0

OK
----
Msg: GPS Read Off!
Msg: Getting data from Sensors
Msg: Failed to perform reading!
Resp:
AT+CIPSEND

>
----
Msg: Send Started!
Resp:
GET https://api.thingspeak.com/update?api_key=AYKVFH212TKGNW2B&field1=5.00&field2=18.00&field3=20.00&field4=22.00&field5=33.00&field6=$GNGGA,220327.000,4900.5214,N,00825.4854,E,1,3,5.16,112.3,M,47.9,M,,*43

----
Resp:

OK



+CIPRCV,3:208
CLOSED
----
Msg: Send Completed!
Resp:
AT+CIPSTATUS
+CIPSTATUS:
STATE:CLOSED
----
Resp:
AT+CIPSTART="TCP","api.thingspeak.com",80
CONNECT OK
----
Msg: Connected!
Resp:
AT+GPSRD=2

OK
----
Msg: GPS Read Set!
Msg: Getting data from GPS using AT Cmd
Resp:
$GNGGA,220342.000,4900.5220,N,00825.4852,E,1,3,5.13,112.3,M,47.9,M,,*44

$GPGSA,A,2,05,29,23,,,,,,,,,,5.22,5.13,1.00*0F

$BDGSA,A,2,,,,,,,,,,,,,5.22,5.13,1.00*11

$GPGSV,3,1,11,26,76,235,,18,74,109,,16,45,303,15,29,27,078,19*73

$GPGSV,3,2,11,27,21,272,,23,20,142,24,31,20,206,,05,19,044,20*70

$GPGSV,3,3,11,25,03,136,,20,01,024,,10,01,166,*4D

$BDGSV,1,1,00*68

$GNRMC,220342.000,A,4900.5220,N,00825.4852,E,0.815,336.74,131221,,,A*42

$GNVTG,336.74,T,,M,0.815,N,1.511,K,A*2E
---
Msg: Getting data from GPS using AT done
Resp:
AT+GPSRD=0

OK
----
Msg: GPS Read Off!
Msg: Getting data from Sensors
Msg: Failed to perform reading!
Resp:
AT+CIPSEND

>
----
Msg: Send Started!
Resp:
GET https://api.thingspeak.com/update?api_key=AYKVFH212TKGNW2B&field1=2.00&field2=11.00&field3=21.00&field4=22.00&field5=32.00&field6=$GNGGA,220342.000,4900.5220,N,00825.4852,E,1,3,5.13,112.3,M,47.9,M,,*44

----
Resp:

OK



+CIPRCV,1:0
CLOSED
----
Msg: Send Completed!
Resp:
AT+CIPSTATUS
+CIPSTATUS:
STATE:CLOSED
----
Resp:
AT+CIPSTART="TCP","api.thingspeak.com",80
CONNECT OK
----
Msg: Connected!
Resp:
AT+GPSRD=2

OK
----
Msg: GPS Read Set!
Msg: Getting data from GPS using AT Cmd
Resp:
$GNGGA,220357.000,4900.5221,N,00825.4850,E,1,3,5.09,112.3,M,47.9,M,,*48

$GPGSA,A,2,05,29,23,,,,,,,,,,5.19,5.09,1.00*0C

$BDGSA,A,2,,,,,,,,,,,,,5.19,5.09,1.00*12

$GPGSV,3,1,11,26,76,235,,18,74,109,,16,45,303,14,29,27,078,19*72

$GPGSV,3,2,11,27,21,272,,23,20,142,25,31,20,206,,05,19,044,18*7A

$GPGSV,3,3,11,25,03,136,,20,01,024,,10,01,166,*4D

$BDGSV,1,1,00*68

$GNRMC,220357.000,A,4900.5221,N,00825.4850,E,0.412,289.48,131221,,,A*44

$GNVTG,289.48,T,,M,0.412,N,0.763,K,A*29
---
Msg: Getting data from GPS using AT done
Resp:
AT+GPSRD=0

OK
----
Msg: GPS Read Off!
Msg: Getting data from Sensors
Msg: Failed to perform reading!
Resp:
AT+CIPSEND

>
----
Msg: Send Started!
Resp:
GET https://api.thingspeak.com/update?api_key=AYKVFH212TKGNW2B&field1=2.00&field2=18.00&field3=22.00&field4=23.00&field5=31.00&field6=$GNGGA,220357.000,4900.5221,N,00825.4850,E,1,3,5.09,112.3,M,47.9,M,,*48

----
Resp:

OK



+CIPRCV,3:209
CLOSED
----
Msg: Send Completed!
Resp:
AT+CIPSTATUS
+CIPSTATUS:
STATE:CLOSED
----
Resp:
AT+CIPSTART="TCP","api.thingspeak.com",80
CONNECT OK
----
Msg: Connected!
Resp:
AT+GPSRD=2

OK
----
Msg: GPS Read Set!
Msg: Getting data from GPS using AT Cmd
Resp:
$GNGGA,220412.000,4900.5222,N,00825.4848,E,1,3,5.06,112.3,M,47.9,M,,*4B

$GPGSA,A,2,05,29,23,,,,,,,,,,5.16,5.06,1.00*0C

$BDGSA,A,2,,,,,,,,,,,,,5.16,5.06,1.00*12

$GPGSV,3,1,11,26,76,235,17,18,74,109,,16,45,303,16,29,27,078,18*77

$GPGSV,3,2,11,27,21,272,,23,20,142,25,31,20,206,,05,19,044,17*75

$GPGSV,3,3,11,25,03,136,,20,01,024,,10,01,166,*4D

$BDGSV,1,1,00*68

$GNRMC,220412.000,A,4900.5222,N,00825.4848,E,0.446,318.99,131221,,,A*4C

$GNVTG,318.99,T,,M,0.446,N,0.826,K,A*23
---
Msg: Getting data from GPS using AT done
Resp:
AT+GPSRD=0

OK
----
Msg: GPS Read Off!
Msg: Getting data from Sensors
Msg: Failed to perform reading!
Resp:
AT+CIPSEND

>
----
Msg: Send Started!
Resp:
GET https://api.thingspeak.com/update?api_key=AYKVFH212TKGNW2B&field1=8.00&field2=17.00&field3=23.00&field4=23.00&field5=32.00&field6=$GNGGA,220412.000,4900.5222,N,00825.4848,E,1,3,5.06,112.3,M,47.9,M,,*4B

----
Resp:

OK



+CIPRCV,3:210
CLOSED
----
Msg: Send Completed!
Resp:
AT+CIPSTATUS
+CIPSTATUS:
STATE:CLOSED
----
Resp:
AT+CIPSTART="TCP","api.thingspeak.com",80
CONNECT OK
----
Msg: Connected!
Resp:
AT+GPSRD=2

OK
----
Msg: GPS Read Set!
Msg: Getting data from GPS using AT Cmd
Resp:
$GNGGA,220427.000,4900.5223,N,00825.4845,E,1,3,5.03,112.1,M,47.9,M,,*46

$GPGSA,A,2,05,29,23,,,,,,,,,,5.13,5.03,1.00*0C

$BDGSA,A,2,,,,,,,,,,,,,5.13,5.03,1.00*12

$GPGSV,3,1,11,26,76,235,17,18,74,109,,16,45,303,18,29,27,078,18*79

$GPGSV,3,2,11,27,21,272,,23,20,142,24,31,20,206,,05,18,043,18*7D

$GPGSV,3,3,11,25,03,136,,10,02,166,,20,01,024,*4E

$BDGSV,1,1,00*68

$GNRMC,220427.000,A,4900.5223,N,00825.4845,E,0.296,321.83,131221,,,A*4C

$GNVTG,321.83,T,,M,0.296,N,0.548,K,A*2C
---
Msg: Getting data from GPS using AT done
Resp:
AT+GPSRD=0

OK
----
Msg: GPS Read Off!
Msg: Getting data from Sensors
Msg: Failed to perform reading!
Resp:
AT+CIPSEND

>
----
Msg: Send Started!
Resp:
GET https://api.thingspeak.com/update?api_key=AYKVFH212TKGNW2B&field1=3.00&field2=17.00&field3=24.00&field4=22.00&field5=34.00&field6=$GNGGA,220427.000,4900.5223,N,00825.4845,E,1,3,5.03,112.1,M,47.9,M,,*46

----
Resp:

OK

+CIPRCV,3:211


CLOSED
----
Msg: Send Completed!
Resp:
AT+CIPSTATUS
+CIPSTATUS:
STATE:CLOSED
----
Resp:
AT+CIPSTART="TCP","api.thingspeak.com",80
CONNECT OK
----
Msg: Connected!
Resp:
AT+GPSRD=2

OK
----
Msg: GPS Read Set!
Msg: Getting data from GPS using AT Cmd
Resp:
$GNGGA,220442.000,4900.5226,N,00825.4846,E,1,4,4.87,112.0,M,47.9,M,,*48

$GPGSA,A,3,05,29,25,23,,,,,,,,,4.97,4.87,0.97*05

$BDGSA,A,3,,,,,,,,,,,,,4.97,4.87,0.97*1C

$GPGSV,3,1,11,26,76,235,17,18,74,107,,16,46,303,18,29,27,078,16*7A

$GPGSV,3,2,11,23,21,142,24,27,21,272,,31,20,206,,05,18,043,19*7D

$GPGSV,3,3,11,25,02,137,13,10,02,166,,46,,,*7B

$BDGSV,1,1,00*68

$GNRMC,220442.000,A,4900.5226,N,00825.4846,E,0.687,317.84,131221,,,A*4F

$GNVTG,317.84,T,,M,0.687,N,1.272,K,A*25
---
Msg: Getting data from GPS using AT done
Resp:
AT+GPSRD=0

OK
----
Msg: GPS Read Off!
Msg: Getting data from Sensors
Msg: Failed to perform reading!
Resp:
AT+CIPSEND

>
----
Msg: Send Started!
Resp:
GET https://api.thingspeak.com/update?api_key=AYKVFH212TKGNW2B&field1=3.00&field2=10.00&field3=25.00&field4=20.00&field5=31.00&field6=$GNGGA,220442.000,4900.5226,N,00825.4846,E,1,4,4.87,112.0,M,47.9,M,,*48

----
Resp:

OK



+CIPRCV,1:0
CLOSED
----
Msg: Send Completed!
Resp:
AT+CIPSTATUS
+CIPSTATUS:
STATE:CLOSED
----
Resp:
AT+CIPSTART="TCP","api.thingspeak.com",80
CONNECT OK
----
Msg: Connected!
Resp:
AT+GPSRD=2

OK
----
Msg: GPS Read Set!
Msg: Getting data from GPS using AT Cmd
Resp:
$GNGGA,220457.000,4900.5199,N,00825.4719,E,1,4,4.86,111.9,M,47.9,M,,*45

$GPGSA,A,3,05,29,25,23,,,,,,,,,4.95,4.86,0.97*06

$BDGSA,A,3,,,,,,,,,,,,,4.95,4.86,0.97*1F

$GPGSV,3,1,11,26,76,232,15,18,74,107,,16,46,303,17,29,26,078,18*7F

$GPGSV,3,2,11,27,22,272,,23,21,142,24,31,19,206,,05,18,043,21*7F

$GPGSV,3,3,11,25,02,137,12,10,02,166,,49,,,*75

$BDGSV,1,1,00*68

$GNRMC,220457.000,A,4900.5199,N,00825.4719,E,1.813,282.65,131221,,,A*49

$GNVTG,282.65,T,,M,1.813,N,3.360,K,A*25
---
Msg: Getting data from GPS using AT done
Resp:
AT+GPSRD=0

OK
----
Msg: GPS Read Off!
Msg: Getting data from Sensors
Msg: Failed to perform reading!
Resp:
AT+CIPSEND

>
----
Msg: Send Started!
Resp:
GET https://api.thingspeak.com/update?api_key=AYKVFH212TKGNW2B&field1=8.00&field2=18.00&field3=26.00&field4=24.00&field5=34.00&field6=$GNGGA,220457.000,4900.5199,N,00825.4719,E,1,4,4.86,111.9,M,47.9,M,,*45

----
Resp:

OK



+CIPRCV,3:212
CLOSED
----
Msg: Send Completed!
Resp:
AT+CIPSTATUS
+CIPSTATUS:
STATE:CLOSED
----
Resp:
AT+CIPSTART="TCP","api.thingspeak.com",80
CONNECT OK
----
Msg: Connected!
Resp:
AT+GPSRD=2

OK
----
Msg: GPS Read Set!
Msg: Getting data from GPS using AT Cmd
Resp:
$GNGGA,220512.000,4900.5216,N,00825.4580,E,1,4,4.82,111.8,M,47.9,M,,*46

$GPGSA,A,3,05,29,25,23,,,,,,,,,4.92,4.82,0.97*05

$BDGSA,A,3,,,,,,,,,,,,,4.92,4.82,0.97*1C

$GPGSV,3,1,11,26,76,232,13,18,74,107,,16,46,303,15,39,31,158,*76

$GPGSV,3,2,11,29,26,078,18,27,22,272,,23,21,142,22,31,19,206,*78

$GPGSV,3,3,11,05,18,043,20,25,02,137,13,10,02,166,*40

$BDGSV,1,1,00*68

$GNRMC,220512.000,A,4900.5216,N,00825.4580,E,1.649,278.00,131221,,,A*48

$GNVTG,278.00,T,,M,1.649,N,3.056,K,A*24
---
Msg: Getting data from GPS using AT done
Resp:
AT+GPSRD=0

OK
----
Msg: GPS Read Off!
Msg: Getting data from Sensors
Msg: Failed to perform reading!
Resp:
AT+CIPSEND

>
----
Msg: Send Started!
Resp:
GET https://api.thingspeak.com/update?api_key=AYKVFH212TKGNW2B&field1=4.00&field2=17.00&field3=27.00&field4=21.00&field5=34.00&field6=$GNGGA,220512.000,4900.5216,N,00825.4580,E,1,4,4.82,111.8,M,47.9,M,,*46

----
Resp:

OK

+CIPRCV,3:213


CLOSED
----
Msg: Send Completed!
Resp:
AT+CIPSTATUS
+CIPSTATUS:
STATE:CLOSED
----
Resp:
AT+CIPSTART="TCP","api.thingspeak.com",80
CONNECT OK
----
Msg: Connected!
Resp:
AT+GPSRD=2

OK
----
Msg: GPS Read Set!
Msg: Getting data from GPS using AT Cmd
Resp:
$GNGGA,220527.000,4900.5231,N,00825.4295,E,1,4,2.70,111.5,M,47.9,M,,*40

$GPGSA,A,3,05,18,29,23,,,,,,,,,2.87,2.70,0.95*00

$BDGSA,A,3,,,,,,,,,,,,,2.87,2.70,0.95*17

$GPGSV,3,1,11,26,76,232,14,18,74,107,15,16,46,303,14,29,26,078,20*72

$GPGSV,3,2,11,27,22,272,,23,21,142,23,31,19,206,,05,18,043,21*78

$GPGSV,3,3,11,40,13,117,,25,02,137,,10,02,166,*4A

$BDGSV,1,1,00*68

$GNRMC,220527.000,A,4900.5231,N,00825.4295,E,3.782,277.66,131221,,,A*43

$GNVTG,277.66,T,,M,3.782,N,7.007,K,A*2F
---
Msg: Getting data from GPS using AT done
Resp:
AT+GPSRD=0

OK
----
Msg: GPS Read Off!
Msg: Getting data from Sensors
Msg: Failed to perform reading!
Resp:
AT+CIPSEND

>
----
Msg: Send Started!
Resp:
GET https://api.thingspeak.com/update?api_key=AYKVFH212TKGNW2B&field1=8.00&field2=14.00&field3=28.00&field4=20.00&field5=34.00&field6=$GNGGA,220527.000,4900.5231,N,00825.4295,E,1,4,2.70,111.5,M,47.9,M,,*40

----
Resp:

OK



+CIPRCV,1:0
CLOSED
----
Msg: Send Completed!
Resp:
AT+CIPSTATUS
+CIPSTATUS:
STATE:CLOSED
----
Resp:
AT+CIPSTART="TCP","api.thingspeak.com",80
CONNECT OK
----
Msg: Connected!
Resp:
AT+GPSRD=2

OK
----
Msg: GPS Read Set!
Msg: Getting data from GPS using AT Cmd
Resp:
$GNGGA,220542.000,4900.5232,N,00825.4314,E,1,4,2.70,111.2,M,47.9,M,,*4F

$GPGSA,A,3,05,18,29,23,,,,,,,,,2.86,2.70,0.95*01

$BDGSA,A,3,,,,,,,,,,,,,2.86,2.70,0.95*16

$GPGSV,3,1,11,26,76,232,12,18,74,107,15,16,46,303,14,29,26,078,20*74

$GPGSV,3,2,11,27,22,272,,23,21,142,22,31,19,206,,05,18,043,21*79

$GPGSV,3,3,11,44,12,116,,25,02,137,,10,02,166,*4E

$BDGSV,1,1,00*68

$GNRMC,220542.000,A,4900.5232,N,00825.4314,E,0.272,292.97,131221,,,A*47

$GNVTG,292.97,T,,M,0.272,N,0.504,K,A*22
---
Msg: Getting data from GPS using AT done
Resp:
AT+GPSRD=0

OK
----
Msg: GPS Read Off!
Msg: Getting data from Sensors
Msg: Failed to perform reading!
Resp:
AT+CIPSEND

>
----
Msg: Send Started!
Resp:
GET https://api.thingspeak.com/update?api_key=AYKVFH212TKGNW2B&field1=9.00&field2=13.00&field3=29.00&field4=22.00&field5=34.00&field6=$GNGGA,220542.000,4900.5232,N,00825.4314,E,1,4,2.70,111.2,M,47.9,M,,*4F

----
Resp:

OK



+CIPRCV,3:214
CLOSED
----
Msg: Send Completed!
Resp:
AT+CIPSTATUS
+CIPSTATUS:
STATE:CLOSED
----
Resp:
AT+CIPSTART="TCP","api.thingspeak.com",80
CONNECT OK
----
Msg: Connected!
Resp:
AT+GPSRD=2

OK
----
Msg: GPS Read Set!
Msg: Getting data from GPS using AT Cmd
Resp:
$GNGGA,220557.000,4900.5224,N,00825.4429,E,1,4,2.70,111.1,M,47.9,M,,*46

$GPGSA,A,3,05,18,29,23,,,,,,,,,2.86,2.70,0.95*01

$BDGSA,A,3,,,,,,,,,,,,,2.86,2.70,0.95*16

$GPGSV,3,1,11,26,76,232,,18,74,105,14,16,46,303,14,29,26,078,19*7E

$GPGSV,3,2,11,27,22,272,,23,21,142,21,31,19,206,,05,18,043,23*78

$GPGSV,3,3,11,25,02,137,,10,02,166,,36,,,*7E

$BDGSV,1,1,00*68

$GNRMC,220557.000,A,4900.5224,N,00825.4429,E,1.104,281.89,131221,,,A*43

$GNVTG,281.89,T,,M,1.104,N,2.045,K,A*2E
---
Msg: Getting data from GPS using AT done
Resp:
AT+GPSRD=0

OK
----
Msg: GPS Read Off!
Msg: Getting data from Sensors
Msg: Failed to perform reading!
Resp:
AT+CIPSEND

>
----
Msg: Send Started!
Resp:
GET https://api.thingspeak.com/update?api_key=AYKVFH212TKGNW2B&field1=9.00&field2=10.00&field3=30.00&field4=22.00&field5=32.00&field6=$GNGGA,220557.000,4900.5224,N,00825.4429,E,1,4,2.70,111.1,M,47.9,M,,*46

----
Resp:

OK



+CIPRCV,3:215
CLOSED
----
Msg: Send Completed!
Resp:
AT+CIPSTATUS
+CIPSTATUS:
STATE:CLOSED
----
Resp:
AT+CIPSTART="TCP","api.thingspeak.com",80
CONNECT OK
----
Msg: Connected!
Resp:
AT+GPSRD=2

OK
----
Msg: GPS Read Set!
Msg: Getting data from GPS using AT Cmd
Resp:
$GNGGA,220612.000,4900.5197,N,00825.4351,E,1,4,2.70,112.1,M,47.9,M,,*44

$GPGSA,A,3,05,18,29,23,,,,,,,,,2.86,2.70,0.95*01

$BDGSA,A,3,,,,,,,,,,,,,2.86,2.70,0.95*16

$GPGSV,3,1,11,26,76,230,,18,74,105,17,16,46,303,14,29,26,079,23*77

$GPGSV,3,2,11,27,22,273,,23,21,142,20,31,19,206,,05,18,043,26*7D

$GPGSV,3,3,11,25,02,137,,10,02,166,,41,,,*7E

$BDGSV,1,1,00*68

$GNRMC,220612.000,A,4900.5197,N,00825.4351,E,1.179,236.76,131221,,,A*44

$GNVTG,236.76,T,,M,1.179,N,2.184,K,A*24
---
Msg: Getting data from GPS using AT done
Resp:
AT+GPSRD=0

OK
----
Msg: GPS Read Off!
Msg: Getting data from Sensors
Msg: Failed to perform reading!
Resp:
AT+CIPSEND

>
----
Msg: Send Started!
Resp:
GET https://api.thingspeak.com/update?api_key=AYKVFH212TKGNW2B&field1=9.00&field2=16.00&field3=31.00&field4=23.00&field5=33.00&field6=$GNGGA,220612.000,4900.5197,N,00825.4351,E,1,4,2.70,112.1,M,47.9,M,,*44

----
Resp:

OK



+CIPRCV,1:0
CLOSED
----
Msg: Send Completed!
Resp:
AT+CIPSTATUS
+CIPSTATUS:
STATE:CLOSED
----
Resp:
AT+CIPSTART="TCP","api.thingspeak.com",80
CONNECT OK
----
Msg: Connected!
Resp:
AT+GPSRD=2

OK
----
Msg: GPS Read Set!
Msg: Getting data from GPS using AT Cmd
Resp:
$GNGGA,220627.000,4900.5192,N,00825.4326,E,1,4,2.70,112.6,M,47.9,M,,*40

$GPGSA,A,3,05,18,29,23,,,,,,,,,2.86,2.70,0.95*01

$BDGSA,A,3,,,,,,,,,,,,,2.86,2.70,0.95*16

$GPGSV,3,1,11,26,76,230,,18,74,105,15,16,46,303,15,29,26,079,19*7D

$GPGSV,3,2,11,27,22,273,,23,21,142,21,31,19,206,,05,18,043,24*7E

$GPGSV,3,3,11,25,02,137,,10,02,166,,45,,,*7A

$BDGSV,1,1,00*68

$GNRMC,220627.000,A,4900.5192,N,00825.4326,E,1.501,284.64,131221,,,A*46

$GNVTG,284.64,T,,M,1.501,N,2.782,K,A*25
---
Msg: Getting data from GPS using AT done
Resp:
AT+GPSRD=0

OK
----
Msg: GPS Read Off!
Msg: Getting data from Sensors
Msg: Failed to perform reading!
Resp:
AT+CIPSEND

>
----
Msg: Send Started!
Resp:
GET https://api.thingspeak.com/update?api_key=AYKVFH212TKGNW2B&field1=4.00&field2=14.00&field3=32.00&field4=24.00&field5=34.00&field6=$GNGGA,220627.000,4900.5192,N,00825.4326,E,1,4,2.70,112.6,M,47.9,M,,*40

----
Resp:

OK



+CIPRCV,3:216
CLOSED
----
Msg: Send Completed!
Resp:
AT+CIPSTATUS
+CIPSTATUS:
STATE:CLOSED
----
Resp:
AT+CIPSTART="TCP","api.thingspeak.com",80
CONNECT OK
----
Msg: Connected!
Resp:
AT+GPSRD=2

OK
----
Msg: GPS Read Set!
Msg: Getting data from GPS using AT Cmd
Resp:
$GNGGA,220642.000,4900.5175,N,00825.4413,E,1,4,2.69,113.2,M,47.9,M,,*46

$GPGSA,A,3,05,18,29,23,,,,,,,,,2.86,2.69,0.95*09

$BDGSA,A,3,,,,,,,,,,,,,2.86,2.69,0.95*1E

$GPGSV,3,1,11,26,76,230,,18,74,105,16,16,46,303,15,29,26,079,18*7F

$GPGSV,3,2,11,27,22,273,,23,21,142,21,31,19,206,,05,18,043,26*7C

$GPGSV,3,3,11,25,02,137,,10,02,166,,49,,,*76

$BDGSV,1,1,00*68

$GNRMC,220642.000,A,4900.5175,N,00825.4413,E,0.935,155.61,131221,,,A*4D

$GNVTG,155.61,T,,M,0.935,N,1.733,K,A*2C
---
Msg: Getting data from GPS using AT done
Resp:
AT+GPSRD=0

OK
----
Msg: GPS Read Off!
Msg: Getting data from Sensors
Msg: Failed to perform reading!
Resp:
AT+CIPSEND

>
----
Msg: Send Started!
Resp:
GET https://api.thingspeak.com/update?api_key=AYKVFH212TKGNW2B&field1=3.00&field2=12.00&field3=33.00&field4=21.00&field5=32.00&field6=$GNGGA,220642.000,4900.5175,N,00825.4413,E,1,4,2.69,113.2,M,47.9,M,,*46

----
Resp:

OK



+CIPRCV,3:217
CLOSED
----
Msg: Send Completed!
Resp:
AT+CIPSTATUS
+CIPSTATUS:
STATE:CLOSED
----
Resp:
AT+CIPSTART="TCP","api.thingspeak.com",80
CONNECT OK
----
Msg: Connected!
Resp:
AT+GPSRD=2

OK
----
Msg: GPS Read Set!
Msg: Getting data from GPS using AT Cmd
Resp:
$GNGGA,220657.000,4900.5200,N,00825.4351,E,1,4,2.69,112.9,M,47.9,M,,*48

$GPGSA,A,3,05,18,29,23,,,,,,,,,2.85,2.69,0.95*0A

$BDGSA,A,3,,,,,,,,,,,,,2.85,2.69,0.95*1D

$GPGSV,3,1,11,26,76,230,,18,74,105,15,16,46,303,14,29,26,079,17*72

$GPGSV,3,2,11,27,22,273,,23,21,142,22,31,19,206,,05,18,042,25*7D

$GPGSV,3,3,11,25,02,137,,10,02,166,,42,,,*7D

$BDGSV,1,1,00*68

$GNRMC,220657.000,A,4900.5200,N,00825.4351,E,0.992,283.04,131221,,,A*4F

$GNVTG,283.04,T,,M,0.992,N,1.838,K,A*2E
---
Msg: Getting data from GPS using AT done
Resp:
AT+GPSRD=0

OK
----
Msg: GPS Read Off!
Msg: Getting data from Sensors
Msg: Failed to perform reading!
Resp:
AT+CIPSEND

>
----
Msg: Send Started!
Resp:
GET https://api.thingspeak.com/update?api_key=AYKVFH212TKGNW2B&field1=3.00&field2=10.00&field3=34.00&field4=22.00&field5=32.00&field6=$GNGGA,220657.000,4900.5200,N,00825.4351,E,1,4,2.69,112.9,M,47.9,M,,*48

----
Resp:

OK



+CIPRCV,3:218
CLOSED
----
Msg: Send Completed!
Resp:
AT+CIPSTATUS
+CIPSTATUS:
STATE:CLOSED
----
Resp:
AT+CIPSTART="TCP","api.thingspeak.com",80
CONNECT OK
----
Msg: Connected!
Resp:
AT+GPSRD=2

OK
----
Msg: GPS Read Set!
Msg: Getting data from GPS using AT Cmd
Resp:
$GNGGA,220712.000,4900.5209,N,00825.4331,E,1,3,4.72,113.3,M,47.9,M,,*47

$GPGSA,A,2,05,29,23,,,,,,,,,,4.82,4.72,1.00*02

$BDGSA,A,2,,,,,,,,,,,,,4.82,4.72,1.00*1C

$GPGSV,3,1,10,26,76,230,,18,74,102,,16,47,303,14,29,26,079,16*70

$GPGSV,3,2,10,27,22,273,,23,21,142,22,31,19,206,,05,18,042,25*7C

$GPGSV,3,3,10,10,03,166,,25,02,137,*7B

$BDGSV,1,1,00*68

$GNRMC,220712.000,A,4900.5209,N,00825.4331,E,1.302,277.17,131221,,,A*4B

$GNVTG,277.17,T,,M,1.302,N,2.413,K,A*23
---
Msg: Getting data from GPS using AT done
Resp:
AT+GPSRD=0

OK
----
Msg: GPS Read Off!
Msg: Getting data from Sensors
Msg: Failed to perform reading!
Resp:
AT+CIPSEND

>
----
Msg: Send Started!
Resp:
GET https://api.thingspeak.com/update?api_key=AYKVFH212TKGNW2B&field1=3.00&field2=14.00&field3=35.00&field4=20.00&field5=33.00&field6=$GNGGA,220712.000,4900.5209,N,00825.4331,E,1,3,4.72,113.3,M,47.9,M,,*47

----
Resp:

OK



+CIPRCV,1:0
CLOSED
----
Msg: Send Completed!
Resp:
AT+CIPSTATUS
+CIPSTATUS:
STATE:CLOSED
----
Resp:
AT+CIPSTART="TCP","api.thingspeak.com",80
CONNECT OK
----
Msg: Connected!
Resp:
AT+GPSRD=2

OK
----
Msg: GPS Read Set!
Msg: Getting data from GPS using AT Cmd
Resp:
$GNGGA,220727.000,4900.5188,N,00825.4575,E,1,3,4.69,113.4,M,47.9,M,,*40

$GPGSA,A,2,05,29,23,,,,,,,,,,4.80,4.69,1.00*0A

$BDGSA,A,2,,,,,,,,,,,,,4.80,4.69,1.00*14

$GPGSV,3,1,10,26,76,227,,18,74,102,,16,47,303,14,29,25,079,19*7A

$GPGSV,3,2,10,27,23,273,,23,22,141,22,05,18,042,27,31,18,205,*7D

$GPGSV,3,3,10,10,03,166,,25,01,137,*78

$BDGSV,1,1,00*68

$GNRMC,220727.000,A,4900.5188,N,00825.4575,E,1.565,82.44,131221,,,A*78

$GNVTG,82.44,T,,M,1.565,N,2.900,K,A*15
---
Msg: Getting data from GPS using AT done
Resp:
AT+GPSRD=0

OK
----
Msg: GPS Read Off!
Msg: Getting data from Sensors
Msg: Failed to perform reading!
Resp:
AT+CIPSEND

>
----
Msg: Send Started!
Resp:
GET https://api.thingspeak.com/update?api_key=AYKVFH212TKGNW2B&field1=5.00&field2=11.00&field3=36.00&field4=22.00&field5=32.00&field6=$GNGGA,220727.000,4900.5188,N,00825.4575,E,1,3,4.69,113.4,M,47.9,M,,*40

----
Resp:

OK



+CIPRCV,3:219
CLOSED
----
Msg: Send Completed!
Resp:
AT+CIPSTATUS
+CIPSTATUS:
STATE:CLOSED
----
Resp:
AT+CIPSTART="TCP","api.thingspeak.com",80
CONNECT OK
----
Msg: Connected!
Resp:
AT+GPSRD=2

OK
----
Msg: GPS Read Set!
Msg: Getting data from GPS using AT Cmd
Resp:
$GNGGA,220742.000,4900.5177,N,00825.4520,E,1,3,4.66,113.5,M,47.9,M,,*4D

$GPGSA,A,2,05,29,23,,,,,,,,,,4.77,4.66,1.00*0D

$BDGSA,A,2,,,,,,,,,,,,,4.77,4.66,1.00*13

$GPGSV,3,1,10,26,76,227,,18,74,102,,16,47,303,13,29,25,079,21*76

$GPGSV,3,2,10,27,23,273,,23,22,141,21,05,18,042,27,31,18,205,*7E

$GPGSV,3,3,10,10,03,166,,25,01,137,*78

$BDGSV,1,1,00*68

$GNRMC,220742.000,A,4900.5177,N,00825.4520,E,1.434,273.65,131221,,,A*41

$GNVTG,273.65,T,,M,1.434,N,2.656,K,A*23
---
Msg: Getting data from GPS using AT done
Resp:
AT+GPSRD=0

OK
----
Msg: GPS Read Off!
Msg: Getting data from Sensors
Msg: Failed to perform reading!
Resp:
AT+CIPSEND

>
----
Msg: Send Started!
Resp:
GET https://api.thingspeak.com/update?api_key=AYKVFH212TKGNW2B&field1=4.00&field2=12.00&field3=37.00&field4=24.00&field5=33.00&field6=$GNGGA,220742.000,4900.5177,N,00825.4520,E,1,3,4.66,113.5,M,47.9,M,,*4D

----
Resp:

OK



+CIPRCV,3:220
CLOSED
----
Msg: Send Completed!
Resp:
AT+CIPSTATUS
+CIPSTATUS:
STATE:CLOSED
----
Resp:
AT+CIPSTART="TCP","api.thingspeak.com",80
CONNECT OK
----
Msg: Connected!
Resp:
AT+GPSRD=2

OK
----
Msg: GPS Read Set!
Msg: Getting data from GPS using AT Cmd
Resp:
$GNGGA,220757.000,4900.5177,N,00825.4374,E,1,3,4.64,113.5,M,47.9,M,,*4C

$GPGSA,A,2,05,29,23,,,,,,,,,,4.74,4.64,1.00*0C

$BDGSA,A,2,,,,,,,,,,,,,4.74,4.64,1.00*12

$GPGSV,3,1,10,26,76,227,,18,74,102,,16,47,303,14,29,25,079,20*70

$GPGSV,3,2,10,27,23,273,,23,22,141,20,05,18,042,27,31,18,205,*7F

$GPGSV,3,3,10,10,03,166,,25,01,137,*78

$BDGSV,1,1,00*68

$GNRMC,220757.000,A,4900.5177,N,00825.4374,E,1.539,257.36,131221,,,A*4E

$GNVTG,257.36,T,,M,1.539,N,2.851,K,A*26
---
Msg: Getting data from GPS using AT done
Resp:
AT+GPSRD=0

OK
----
Msg: GPS Read Off!
Msg: Getting data from Sensors
Msg: Failed to perform reading!
Resp:
AT+CIPSEND

>
----
Msg: Send Started!
Resp:
GET https://api.thingspeak.com/update?api_key=AYKVFH212TKGNW2B&field1=4.00&field2=11.00&field3=38.00&field4=22.00&field5=33.00&field6=$GNGGA,220757.000,4900.5177,N,00825.4374,E,1,3,4.64,113.5,M,47.9,M,,*4C

----
Resp:

OK



+CIPRCV,3:221
CLOSED
----
Msg: Send Completed!
Resp:
AT+CIPSTATUS
+CIPSTATUS:
STATE:CLOSED
----
Resp:
AT+CIPSTART="TCP","api.thingspeak.com",80
CONNECT OK
----
Msg: Connected!
Resp:
AT+GPSRD=2

OK
----
Msg: GPS Read Set!
Msg: Getting data from GPS using AT Cmd
Resp:
$GNGGA,220812.000,4900.5177,N,00825.4525,E,1,4,2.68,111.1,M,47.9,M,,*4B

$GPGSA,A,3,05,18,29,23,,,,,,,,,2.85,2.68,0.95*0B

$BDGSA,A,3,,,,,,,,,,,,,2.85,2.68,0.95*1C

$GPGSV,3,1,11,26,76,227,,18,74,102,15,16,47,303,14,39,31,158,*71

$GPGSV,3,2,11,29,25,079,19,27,23,273,,23,22,141,21,05,18,042,28*76

$GPGSV,3,3,11,31,18,205,,10,03,166,,25,01,137,*45

$BDGSV,1,1,00*68

$GNRMC,220812.000,A,4900.5177,N,00825.4525,E,0.234,181.38,131221,,,A*4F

$GNVTG,181.38,T,,M,0.234,N,0.434,K,A*26
---
Msg: Getting data from GPS using AT done
Resp:
AT+GPSRD=0

OK
----
Msg: GPS Read Off!
Msg: Getting data from Sensors
Msg: Failed to perform reading!
Resp:
AT+CIPSEND

>
----
Msg: Send Started!
Resp:
GET https://api.thingspeak.com/update?api_key=AYKVFH212TKGNW2B&field1=4.00&field2=14.00&field3=39.00&field4=20.00&field5=34.00&field6=$GNGGA,220812.000,4900.5177,N,00825.4525,E,1,4,2.68,111.1,M,47.9,M,,*4B

----
Resp:

OK



+CIPRCV,1:0
CLOSED
----
Msg: Send Completed!
Resp:
AT+CIPSTATUS
+CIPSTATUS:
STATE:CLOSED
----
Resp:
AT+CIPSTART="TCP","api.thingspeak.com",80
CONNECT OK
----
Msg: Connected!
Resp:
AT+GPSRD=2

OK
----
Msg: GPS Read Set!
Msg: Getting data from GPS using AT Cmd
Resp:
$GNGGA,220827.000,4900.5174,N,00825.4474,E,1,4,2.68,110.8,M,47.9,M,,*43

$GPGSA,A,3,05,18,29,23,,,,,,,,,2.85,2.68,0.95*0B

$BDGSA,A,3,,,,,,,,,,,,,2.85,2.68,0.95*1C

$GPGSV,3,1,11,26,76,227,,18,74,100,12,16,47,303,,39,31,158,*71

$GPGSV,3,2,11,29,25,079,19,27,23,273,,23,22,141,20,05,18,042,28*77

$GPGSV,3,3,11,31,18,205,,10,03,165,,25,01,137,*46

$BDGSV,1,1,00*68

$GNRMC,220827.000,A,4900.5174,N,00825.4474,E,0.226,157.33,131221,,,A*4C

$GNVTG,157.33,T,,M,0.226,N,0.418,K,A*2B
---
Msg: Getting data from GPS using AT done
Resp:
AT+GPSRD=0

OK
----
Msg: GPS Read Off!
Msg: Getting data from Sensors
Msg: Failed to perform reading!
Resp:
AT+CIPSEND

>
----
Msg: Send Started!
Resp:
GET https://api.thingspeak.com/update?api_key=AYKVFH212TKGNW2B&field1=2.00&field2=10.00&field3=40.00&field4=21.00&field5=31.00&field6=$GNGGA,220827.000,4900.5174,N,00825.4474,E,1,4,2.68,110.8,M,47.9,M,,*43

----
Resp:

OK



+CIPRCV,3:222
CLOSED
----
Msg: Send Completed!
Resp:
AT+CIPSTATUS
+CIPSTATUS:
STATE:CLOSED
----
Resp:
AT+CIPSTART="TCP","api.thingspeak.com",80
CONNECT OK
----
Msg: Connected!
Resp:
AT+GPSRD=2

OK
----
Msg: GPS Read Set!
Msg: Getting data from GPS using AT Cmd
Resp:
$GNGGA,220842.000,4900.5182,N,00825.4435,E,1,4,2.68,110.6,M,47.9,M,,*42

$GPGSA,A,3,05,18,29,23,,,,,,,,,2.84,2.68,0.95*0A

$BDGSA,A,3,,,,,,,,,,,,,2.84,2.68,0.95*1D

$GPGSV,3,1,10,26,76,225,,18,74,100,14,16,47,303,,29,25,079,25*75

$GPGSV,3,2,10,27,23,273,,23,22,141,26,05,18,042,29,31,18,205,*77

$GPGSV,3,3,10,10,03,165,,25,01,137,*7B

$BDGSV,1,1,00*68

$GNRMC,220842.000,A,4900.5182,N,00825.4435,E,0.982,278.11,131221,,,A*48

$GNVTG,278.11,T,,M,0.982,N,1.820,K,A*26
---
Msg: Getting data from GPS using AT done
Resp:
AT+GPSRD=0

OK
----
Msg: GPS Read Off!
Msg: Getting data from Sensors
Msg: Failed to perform reading!
Resp:
AT+CIPSEND

>
----
Msg: Send Started!
Resp:
GET https://api.thingspeak.com/update?api_key=AYKVFH212TKGNW2B&field1=7.00&field2=17.00&field3=41.00&field4=23.00&field5=33.00&field6=$GNGGA,220842.000,4900.5182,N,00825.4435,E,1,4,2.68,110.6,M,47.9,M,,*42

----
Resp:

OK



+CIPRCV,1:0
CLOSED
----
Msg: Send Completed!
Resp:
AT+CIPSTATUS
+CIPSTATUS:
STATE:CLOSED
----
Resp:
AT+CIPSTART="TCP","api.thingspeak.com",80
CONNECT OK
----
Msg: Connected!
Resp:
AT+GPSRD=2

OK
----
Msg: GPS Read Set!
Msg: Getting data from GPS using AT Cmd
Resp:
$GNGGA,220857.000,4900.5194,N,00825.4444,E,1,4,2.68,109.3,M,47.9,M,,*4A

$GPGSA,A,3,05,18,29,23,,,,,,,,,2.84,2.68,0.95*0A

$BDGSA,A,3,,,,,,,,,,,,,2.84,2.68,0.95*1D

$GPGSV,3,1,10,26,76,225,,18,74,100,15,16,47,303,,29,25,079,24*75

$GPGSV,3,2,10,27,23,273,,23,22,141,25,05,18,042,29,31,18,205,*74

$GPGSV,3,3,10,10,03,165,,25,01,137,*7B

$BDGSV,1,1,00*68

$GNRMC,220857.000,A,4900.5194,N,00825.4444,E,0.317,26.10,131221,,,A*73

$GNVTG,26.10,T,,M,0.317,N,0.588,K,A*16
---
Msg: Getting data from GPS using AT done
Resp:
AT+GPSRD=0

OK
----
Msg: GPS Read Off!
Msg: Getting data from Sensors
Msg: Failed to perform reading!
Resp:
AT+CIPSEND

>
----
Msg: Send Started!
Resp:
GET https://api.thingspeak.com/update?api_key=AYKVFH212TKGNW2B&field1=7.00&field2=16.00&field3=42.00&field4=21.00&field5=32.00&field6=$GNGGA,220857.000,4900.5194,N,00825.4444,E,1,4,2.68,109.3,M,47.9,M,,*4A

----
Resp:

OK



+CIPRCV,3:223
CLOSED
----
Msg: Send Completed!
Resp:
AT+CIPSTATUS
+CIPSTATUS:
STATE:CLOSED
----
Resp:
AT+CIPSTART="TCP","api.thingspeak.com",80
CONNECT OK
----
Msg: Connected!
Resp:
AT+GPSRD=2

OK
----
Msg: GPS Read Set!
Msg: Getting data from GPS using AT Cmd
Resp:
$GNGGA,220912.000,4900.5184,N,00825.4460,E,1,4,2.68,107.7,M,47.9,M,,*47

$GPGSA,A,3,05,18,29,23,,,,,,,,,2.84,2.68,0.95*0A

$BDGSA,A,3,,,,,,,,,,,,,2.84,2.68,0.95*1D

$GPGSV,3,1,11,26,76,225,15,18,74,100,13,16,47,303,,33,29,210,*7A

$GPGSV,3,2,11,29,25,079,24,27,23,273,,23,22,141,25,05,18,042,29*7D

$GPGSV,3,3,11,31,18,205,,10,03,165,,25,01,137,*46

$BDGSV,1,1,00*68

$GNRMC,220912.000,A,4900.5184,N,00825.4460,E,0.379,322.78,131221,,,A*45

$GNVTG,322.78,T,,M,0.379,N,0.703,K,A*26
---
Msg: Getting data from GPS using AT done
Resp:
AT+GPSRD=0

OK
----
Msg: GPS Read Off!
Msg: Getting data from Sensors
Msg: Failed to perform reading!
Resp:
AT+CIPSEND

>
----
Msg: Send Started!
Resp:
GET https://api.thingspeak.com/update?api_key=AYKVFH212TKGNW2B&field1=7.00&field2=17.00&field3=43.00&field4=24.00&field5=31.00&field6=$GNGGA,220912.000,4900.5184,N,00825.4460,E,1,4,2.68,107.7,M,47.9,M,,*47

----
Resp:

OK



+CIPRCV,3:224
CLOSED
----
Msg: Send Completed!
Resp:
AT+CIPSTATUS
+CIPSTATUS:
STATE:CLOSED
----
Resp:
AT+CIPSTART="TCP","api.thingspeak.com",80
CONNECT OK
----
Msg: Connected!
Resp:
AT+GPSRD=2

OK
----
Msg: GPS Read Set!
Msg: Getting data from GPS using AT Cmd
Resp:
$GNGGA,220927.000,4900.5196,N,00825.4395,E,1,4,2.67,107.7,M,47.9,M,,*40

$GPGSA,A,3,05,18,29,23,,,,,,,,,2.84,2.67,0.95*05

$BDGSA,A,3,,,,,,,,,,,,,2.84,2.67,0.95*12

$GPGSV,3,1,11,26,76,225,14,18,74,100,16,16,47,303,,29,25,079,19*7C

$GPGSV,3,2,11,27,23,273,,23,22,141,24,05,18,042,29,31,18,205,*74

$GPGSV,3,3,11,44,12,116,,10,03,165,,25,01,137,*4F

$BDGSV,1,1,00*68

$GNRMC,220927.000,A,4900.5196,N,00825.4395,E,0.680,320.96,131221,,,A*4C

$GNVTG,320.96,T,,M,0.680,N,1.260,K,A*26
---
Msg: Getting data from GPS using AT done
Resp:
AT+GPSRD=0

OK
----
Msg: GPS Read Off!
Msg: Getting data from Sensors
Msg: Failed to perform reading!
Resp:
AT+CIPSEND

>
----
Msg: Send Started!
Resp:
GET https://api.thingspeak.com/update?api_key=AYKVFH212TKGNW2B&field1=8.00&field2=18.00&field3=44.00&field4=22.00&field5=34.00&field6=$GNGGA,220927.000,4900.5196,N,00825.4395,E,1,4,2.67,107.7,M,47.9,M,,*40

----
Resp:

OK

+CIPRCV,1:0


CLOSED
----
Msg: Send Completed!
Resp:
AT+CIPSTATUS
+CIPSTATUS:
STATE:CLOSED
----
Resp:
AT+CIPSTART="TCP","api.thingspeak.com",80
CONNECT OK
----
Msg: Connected!
Resp:
AT+GPSRD=2

OK
----
Msg: GPS Read Set!
Msg: Getting data from GPS using AT Cmd
Resp:
$GNGGA,220942.000,4900.5192,N,00825.4429,E,1,4,2.67,109.8,M,47.9,M,,*46

$GPGSA,A,3,05,18,29,23,,,,,,,,,2.84,2.67,0.95*05

$BDGSA,A,3,,,,,,,,,,,,,2.84,2.67,0.95*12

$GPGSV,3,1,11,26,76,225,16,18,74,100,15,16,48,303,,39,31,158,*7C

$GPGSV,3,2,11,29,25,079,18,27,23,273,,23,22,141,25,31,18,205,*7F

$GPGSV,3,3,11,05,17,041,29,10,04,165,,25,01,137,*40

$BDGSV,1,1,00*68

$GNRMC,220942.000,A,4900.5192,N,00825.4429,E,0.389,54.39,131221,,,A*72

$GNVTG,54.39,T,,M,0.389,N,0.722,K,A*1D
---
Msg: Getting data from GPS using AT done
Resp:
AT+GPSRD=0

OK
----
Msg: GPS Read Off!
Msg: Getting data from Sensors
Msg: Failed to perform reading!
Resp:
AT+CIPSEND

>
----
Msg: Send Started!
Resp:
GET https://api.thingspeak.com/update?api_key=AYKVFH212TKGNW2B&field1=3.00&field2=12.00&field3=45.00&field4=22.00&field5=34.00&field6=$GNGGA,220942.000,4900.5192,N,00825.4429,E,1,4,2.67,109.8,M,47.9,M,,*46

----
Resp:

OK



+CIPRCV,3:225
CLOSED
----
Msg: Send Completed!
Resp:
AT+CIPSTATUS
+CIPSTATUS:
STATE:CLOSED
----
Resp:
AT+CIPSTART="TCP","api.thingspeak.com",80
CONNECT OK
----
Msg: Connected!
Resp:
AT+GPSRD=2

OK
----
Msg: GPS Read Set!
Msg: Getting data from GPS using AT Cmd
Resp:
$GNGGA,220957.000,4900.5193,N,00825.4557,E,1,4,2.67,109.8,M,47.9,M,,*4B

$GPGSA,A,3,05,18,29,23,,,,,,,,,2.84,2.67,0.95*05

$BDGSA,A,3,,,,,,,,,,,,,2.84,2.67,0.95*12

$GPGSV,3,1,10,26,76,223,16,18,74,098,16,16,48,303,,33,29,210,*74

$GPGSV,3,2,10,29,24,080,24,27,24,274,,23,23,141,26,05,17,041,28*74

$GPGSV,3,3,10,31,17,205,,10,04,165,*7C

$BDGSV,1,1,00*68

$GNRMC,220957.000,A,4900.5193,N,00825.4557,E,1.253,264.96,131221,,,A*4C

$GNVTG,264.96,T,,M,1.253,N,2.322,K,A*28
---
Msg: Getting data from GPS using AT done
Resp:
AT+GPSRD=0

OK
----
Msg: GPS Read Off!
Msg: Getting data from Sensors
Msg: Failed to perform reading!
Resp:
AT+CIPSEND

>
----
Msg: Send Started!
Resp:
GET https://api.thingspeak.com/update?api_key=AYKVFH212TKGNW2B&field1=4.00&field2=10.00&field3=46.00&field4=24.00&field5=34.00&field6=$GNGGA,220957.000,4900.5193,N,00825.4557,E,1,4,2.67,109.8,M,47.9,M,,*4B

----
Resp:

OK

+CIPRCV,1:0


CLOSED
----
Msg: Send Completed!
Resp:
AT+CIPSTATUS
+CIPSTATUS:
STATE:CLOSED
----
Resp:
AT+CIPSTART="TCP","api.thingspeak.com",80
CONNECT OK
----
Msg: Connected!
Resp:
AT+GPSRD=2

OK
----
Msg: GPS Read Set!
Msg: Getting data from GPS using AT Cmd
Resp:
$GNGGA,221012.000,4900.5183,N,00825.4473,E,1,3,4.43,107.8,M,47.9,M,,*4D

$GPGSA,A,2,05,29,23,,,,,,,,,,4.54,4.43,1.00*0B

$BDGSA,A,2,,,,,,,,,,,,,4.54,4.43,1.00*15

$GPGSV,3,1,10,26,76,223,12,18,74,098,,16,48,303,,29,24,080,23*7B

$GPGSV,3,2,10,27,24,274,,23,23,141,21,05,17,041,27,31,17,205,*7C

$GPGSV,3,3,10,44,12,116,,10,04,165,*7A

$BDGSV,1,1,00*68

$GNRMC,221012.000,A,4900.5183,N,00825.4473,E,0.660,247.78,131221,,,A*47

$GNVTG,247.78,T,,M,0.660,N,1.223,K,A*2F
---
Msg: Getting data from GPS using AT done
Resp:
AT+GPSRD=0

OK
----
Msg: GPS Read Off!
Msg: Getting data from Sensors
Msg: Failed to perform reading!
Resp:
AT+CIPSEND

>
----
Msg: Send Started!
Resp:
GET https://api.thingspeak.com/update?api_key=AYKVFH212TKGNW2B&field1=7.00&field2=19.00&field3=47.00&field4=22.00&field5=33.00&field6=$GNGGA,221012.000,4900.5183,N,00825.4473,E,1,3,4.43,107.8,M,47.9,M,,*4D

----
Resp:

OK



+CIPRCV,3:226
CLOSED
----
Msg: Send Completed!
Resp:
AT+CIPSTATUS
+CIPSTATUS:
STATE:CLOSED
----
Resp:
AT+CIPSTART="TCP","api.thingspeak.com",80
CONNECT OK
----
Msg: Connected!
Resp:
AT+GPSRD=2

OK
----
Msg: GPS Read Set!
Msg: Getting data from GPS using AT Cmd
Resp:
$GNGGA,221029.000,4900.5182,N,00825.4398,E,1,4,2.67,107.5,M,47.9,M,,*4C

$GPGSA,A,3,05,18,29,23,,,,,,,,,2.83,2.67,0.95*02

$BDGSA,A,3,,,,,,,,,,,,,2.83,2.67,0.95*15

$GPGSV,3,1,09,26,76,223,,18,74,098,16,16,48,303,,29,24,080,21*75

$GPGSV,3,2,09,27,24,274,,23,23,141,29,05,17,041,29,31,17,205,*72

$GPGSV,3,3,09,10,04,165,*47

$BDGSV,1,1,00*68

$GNRMC,221029.000,A,4900.5182,N,00825.4398,E,1.925,286.56,131221,,,A*42

$GNVTG,286.56,T,,M,1.925,N,3.567,K,A*24
---
Msg: Getting data from GPS using AT done
Resp:
AT+GPSRD=0

OK
----
Msg: GPS Read Off!
Msg: Getting data from Sensors
Msg: Failed to perform reading!
Resp:
AT+CIPSEND

>
----
Msg: Send Started!
Resp:
GET https://api.thingspeak.com/update?api_key=AYKVFH212TKGNW2B&field1=5.00&field2=12.00&field3=48.00&field4=23.00&field5=34.00&field6=$GNGGA,221029.000,4900.5182,N,00825.4398,E,1,4,2.67,107.5,M,47.9,M,,*4C

----
Resp:

OK



+CIPRCV,3:227
CLOSED
----
Msg: Send Completed!
Resp:
AT+CIPSTATUS
+CIPSTATUS:
STATE:CLOSED
----
Resp:
AT+CIPSTART="TCP","api.thingspeak.com",80
CONNECT OK
----
Msg: Connected!
Resp:
AT+GPSRD=2

OK
----
Msg: GPS Read Set!
Msg: Getting data from GPS using AT Cmd
Resp:
$GNGGA,221044.000,4900.5184,N,00825.4566,E,1,4,2.67,107.7,M,47.9,M,,*44

$GPGSA,A,3,05,18,29,23,,,,,,,,,2.83,2.67,0.95*02

$BDGSA,A,3,,,,,,,,,,,,,2.83,2.67,0.95*15

$GPGSV,3,1,10,26,76,223,17,18,74,098,14,16,48,303,,29,24,080,18*73

$GPGSV,3,2,10,27,24,274,,23,23,141,29,05,17,041,29,31,17,205,*7A

$GPGSV,3,3,10,10,04,165,,35,,,*49

$BDGSV,1,1,00*68

$GNRMC,221044.000,A,4900.5184,N,00825.4566,E,2.369,110.64,131221,,,A*44

$GNVTG,110.64,T,,M,2.369,N,4.391,K,A*20
---
Msg: Getting data from GPS using AT done
Resp:
AT+GPSRD=0

OK
----
Msg: GPS Read Off!
Msg: Getting data from Sensors
Msg: Failed to perform reading!
Resp:
AT+CIPSEND

>
----
Msg: Send Started!
Resp:
GET https://api.thingspeak.com/update?api_key=AYKVFH212TKGNW2B&field1=6.00&field2=19.00&field3=49.00&field4=20.00&field5=31.00&field6=$GNGGA,221044.000,4900.5184,N,00825.4566,E,1,4,2.67,107.7,M,47.9,M,,*44

----
Resp:

OK



+CIPRCV,1:0
CLOSED
----
Msg: Send Completed!
Resp:
AT+CIPSTATUS
+CIPSTATUS:
STATE:CLOSED
----
Resp:
AT+CIPSTART="TCP","api.thingspeak.com",80
CONNECT OK
----
Msg: Connected!
Resp:
AT+GPSRD=2

OK
----
Msg: GPS Read Set!
Msg: Getting data from GPS using AT Cmd
Resp:
$GNGGA,221059.000,4900.5194,N,00825.4517,E,1,4,2.67,108.0,M,47.9,M,,*47

$GPGSA,A,3,05,18,29,23,,,,,,,,,2.83,2.67,0.95*02

$BDGSA,A,3,,,,,,,,,,,,,2.83,2.67,0.95*15

$GPGSV,3,1,10,26,76,223,14,18,74,098,17,16,49,302,,29,24,080,23*7B

$GPGSV,3,2,10,27,24,274,,23,23,141,28,05,17,041,28,31,17,205,*7A

$GPGSV,3,3,10,10,04,165,,38,,,*44

$BDGSV,1,1,00*68

$GNRMC,221059.000,A,4900.5194,N,00825.4517,E,1.632,288.85,131221,,,A*4A

$GNVTG,288.85,T,,M,1.632,N,3.024,K,A*2F
---
Msg: Getting data from GPS using AT done
Resp:
AT+GPSRD=0

OK
----
Msg: GPS Read Off!
Msg: Getting data from Sensors
Msg: Failed to perform reading!
Resp:
AT+CIPSEND

>
----
Msg: Send Started!
Resp:
GET https://api.thingspeak.com/update?api_key=AYKVFH212TKGNW2B&field1=2.00&field2=17.00&field3=50.00&field4=24.00&field5=32.00&field6=$GNGGA,221059.000,4900.5194,N,00825.4517,E,1,4,2.67,108.0,M,47.9,M,,*47

----
Resp:

OK

+CIPRCV,3:228


CLOSED
----
Msg: Send Completed!
Resp:
AT+CIPSTATUS
+CIPSTATUS:
STATE:CLOSED
----
Resp:
AT+CIPSTART="TCP","api.thingspeak.com",80
CONNECT OK
----
Msg: Connected!
