
【2021-35-22 14:35:58 462】Res
【2021-35-22 14:35:58 471】p:


【2021-35-22 14:35:58 478】+CREG: 2
【2021-35-22 14:35:58 486】

^ST
【2021-35-22 14:35:58 496】N: 37
+C
【2021-35-22 14:35:58 508】TZV:21/12/22
【2021-35-22 14:35:58 518】,13:35:56
【2021-35-22 14:35:58 529】,+01

+CRE
【2021-35-22 14:35:58 542】G: 1

A9/A
【2021-35-22 14:35:58 555】9G
V02.02.2
【2021-35-22 14:35:58 568】0190915R
Ai
【2021-35-22 14:35:58 582】_Thinker_Co._Lt
【2021-35-22 14:35:58 596】d.
READY
-
【2021-35-22 14:35:58 612】---
Init Ready
【2021-35-22 14:35:58 628】 Done!
Resp:

----
Resp:
AT

OK
----
Resp:
AT+CPIN?

+CPIN:READY
----
Msg: SIM PIN is ready!
Resp:
AT+CREG=1

OK
----
Msg: Netwoek Set!
Resp:
AT+CREG?

+CREG: 1
----
Msg: Network Registered!
Resp:
AT+GPS=1

OK
----
Msg: GPS Set!
Resp:
AT+CGATT=1

+CGATT:1

OK
----
Msg: PS Attached!
Resp:
AT+CGDCONT?

OK
----
Msg: Context Set!
Resp:
AT+CGDCONT=1,"IP","pinternet.interkom.de"

OK
----
Msg: Context Changed!
Resp:
AT+CGACT=1,1

OK
----
Msg: Context Selected!
Resp:
AT+CGACT?

+CGACT: 1, 1
----
Msg: Context is Correct!
Resp:
AT+CIPSTATUS
+CIPSTATUS:
STATE:IP INITIAL
----
Msg: Status INITIAL!
Resp:
AT+CIPSTART="TCP","api.thingspeak.com",80
CONNECT OK
----
Msg: Connected!
Resp:
AT+GPSRD=5

OK
----
Msg: GPS Read Set!
Msg: Getting data from GPS using AT Cmd
Resp:
$GNGGA,133613.086,4900.5432,N,00825.5039,E,0,0,,152.0,M,47.9,M,,*57
$GPGSA,A,1,,,,,,,,,,,,,,,*1E
$BDGSA,A,1,,,,,,,,,,,,,,,*0F
$GPGSV,3,1,11,15,72,221,,13,57,141,20,24,45,279,,14,38,055,*78
$GPGSV,3,2,11,17,31,095,37,23,30,293,,19,23,124,29,10,14,325,*7B
$GPGSV,3,3,11,12,10,215,,30,08,086,,05,07,198,*4A
$BDGSV,1,1,00*68
$GNRMC,133613.086,V,4900.5432,N,00825.5039,E,0.000,0.00,221221,,,N*5E
$GNVTG,0.00,T,,M,0.000,N,0.000,K,N*2C
---
Msg: Getting data from GPS using AT done
Resp:
AT+GPSRD=0

OK
----
Msg: GPS Read Off!
Msg: Getting data from Sensors
Resp:
AT+CIPSEND

>
----
Msg: Send Started!
Resp:
GET https://api.thingspeak.com/update?api_key=AYKVFH212TKGNW2B&field1=22.71&field2=44.95&field3=1010.31&field4=12.00&field5=19.40&field6=$GNGGA,133613.086,4900.5432,N,00825.5039,E,0,0,,152.0,M,47.9,M,,*57

----
Resp:

OK



+CIPRCV,4:1255
CLOSED
----
Msg: Send Completed!
Resp:
AT+CIPSTATUS
+CIPSTATUS:
STATE:CLOSED
----
Resp:
AT+CIPSTART="TCP","api.thingspeak.com",80
CONNECT OK
----
Msg: Connected!
Resp:
AT+GPSRD=5

OK
----
Msg: GPS Read Set!
Msg: Getting data from GPS using AT Cmd
Resp:
$GNGGA,133633.290,9000.0000,N,00000.0000,E,0,0,,137.0,M,13.0,M,,*5F
$GPGSA,A,1,,,,,,,,,,,,,,,*1E
$BDGSA,A,1,,,,,,,,,,,,,,,*0F
$GPGSV,1,1,03,17,,,34,19,,,28,13,,,16*7C
$BDGSV,1,1,00*68
$GNRMC,133633.290,V,9000.0000,N,00000.0000,E,0.000,0.00,221221,,,N*5D
$GNVTG,0.00,T,,M,0.000,N,0.000,K,N*2C
---
Msg: Getting data from GPS using AT done
Resp:
AT+GPSRD=0

OK
----
Msg: GPS Read Off!
Msg: Getting data from Sensors
Resp:
AT+CIPSEND

>
----
Msg: Send Started!
Resp:
GET https://api.thingspeak.com/update?api_key=AYKVFH212TKGNW2B&field1=22.79&field2=44.06&field3=1010.33&field4=12.40&field5=19.50&field6=$GNGGA,133633.290,9000.0000,N,00000.0000,E,0,0,,137.0,M,13.0,M,,*5F

----
Resp:

OK



+CIPRCV,1:1
CLOSED
----
Msg: Send Completed!
Resp:
AT+CIPSTATUS
+CIPSTATUS:
STATE:CLOSED
----
Resp:
AT+CIPSTART="TCP","api.thingspeak.com",80
CONNECT OK
----
Msg: Connected!
Resp:
AT+GPSRD=5

OK
----
Msg: GPS Read Set!
Msg: Getting data from GPS using AT Cmd
Resp:
$GNGGA,133653.306,9000.0000,N,00000.0000,E,0,0,,137.0,M,13.0,M,,*57
$GPGSA,A,1,,,,,,,,,,,,,,,*1E
$BDGSA,A,1,,,,,,,,,,,,,,,*0F
$GPGSV,1,1,03,13,,,14,17,,,36,19,,,28*7C
$BDGSV,1,1,00*68
$GNRMC,133653.306,V,9000.0000,N,00000.0000,E,0.000,0.00,221221,,,N*55
$GNVTG,0.00,T,,M,0.000,N,0.000,K,N*2C
---
Msg: Getting data from GPS using AT done
Resp:
AT+GPSRD=0

OK
----
Msg: GPS Read Off!
Msg: Getting data from Sensors
Resp:
AT+CIPSEND

>
----
Msg: Send Started!
Resp:
GET https://api.thingspeak.com/update?api_key=AYKVFH212TKGNW2B&field1=23.05&field2=42.73&field3=1010.34&field4=12.40&field5=18.40&field6=$GNGGA,133653.306,9000.0000,N,00000.0000,E,0,0,,137.0,M,13.0,M,,*57

----
Resp:

OK



+CIPRCV,1:2
CLOSED
----
Msg: Send Completed!
Resp:
AT+CIPSTATUS
+CIPSTATUS:
STATE:CLOSED
----
Resp:
AT+CIPSTART="TCP","api.thingspeak.com",80
CONNECT OK
----
Msg: Connected!
Resp:
AT+GPSRD=5

OK
----
Msg: GPS Read Set!
Msg: Getting data from GPS using AT Cmd
Resp:
$GNGGA,133713.094,9000.0000,N,00000.0000,E,0,0,,137.0,M,13.0,M,,*5A
$GPGSA,A,1,,,,,,,,,,,,,,,*1E
$BDGSA,A,1,,,,,,,,,,,,,,,*0F
$GPGSV,1,1,03,13,,,14,17,,,35,19,,,29*7E
$BDGSV,1,1,00*68
$GNRMC,133713.094,V,9000.0000,N,00000.0000,E,0.000,0.00,221221,,,N*58
$GNVTG,0.00,T,,M,0.000,N,0.000,K,N*2C
---
Msg: Getting data from GPS using AT done
Resp:
AT+GPSRD=0

OK
----
Msg: GPS Read Off!
Msg: Getting data from Sensors
Resp:
AT+CIPSEND

>
----
Msg: Send Started!
Resp:
GET https://api.thingspeak.com/update?api_key=AYKVFH212TKGNW2B&field1=23.42&field2=41.49&field3=1010.36&field4=13.50&field5=21.50&field6=$GNGGA,133713.094,9000.0000,N,00000.0000,E,0,0,,137.0,M,13.0,M,,*5A

----
Resp:

OK



+CIPRCV,1:3
CLOSED
----
Msg: Send Completed!
Resp:
AT+CIPSTATUS
+CIPSTATUS:
STATE:CLOSED
----
Resp:
AT+CIPSTART="TCP","api.thingspeak.com",80
CONNECT OK
----
Msg: Connected!
Resp:
AT+GPSRD=5

OK
----
Msg: GPS Read Set!
Msg: Getting data from GPS using AT Cmd
Resp:
$GNGGA,133733.304,9000.0000,N,00000.0000,E,0,0,,137.0,M,13.0,M,,*52
$GPGSA,A,1,,,,,,,,,,,,,,,*1E
$BDGSA,A,1,,,,,,,,,,,,,,,*0F
$GPGSV,1,1,03,13,,,24,17,,,34,19,,,29*7C
$BDGSV,1,1,00*68
$GNRMC,133733.304,V,9000.0000,N,00000.0000,E,0.000,0.00,221221,,,N*50
$GNVTG,0.00,T,,M,0.000,N,0.000,K,N*2C
---
Msg: Getting data from GPS using AT done
Resp:
AT+GPSRD=0

OK
----
Msg: GPS Read Off!
Msg: Getting data from Sensors
Resp:
AT+CIPSEND

>
----
Msg: Send Started!
Resp:
GET https://api.thingspeak.com/update?api_key=AYKVFH212TKGNW2B&field1=23.86&field2=40.38&field3=1010.37&field4=13.60&field5=21.50&field6=$GNGGA,133733.304,9000.0000,N,00000.0000,E,0,0,,137.0,M,13.0,M,,*52

----
Resp:

OK



+CIPRCV,1:4
CLOSED
----
Msg: Send Completed!
Resp:
AT+CIPSTATUS
+CIPSTATUS:
STATE:CLOSED
----
Resp:
AT+CIPSTART="TCP","api.thingspeak.com",80
CONNECT OK
----
Msg: Connected!
Resp:
AT+GPSRD=5

OK
----
Msg: GPS Read Set!
Msg: Getting data from GPS using AT Cmd
Resp:
$GNGGA,133753.088,9000.0000,N,00000.0000,E,0,0,,137.0,M,13.0,M,,*53
$GPGSA,A,1,,,,,,,,,,,,,,,*1E
$BDGSA,A,1,,,,,,,,,,,,,,,*0F
$GPGSV,1,1,04,13,,,26,17,,,33,19,,,28,30,,,26*78
$BDGSV,1,1,00*68
$GNRMC,133753.088,V,9000.0000,N,00000.0000,E,0.000,0.00,221221,,,N*51
$GNVTG,0.00,T,,M,0.000,N,0.000,K,N*2C
---
Msg: Getting data from GPS using AT done
Resp:
AT+GPSRD=0

OK
----
Msg: GPS Read Off!
Msg: Getting data from Sensors
Resp:
AT+CIPSEND

>
----
Msg: Send Started!
Resp:
GET https://api.thingspeak.com/update?api_key=AYKVFH212TKGNW2B&field1=24.32&field2=39.34&field3=1010.39&field4=14.60&field5=22.30&field6=$GNGGA,133753.088,9000.0000,N,00000.0000,E,0,0,,137.0,M,13.0,M,,*53

----
Resp:

OK



+CIPRCV,1:5
CLOSED
----
Msg: Send Completed!
Resp:
AT+CIPSTATUS
+CIPSTATUS:
STATE:CLOSED
----
Resp:
AT+CIPSTART="TCP","api.thingspeak.com",80
CONNECT OK
----
Msg: Connected!
Resp:
AT+GPSRD=5

OK
----
Msg: GPS Read Set!
Msg: Getting data from GPS using AT Cmd
Resp:
$GNGGA,133813.000,4900.5163,N,00825.4693,E,1,4,2.41,130.1,M,47.9,M,,*48
$GPGSA,A,3,17,19,13,10,,,,,,,,,2.59,2.41,0.96*09
$BDGSA,A,3,,,,,,,,,,,,,2.59,2.41,0.96*15
$GPGSV,3,1,12,15,71,218,,13,56,141,23,24,45,279,,14,37,055,24*79
$GPGSV,3,2,12,17,32,094,35,37,32,162,,23,30,292,,19,24,123,30*71
$GPGSV,3,3,12,10,15,324,17,12,11,215,,30,07,087,28,05,06,197,*74
$BDGSV,1,1,00*68
$GNRMC,133813.000,A,4900.5163,N,00825.4693,E,2.054,101.35,221221,,,A*45
$GNVTG,101.35,T,,M,2.054,N,3.805,K,A*28
---
Msg: Getting data from GPS using AT done
Resp:
AT+GPSRD=0

OK
----
Msg: GPS Read Off!
Msg: Getting data from Sensors
Resp:
AT+CIPSEND

>
----
Msg: Send Started!
Resp:
GET https://api.thingspeak.com/update?api_key=AYKVFH212TKGNW2B&field1=24.80&field2=38.58&field3=1010.39&field4=13.60&field5=22.00&field6=$GNGGA,133813.000,4900.5163,N,00825.4693,E,1,4,2.41,130.1,M,47.9,M,,*48

----
Resp:

OK

+CIPRCV,1:6


CLOSED
----
Msg: Send Completed!
Resp:
AT+CIPSTATUS
+CIPSTATUS:
STATE:CLOSED
----
Resp:
AT+CIPSTART="TCP","api.thingspeak.com",80
CONNECT OK
----
Msg: Connected!
Resp:
AT+GPSRD=5

OK
----
Msg: GPS Read Set!
Msg: Getting data from GPS using AT Cmd
Resp:
$GNGGA,133833.000,4900.5156,N,00825.4529,E,1,5,1.86,135.9,M,47.9,M,,*4A
$GPGSA,A,3,17,19,13,30,10,,,,,,,,2.08,1.86,0.95*05
$BDGSA,A,3,,,,,,,,,,,,,2.08,1.86,0.95*1A
$GPGSV,3,1,12,15,71,218,,13,56,141,21,24,46,280,,14,37,055,24*7E
$GPGSV,3,2,12,17,32,094,34,23,30,292,,19,24,123,30,10,15,324,16*77
$GPGSV,3,3,12,40,13,117,,12,11,215,,30,07,087,27,05,06,197,*7C
$BDGSV,1,1,00*68
$GNRMC,133833.000,A,4900.5156,N,00825.4529,E,0.350,89.57,221221,,,A*73
$GNVTG,89.57,T,,M,0.350,N,0.649,K,A*1D
---
Msg: Getting data from GPS using AT done
Resp:
AT+GPSRD=0

OK
----
Msg: GPS Read Off!
Msg: Getting data from Sensors
Resp:
AT+CIPSEND

>
----
Msg: Send Started!
Resp:
GET https://api.thingspeak.com/update?api_key=AYKVFH212TKGNW2B&field1=25.27&field2=37.83&field3=1010.39&field4=14.00&field5=23.90&field6=$GNGGA,133833.000,4900.5156,N,00825.4529,E,1,5,1.86,135.9,M,47.9,M,,*4A

----
Resp:

OK



+CIPRCV,1:7
CLOSED
----
Msg: Send Completed!
Resp:
AT+CIPSTATUS
+CIPSTATUS:
STATE:CLOSED
----
Resp:
AT+CIPSTART="TCP","api.thingspeak.com",80
CONNECT OK
----
Msg: Connected!
Resp:
AT+GPSRD=5

OK
----
Msg: GPS Read Set!
Msg: Getting data from GPS using AT Cmd
Resp:
$GNGGA,133854.000,4900.5210,N,00825.4519,E,1,5,1.85,138.6,M,47.9,M,,*48
$GPGSA,A,3,17,19,13,30,10,,,,,,,,2.08,1.85,0.95*06
$BDGSA,A,3,,,,,,,,,,,,,2.08,1.85,0.95*19
$GPGSV,3,1,12,15,71,218,,13,56,141,23,24,46,280,,14,37,055,26*7E
$GPGSV,3,2,12,17,32,094,33,37,32,162,,23,30,292,,19,24,123,28*7E
$GPGSV,3,3,12,10,15,324,13,12,11,215,,30,07,087,27,05,06,197,*7F
$BDGSV,1,1,00*68
$GNRMC,133854.000,A,4900.5210,N,00825.4519,E,0.394,39.03,221221,,,A*72
$GNVTG,39.03,T,,M,0.394,N,0.730,K,A*10
---
Msg: Getting data from GPS using AT done
Resp:
AT+GPSRD=0

OK
----
Msg: GPS Read Off!
Msg: Getting data from Sensors
Resp:
AT+CIPSEND

>
----
Msg: Send Started!
Resp:
GET https://api.thingspeak.com/update?api_key=AYKVFH212TKGNW2B&field1=25.71&field2=37.21&field3=1010.41&field4=14.80&field5=27.90&field6=$GNGGA,133854.000,4900.5210,N,00825.4519,E,1,5,1.85,138.6,M,47.9,M,,*48

----
Resp:

OK



+CIPRCV,1:8
CLOSED
----
Msg: Send Completed!
Resp:
AT+CIPSTATUS
+CIPSTATUS:
STATE:CLOSED
----
Resp:
AT+CIPSTART="TCP","api.thingspeak.com",80
CONNECT OK
----
Msg: Connected!
Resp:
AT+GPSRD=5

OK
----
Msg: GPS Read Set!
Msg: Getting data from GPS using AT Cmd
Resp:
$GNGGA,133914.000,4900.5196,N,00825.4533,E,1,6,1.48,139.5,M,47.9,M,,*48
$GPGSA,A,3,17,19,13,30,14,10,,,,,,,1.73,1.48,0.89*00
$BDGSA,A,3,,,,,,,,,,,,,1.73,1.48,0.89*1A
$GPGSV,3,1,12,15,71,218,,13,56,141,25,24,46,280,,14,37,055,26*78
$GPGSV,3,2,12,17,32,094,32,23,30,292,,33,29,210,,19,24,123,26*79
$GPGSV,3,3,12,10,15,324,14,12,11,215,,30,07,087,27,05,06,197,*78
$BDGSV,1,1,00*68
$GNRMC,133914.000,A,4900.5196,N,00825.4533,E,1.349,140.29,221221,,,A*44
$GNVTG,140.29,T,,M,1.349,N,2.500,K,A*25
---
Msg: Getting data from GPS using AT done
Resp:
AT+GPSRD=0

OK
----
Msg: GPS Read Off!
Msg: Getting data from Sensors
Resp:
AT+CIPSEND

>
----
Msg: Send Started!
Resp:
GET https://api.thingspeak.com/update?api_key=AYKVFH212TKGNW2B&field1=26.13&field2=36.51&field3=1010.41&field4=15.60&field5=26.50&field6=$GNGGA,133914.000,4900.5196,N,00825.4533,E,1,6,1.48,139.5,M,47.9,M,,*48

----
Resp:

OK



+CIPRCV,1:9
CLOSED
----
Msg: Send Completed!
Resp:
AT+CIPSTATUS
+CIPSTATUS:
STATE:CLOSED
----
Resp:
AT+CIPSTART="TCP","api.thingspeak.com",80
CONNECT OK
----
Msg: Connected!
Resp:
AT+GPSRD=5

OK
----
Msg: GPS Read Set!
Msg: Getting data from GPS using AT Cmd
Resp:
$GNGGA,133934.000,4900.5200,N,00825.4544,E,1,6,1.48,140.4,M,47.9,M,,*49
$GPGSA,A,3,17,19,13,30,14,10,,,,,,,1.73,1.48,0.90*08
$BDGSA,A,3,,,,,,,,,,,,,1.73,1.48,0.90*12
$GPGSV,3,1,12,15,71,216,,13,55,142,24,24,46,280,,14,36,055,27*77
$GPGSV,3,2,12,17,32,094,32,23,30,292,17,19,24,123,27,10,15,324,12*75
$GPGSV,3,3,12,44,12,116,,12,11,215,,30,07,087,25,05,06,197,*7A
$BDGSV,1,1,00*68
$GNRMC,133934.000,A,4900.5200,N,00825.4544,E,1.383,104.75,221221,,,A*45
$GNVTG,104.75,T,,M,1.383,N,2.563,K,A*2F
---
Msg: Getting data from GPS using AT done
Resp:
AT+GPSRD=0

OK
----
Msg: GPS Read Off!
Msg: Getting data from Sensors
Resp:
AT+CIPSEND

>
----
Msg: Send Started!
Resp:
GET https://api.thingspeak.com/update?api_key=AYKVFH212TKGNW2B&field1=26.53&field2=35.95&field3=1010.42&field4=15.20&field5=23.50&field6=$GNGGA,133934.000,4900.5200,N,00825.4544,E,1,6,1.48,140.4,M,47.9,M,,*49

----
Resp:

OK



+CIPRCV,2:10
CLOSED
----
Msg: Send Completed!
Resp:
AT+CIPSTATUS
+CIPSTATUS:
STATE:CLOSED
----
Resp:
AT+CIPSTART="TCP","api.thingspeak.com",80
CONNECT OK
----
Msg: Connected!
Resp:
AT+GPSRD=5

OK
----
Msg: GPS Read Set!
Msg: Getting data from GPS using AT Cmd
Resp:
$GNGGA,133955.000,4900.5239,N,00825.4536,E,1,5,2.76,141.3,M,47.9,M,,*4A
$GPGSA,A,3,17,19,13,30,14,,,,,,,,2.93,2.76,0.98*02
$BDGSA,A,3,,,,,,,,,,,,,2.93,2.76,0.98*19
$GPGSV,4,1,13,15,71,216,,13,55,142,24,24,46,280,,14,36,055,28*7E
$GPGSV,4,2,13,17,32,093,33,23,30,291,15,19,24,123,28,10,15,324,*78
$GPGSV,4,3,13,12,11,215,,30,06,087,26,05,06,197,,21,01,020,*7B
$GPGSV,4,4,13,36,,,*7E
$BDGSV,1,1,00*68
$GNRMC,133955.000,A,4900.5239,N,00825.4536,E,0.928,27.64,221221,,,A*77
$GNVTG,27.64,T,,M,0.928,N,1.720,K,A*13
---
Msg: Getting data from GPS using AT done
Resp:
AT+GPSRD=0

OK
----
Msg: GPS Read Off!
Msg: Getting data from Sensors
Resp:
AT+CIPSEND

>
----
Msg: Send Started!
Resp:
GET https://api.thingspeak.com/update?api_key=AYKVFH212TKGNW2B&field1=26.90&field2=35.32&field3=1010.42&field4=13.90&field5=18.70&field6=$GNGGA,133955.000,4900.5239,N,00825.4536,E,1,5,2.76,141.3,M,47.9,M,,*4A

----
Resp:

OK



+CIPRCV,2:11
CLOSED
----
Msg: Send Completed!
Resp:
AT+CIPSTATUS
+CIPSTATUS:
STATE:CLOSED
----
Resp:
AT+CIPSTART="TCP","api.thingspeak.com",80
CONNECT OK
----
Msg: Connected!
Resp:
AT+GPSRD=5

OK
----
Msg: GPS Read Set!
Msg: Getting data from GPS using AT Cmd
Resp:
$GNGGA,134015.000,4900.5217,N,00825.4556,E,1,5,2.77,141.7,M,47.9,M,,*4F
$GPGSA,A,3,17,19,13,30,14,,,,,,,,2.94,2.77,0.98*04
$BDGSA,A,3,,,,,,,,,,,,,2.94,2.77,0.98*1F
$GPGSV,4,1,13,15,71,216,,13,55,142,21,24,46,280,,14,36,055,28*7B
$GPGSV,4,2,13,17,32,093,33,23,30,291,11,19,24,123,28,10,15,324,*7C
$GPGSV,4,3,13,12,11,215,,30,06,087,26,05,06,197,,21,01,020,*7B
$GPGSV,4,4,13,43,,,*7C
$BDGSV,1,1,00*68
$GNRMC,134015.000,A,4900.5217,N,00825.4556,E,0.463,163.70,221221,,,A*41
$GNVTG,163.70,T,,M,0.463,N,0.857,K,A*2B
---
Msg: Getting data from GPS using AT done
Resp:
AT+GPSRD=0

OK
----
Msg: GPS Read Off!
Msg: Getting data from Sensors
Resp:
AT+CIPSEND

>
----
Msg: Send Started!
Resp:
GET https://api.thingspeak.com/update?api_key=AYKVFH212TKGNW2B&field1=27.24&field2=34.81&field3=1010.43&field4=13.80&field5=20.80&field6=$GNGGA,134015.000,4900.5217,N,00825.4556,E,1,5,2.77,141.7,M,47.9,M,,*4F

----
Resp:

OK



+CIPRCV,2:12
CLOSED
----
Msg: Send Completed!
Resp:
AT+CIPSTATUS
+CIPSTATUS:
STATE:CLOSED
----
Resp:
AT+CIPSTART="TCP","api.thingspeak.com",80
CONNECT OK
----
Msg: Connected!
Resp:
AT+GPSRD=5

OK
----
Msg: GPS Read Set!
Msg: Getting data from GPS using AT Cmd
Resp:
$GNGGA,134036.000,4900.5180,N,00825.4513,E,1,5,2.77,140.7,M,47.9,M,,*43
$GPGSA,A,3,17,19,13,30,14,,,,,,,,2.94,2.77,0.98*04
$BDGSA,A,3,,,,,,,,,,,,,2.94,2.77,0.98*1F
$GPGSV,4,1,13,15,71,216,,13,55,142,22,24,46,280,,14,36,055,29*79
$GPGSV,4,2,13,17,32,093,34,23,30,291,,19,24,123,22,10,15,324,*71
$GPGSV,4,3,13,12,11,215,,30,06,087,23,05,06,197,,21,01,020,*7E
$GPGSV,4,4,13,46,,,*79
$BDGSV,1,1,00*68
$GNRMC,134036.000,A,4900.5180,N,00825.4513,E,0.466,274.24,221221,,,A*4D
$GNVTG,274.24,T,,M,0.466,N,0.863,K,A*2D
---
Msg: Getting data from GPS using AT done
Resp:
AT+GPSRD=0

OK
----
Msg: GPS Read Off!
Msg: Getting data from Sensors
Resp:
AT+CIPSEND

>
----
Msg: Send Started!
Resp:
GET https://api.thingspeak.com/update?api_key=AYKVFH212TKGNW2B&field1=27.58&field2=34.46&field3=1010.43&field4=13.70&field5=20.70&field6=$GNGGA,134036.000,4900.5180,N,00825.4513,E,1,5,2.77,140.7,M,47.9,M,,*43

----
Resp:

OK



+CIPRCV,2:13
CLOSED
----
Msg: Send Completed!
Resp:
AT+CIPSTATUS
+CIPSTATUS:
STATE:CLOSED
----
Resp:
AT+CIPSTART="TCP","api.thingspeak.com",80
CONNECT OK
----
Msg: Connected!
Resp:
AT+GPSRD=5

OK
----
Msg: GPS Read Set!
Msg: Getting data from GPS using AT Cmd
Resp:
$GNGGA,134057.000,4900.5186,N,00825.4539,E,1,6,1.47,140.7,M,47.9,M,,*49
$GPGSA,A,3,17,19,13,30,14,10,,,,,,,1.72,1.47,0.90*06
$BDGSA,A,3,,,,,,,,,,,,,1.72,1.47,0.90*1C
$GPGSV,4,1,13,15,71,215,,13,55,142,22,24,46,280,,14,36,054,29*7B
$GPGSV,4,2,13,17,32,092,34,23,30,291,,19,25,122,28,10,15,323,15*79
$GPGSV,4,3,13,12,12,216,,30,06,087,25,05,05,197,,21,01,020,*7B
$GPGSV,4,4,13,47,,,*78
$BDGSV,1,1,00*68
$GNRMC,134057.000,A,4900.5186,N,00825.4539,E,1.025,221.78,221221,,,A*4F
$GNVTG,221.78,T,,M,1.025,N,1.900,K,A*23
---
Msg: Getting data from GPS using AT done
Resp:
AT+GPSRD=0

OK
----
Msg: GPS Read Off!
Msg: Getting data from Sensors
Resp:
AT+CIPSEND

>
----
Msg: Send Started!
Resp:
GET https://api.thingspeak.com/update?api_key=AYKVFH212TKGNW2B&field1=27.88&field2=33.79&field3=1010.43&field4=13.80&field5=20.20&field6=$GNGGA,134057.000,4900.5186,N,00825.4539,E,1,6,1.47,140.7,M,47.9,M,,*49

----
Resp:

OK



+CIPRCV,2:14
CLOSED
----
Msg: Send Completed!
Resp:
AT+CIPSTATUS
+CIPSTATUS:
STATE:CLOSED
----
Resp:
AT+CIPSTART="TCP","api.thingspeak.com",80
CONNECT OK
----
Msg: Connected!
Resp:
AT+GPSRD=5

OK
----
Msg: GPS Read Set!
Msg: Getting data from GPS using AT Cmd
Resp:
$GNGGA,134117.000,4900.5196,N,00825.4435,E,1,6,1.58,139.3,M,47.9,M,,*44
$GPGSA,A,3,17,19,13,30,14,10,,,,,,,2.57,1.58,2.03*04
$BDGSA,A,3,,,,,,,,,,,,,2.57,1.58,2.03*1E
$GPGSV,4,1,13,15,71,215,,13,55,142,21,24,47,280,17,14,36,054,29*7F
$GPGSV,4,2,13,17,32,092,35,37,32,162,,23,30,290,,19,25,122,26*74
$GPGSV,4,3,13,10,15,323,12,12,12,216,,30,06,087,24,05,05,197,*7E
$GPGSV,4,4,13,21,01,020,*4B
$BDGSV,1,1,00*68
$GNRMC,134117.000,A,4900.5196,N,00825.4435,E,0.637,162.49,221221,,,A*44
$GNVTG,162.49,T,,M,0.637,N,1.180,K,A*21
---
Msg: Getting data from GPS using AT done
Resp:
AT+GPSRD=0

OK
----
Msg: GPS Read Off!
Msg: Getting data from Sensors
Resp:
AT+CIPSEND

>
----
Msg: Send Started!
Resp:
GET https://api.thingspeak.com/update?api_key=AYKVFH212TKGNW2B&field1=28.16&field2=33.24&field3=1010.43&field4=14.60&field5=18.20&field6=$GNGGA,134117.000,4900.5196,N,00825.4435,E,1,6,1.58,139.3,M,47.9,M,,*44

----
Resp:

OK



+CIPRCV,2:15
CLOSED
----
Msg: Send Completed!
Resp:
AT+CIPSTATUS
+CIPSTATUS:
STATE:CLOSED
----
Resp:
AT+CIPSTART="TCP","api.thingspeak.com",80
CONNECT OK
----
Msg: Connected!
Resp:
AT+GPSRD=5

OK
----
Msg: GPS Read Set!
Msg: Getting data from GPS using AT Cmd
Resp:
$GNGGA,134137.000,4900.5189,N,00825.4425,E,1,5,2.78,137.9,M,47.9,M,,*4F
$GPGSA,A,3,17,19,13,30,14,,,,,,,,2.95,2.78,0.98*0A
$BDGSA,A,3,,,,,,,,,,,,,2.95,2.78,0.98*11
$GPGSV,4,1,13,15,71,215,,13,55,142,22,24,47,280,,14,36,054,31*73
$GPGSV,4,2,13,17,32,092,35,23,30,290,,33,29,210,,19,25,122,22*78
$GPGSV,4,3,13,10,15,323,,12,12,216,,30,06,087,23,05,05,197,*7A
$GPGSV,4,4,13,21,01,020,*4B
$BDGSV,1,1,00*68
$GNRMC,134137.000,A,4900.5189,N,00825.4425,E,1.537,48.61,221221,,,A*78
$GNVTG,48.61,T,,M,1.537,N,2.847,K,A*11
---
Msg: Getting data from GPS using AT done
Resp:
AT+GPSRD=0

OK
----
Msg: GPS Read Off!
Msg: Getting data from Sensors
Resp:
AT+CIPSEND

>
----
Msg: Send Started!
Resp:
GET https://api.thingspeak.com/update?api_key=AYKVFH212TKGNW2B&field1=28.43&field2=32.92&field3=1010.42&field4=14.70&field5=19.40&field6=$GNGGA,134137.000,4900.5189,N,00825.4425,E,1,5,2.78,137.9,M,47.9,M,,*4F

----
Resp:

OK



+CIPRCV,2:16
CLOSED
----
Msg: Send Completed!
Resp:
AT+CIPSTATUS
+CIPSTATUS:
STATE:CLOSED
----
Resp:
AT+CIPSTART="TCP","api.thingspeak.com",80
CONNECT OK
----
Msg: Connected!
Resp:
AT+GPSRD=5

OK
----
Msg: GPS Read Set!
Msg: Getting data from GPS using AT Cmd
Resp:
$GNGGA,134158.000,4900.5187,N,00825.4552,E,1,5,2.79,136.8,M,47.9,M,,*48
$GPGSA,A,3,17,19,13,30,14,,,,,,,,2.96,2.79,0.98*08
$BDGSA,A,3,,,,,,,,,,,,,2.96,2.79,0.98*13
$GPGSV,3,1,12,15,71,215,,13,55,142,21,24,47,280,,14,36,054,31*76
$GPGSV,3,2,12,17,32,092,34,23,30,290,,19,25,122,27,10,15,323,*75
$GPGSV,3,3,12,12,12,216,,30,06,087,24,05,05,197,,21,01,020,*7C
$BDGSV,1,1,00*68
$GNRMC,134158.000,A,4900.5187,N,00825.4552,E,0.409,189.25,221221,,,A*4F
$GNVTG,189.25,T,,M,0.409,N,0.758,K,A*23
---
Msg: Getting data from GPS using AT done
Resp:
AT+GPSRD=0

OK
----
Msg: GPS Read Off!
Msg: Getting data from Sensors
Resp:
AT+CIPSEND

>
----
Msg: Send Started!
Resp:
GET https://api.thingspeak.com/update?api_key=AYKVFH212TKGNW2B&field1=28.68&field2=32.35&field3=1010.41&field4=14.70&field5=19.10&field6=$GNGGA,134158.000,4900.5187,N,00825.4552,E,1,5,2.79,136.8,M,47.9,M,,*48

----
Resp:

OK



+CIPRCV,2:17
CLOSED
----
Msg: Send Completed!
Resp:
AT+CIPSTATUS
+CIPSTATUS:
STATE:CLOSED
----
Resp:
AT+CIPSTART="TCP","api.thingspeak.com",80
CONNECT OK
----
Msg: Connected!
Resp:
AT+GPSRD=5

OK
----
Msg: GPS Read Set!
Msg: Getting data from GPS using AT Cmd
Resp:
$GNGGA,134218.000,4900.5224,N,00825.4538,E,1,5,2.79,138.7,M,47.9,M,,*48
$GPGSA,A,3,17,19,13,30,14,,,,,,,,2.96,2.79,0.98*08
$BDGSA,A,3,,,,,,,,,,,,,2.96,2.79,0.98*13
$GPGSV,4,1,13,15,70,213,,13,54,142,23,24,47,281,,14,35,054,32*75
$GPGSV,4,2,13,17,33,092,32,23,30,290,17,19,25,122,27,10,16,323,*71
$GPGSV,4,3,13,40,13,117,,12,12,216,,30,06,087,24,05,05,197,*7B
$GPGSV,4,4,13,21,01,019,*41
$BDGSV,1,1,00*68
$GNRMC,134218.000,A,4900.5224,N,00825.4538,E,0.872,332.71,221221,,,A*4D
$GNVTG,332.71,T,,M,0.872,N,1.616,K,A*2A
---
Msg: Getting data from GPS using AT done
Resp:
AT+GPSRD=0

OK
----
Msg: GPS Read Off!
Msg: Getting data from Sensors
Resp:
AT+CIPSEND

>
----
Msg: Send Started!
Resp:
GET https://api.thingspeak.com/update?api_key=AYKVFH212TKGNW2B&field1=28.91&field2=31.80&field3=1010.42&field4=14.10&field5=21.00&field6=$GNGGA,134218.000,4900.5224,N,00825.4538,E,1,5,2.79,138.7,M,47.9,M,,*48

----
Resp:

OK



+CIPRCV,2:18
CLOSED
----
Msg: Send Completed!
Resp:
AT+CIPSTATUS
+CIPSTATUS:
STATE:CLOSED
----
Resp:
AT+CIPSTART="TCP","api.thingspeak.com",80
CONNECT OK
----
Msg: Connected!
Resp:
AT+GPSRD=5

OK
----
Msg: GPS Read Set!
Msg: Getting data from GPS using AT Cmd
Resp:
$GNGGA,134238.000,4900.5203,N,00825.4606,E,1,5,2.80,139.9,M,47.9,M,,*48
$GPGSA,A,3,17,19,13,30,14,,,,,,,,2.96,2.80,0.98*0E
$BDGSA,A,3,,,,,,,,,,,,,2.96,2.80,0.98*15
$GPGSV,4,1,13,15,70,213,,13,54,142,18,24,47,281,,14,35,054,32*7D
$GPGSV,4,2,13,17,33,092,32,23,30,290,17,19,25,122,21,10,16,323,*77
$GPGSV,4,3,13,12,12,216,,30,05,088,25,05,05,197,,21,01,019,*7D
$GPGSV,4,4,13,34,,,*7C
$BDGSV,1,1,00*68
$GNRMC,134238.000,A,4900.5203,N,00825.4606,E,0.904,315.15,221221,,,A*43
$GNVTG,315.15,T,,M,0.904,N,1.675,K,A*28
---
Msg: Getting data from GPS using AT done
Resp:
AT+GPSRD=0

OK
----
Msg: GPS Read Off!
Msg: Getting data from Sensors
Resp:
AT+CIPSEND

>
----
Msg: Send Started!
Resp:
GET https://api.thingspeak.com/update?api_key=AYKVFH212TKGNW2B&field1=29.13&field2=31.53&field3=1010.40&field4=14.70&field5=19.10&field6=$GNGGA,134238.000,4900.5203,N,00825.4606,E,1,5,2.80,139.9,M,47.9,M,,*48

----
Resp:

OK



+CIPRCV,2:19
CLOSED
----
Msg: Send Completed!
Resp:
AT+CIPSTATUS
+CIPSTATUS:
STATE:CLOSED
----
Resp:
AT+CIPSTART="TCP","api.thingspeak.com",80
CONNECT OK
----
Msg: Connected!
Resp:
AT+GPSRD=5

OK
----
Msg: GPS Read Set!
Msg: Getting data from GPS using AT Cmd
Resp:
$GNGGA,134259.000,4900.5177,N,00825.4540,E,1,5,2.80,139.4,M,47.9,M,,*43
$GPGSA,A,3,17,19,13,30,14,,,,,,,,2.97,2.80,0.98*0F
$BDGSA,A,3,,,,,,,,,,,,,2.97,2.80,0.98*14
$GPGSV,4,1,13,15,70,213,,13,54,142,23,24,47,281,,14,35,054,33*74
$GPGSV,4,2,13,17,33,092,34,23,30,290,18,19,25,122,23,10,16,323,*7C
$GPGSV,4,3,13,12,12,216,,30,05,088,24,05,05,197,,21,01,019,*7C
$GPGSV,4,4,13,38,,,*70
$BDGSV,1,1,00*68
$GNRMC,134259.000,A,4900.5177,N,00825.4540,E,0.575,17.70,221221,,,A*7D
$GNVTG,17.70,T,,M,0.575,N,1.066,K,A*14
---
Msg: Getting data from GPS using AT done
Resp:
AT+GPSRD=0

OK
----
Msg: GPS Read Off!
Msg: Getting data from Sensors
Resp:
AT+CIPSEND

>
----
Msg: Send Started!
Resp:
GET https://api.thingspeak.com/update?api_key=AYKVFH212TKGNW2B&field1=29.33&field2=31.21&field3=1010.40&field4=14.20&field5=18.00&field6=$GNGGA,134259.000,4900.5177,N,00825.4540,E,1,5,2.80,139.4,M,47.9,M,,*43

----
Resp:

OK



+CIPRCV,2:20
CLOSED
----
Msg: Send Completed!
Resp:
AT+CIPSTATUS
+CIPSTATUS:
STATE:CLOSED
----
Resp:
AT+CIPSTART="TCP","api.thingspeak.com",80
CONNECT OK
----
Msg: Connected!
Resp:
AT+GPSRD=5

OK
----
Msg: GPS Read Set!
Msg: Getting data from GPS using AT Cmd
Resp:
$GNGGA,134319.000,4900.5214,N,00825.4576,E,1,6,1.46,139.1,M,47.9,M,,*4A
$GPGSA,A,3,17,19,13,30,14,10,,,,,,,1.71,1.46,0.90*04
$BDGSA,A,3,,,,,,,,,,,,,1.71,1.46,0.90*1E
$GPGSV,4,1,13,15,70,213,,13,54,142,22,24,47,281,,14,35,054,32*74
$GPGSV,4,2,13,17,33,092,34,23,30,290,14,19,25,122,22,10,16,322,13*72
$GPGSV,4,3,13,12,12,216,,30,05,088,24,05,04,197,,21,01,019,*7D
$GPGSV,4,4,13,45,,,*7A
$BDGSV,1,1,00*68
$GNRMC,134319.000,A,4900.5214,N,00825.4576,E,0.463,44.70,221221,,,A*7B
$GNVTG,44.70,T,,M,0.463,N,0.857,K,A*1F
---
Msg: Getting data from GPS using AT done
Resp:
AT+GPSRD=0

OK
----
Msg: GPS Read Off!
Msg: Getting data from Sensors
Resp:
AT+CIPSEND

>
----
Msg: Send Started!
Resp:
GET https://api.thingspeak.com/update?api_key=AYKVFH212TKGNW2B&field1=29.52&field2=30.89&field3=1010.40&field4=13.90&field5=17.70&field6=$GNGGA,134319.000,4900.5214,N,00825.4576,E,1,6,1.46,139.1,M,47.9,M,,*4A

----
Resp:

OK



+CIPRCV,2:21
CLOSED
----
Msg: Send Completed!
Resp:
AT+CIPSTATUS
+CIPSTATUS:
STATE:CLOSED
----
Resp:
AT+CIPSTART="TCP","api.thingspeak.com",80
CONNECT OK
----
Msg: Connected!
Resp:
AT+GPSRD=5

OK
----
Msg: GPS Read Set!
Msg: Getting data from GPS using AT Cmd
Resp:
$GNGGA,134339.000,4900.5223,N,00825.4575,E,1,6,1.46,138.9,M,47.9,M,,*46
$GPGSA,A,3,17,19,13,30,14,10,,,,,,,1.71,1.46,0.90*04
$BDGSA,A,3,,,,,,,,,,,,,1.71,1.46,0.90*1E
$GPGSV,4,1,13,15,70,212,,13,54,142,22,24,48,281,17,14,35,054,30*7E
$GPGSV,4,2,13,17,33,091,33,23,30,289,16,19,26,121,18,10,16,322,15*73
$GPGSV,4,3,13,12,13,216,,30,05,088,23,05,04,197,,21,01,019,*7B
$GPGSV,4,4,13,49,,,*76
$BDGSV,1,1,00*68
$GNRMC,134339.000,A,4900.5223,N,00825.4575,E,0.911,62.52,221221,,,A*72
$GNVTG,62.52,T,,M,0.911,N,1.689,K,A*1F
---
Msg: Getting data from GPS using AT done
Resp:
AT+GPSRD=0

OK
----
Msg: GPS Read Off!
Msg: Getting data from Sensors
Resp:
AT+CIPSEND

>
----
Msg: Send Started!
Resp:
GET https://api.thingspeak.com/update?api_key=AYKVFH212TKGNW2B&field1=29.70&field2=30.79&field3=1010.39&field4=13.40&field5=17.10&field6=$GNGGA,134339.000,4900.5223,N,00825.4575,E,1,6,1.46,138.9,M,47.9,M,,*46

----
Resp:

OK



+CIPRCV,2:22
CLOSED
----
Msg: Send Completed!
Resp:
AT+CIPSTATUS
+CIPSTATUS:
STATE:CLOSED
----
Resp:
AT+CIPSTART="TCP","api.thingspeak.com",80
CONNECT OK
----
Msg: Connected!
Resp:
AT+GPSRD=5

OK
----
Msg: GPS Read Set!
Msg: Getting data from GPS using AT Cmd
Resp:
$GNGGA,134400.000,4900.5197,N,00825.4595,E,1,6,1.46,139.6,M,47.9,M,,*47
$GPGSA,A,3,17,19,13,30,14,10,,,,,,,1.71,1.46,0.90*04
$BDGSA,A,3,,,,,,,,,,,,,1.71,1.46,0.90*1E
$GPGSV,4,1,13,15,70,212,,13,54,142,20,24,48,281,,14,35,054,30*7A
$GPGSV,4,2,13,17,33,091,33,23,30,289,,19,26,121,18,10,16,322,13*72
$GPGSV,4,3,13,12,13,216,,30,05,088,24,05,04,197,,21,01,019,*7C
$GPGSV,4,4,13,50,,,*7E
$BDGSV,1,1,00*68
$GNRMC,134400.000,A,4900.5197,N,00825.4595,E,0.251,255.29,221221,,,A*48
$GNVTG,255.29,T,,M,0.251,N,0.466,K,A*28
---
Msg: Getting data from GPS using AT done
Resp:
AT+GPSRD=0

OK
----
Msg: GPS Read Off!
Msg: Getting data from Sensors
Resp:
AT+CIPSEND

>
----
Msg: Send Started!
Resp:
GET https://api.thingspeak.com/update?api_key=AYKVFH212TKGNW2B&field1=29.87&field2=30.45&field3=1010.38&field4=14.70&field5=18.60&field6=$GNGGA,134400.000,4900.5197,N,00825.4595,E,1,6,1.46,139.6,M,47.9,M,,*47

----
Resp:

OK



+CIPRCV,2:23
CLOSED
----
Msg: Send Completed!
Resp:
AT+CIPSTATUS
+CIPSTATUS:
STATE:CLOSED
----
Resp:
AT+CIPSTART="TCP","api.thingspeak.com",80
CONNECT OK
----
Msg: Connected!
Resp:
AT+GPSRD=5

OK
----
Msg: GPS Read Set!
Msg: Getting data from GPS using AT Cmd
Resp:
$GNGGA,134420.000,4900.5184,N,00825.4540,E,1,6,1.45,140.2,M,47.9,M,,*46
$GPGSA,A,3,17,19,13,30,14,10,,,,,,,1.71,1.45,0.90*07
$BDGSA,A,3,,,,,,,,,,,,,1.71,1.45,0.90*1D
$GPGSV,4,1,13,15,70,212,,13,54,142,18,24,48,281,,14,35,054,30*71
$GPGSV,4,2,13,17,33,091,33,39,31,158,,23,30,289,,19,26,121,19*70
$GPGSV,4,3,13,10,16,322,13,12,13,216,,30,05,088,25,05,04,197,*70
$GPGSV,4,4,13,21,01,019,*41
$BDGSV,1,1,00*68
$GNRMC,134420.000,A,4900.5184,N,00825.4540,E,1.714,42.71,221221,,,A*7C
$GNVTG,42.71,T,,M,1.714,N,3.177,K,A*12
---
Msg: Getting data from GPS using AT done
Resp:
AT+GPSRD=0

OK
----
Msg: GPS Read Off!
Msg: Getting data from Sensors
Resp:
AT+CIPSEND

>
----
Msg: Send Started!
Resp:
GET https://api.thingspeak.com/update?api_key=AYKVFH212TKGNW2B&field1=30.02&field2=30.12&field3=1010.37&field4=14.10&field5=16.80&field6=$GNGGA,134420.000,4900.5184,N,00825.4540,E,1,6,1.45,140.2,M,47.9,M,,*46

----
Resp:

OK



+CIPRCV,2:24
CLOSED
----
Msg: Send Completed!
Resp:
AT+CIPSTATUS
+CIPSTATUS:
STATE:CLOSED
----
Resp:
AT+CIPSTART="TCP","api.thingspeak.com",80
CONNECT OK
----
Msg: Connected!
Resp:
AT+GPSRD=5

OK
----
Msg: GPS Read Set!
Msg: Getting data from GPS using AT Cmd
Resp:
$GNGGA,134440.000,4900.5178,N,00825.4452,E,1,6,1.57,139.6,M,47.9,M,,*48
$GPGSA,A,3,17,19,13,30,14,10,,,,,,,2.58,1.57,2.05*02
$BDGSA,A,3,,,,,,,,,,,,,2.58,1.57,2.05*18
$GPGSV,4,1,13,15,70,212,,13,53,143,16,24,48,281,,14,34,054,31*79
$GPGSV,4,2,13,17,33,091,35,23,30,289,14,19,26,121,18,10,16,322,14*76
$GPGSV,4,3,13,12,13,216,,40,13,117,,30,05,088,25,05,04,196,*77
$GPGSV,4,4,13,21,01,019,*41
$BDGSV,1,1,00*68
$GNRMC,134440.000,A,4900.5178,N,00825.4452,E,0.824,32.54,221221,,,A*76
$GNVTG,32.54,T,,M,0.824,N,1.527,K,A*1C
---
Msg: Getting data from GPS using AT done
Resp:
AT+GPSRD=0

OK
----
Msg: GPS Read Off!
Msg: Getting data from Sensors
Resp:
AT+CIPSEND

>
----
Msg: Send Started!
Resp:
GET https://api.thingspeak.com/update?api_key=AYKVFH212TKGNW2B&field1=30.17&field2=29.98&field3=1010.37&field4=14.60&field5=19.60&field6=$GNGGA,134440.000,4900.5178,N,00825.4452,E,1,6,1.57,139.6,M,47.9,M,,*48

----
Resp:

OK



+CIPRCV,2:25
CLOSED
----
Msg: Send Completed!
Resp:
AT+CIPSTATUS
+CIPSTATUS:
STATE:CLOSED
----
Resp:
AT+CIPSTART="TCP","api.thingspeak.com",80
CONNECT OK
----
Msg: Connected!
Resp:
AT+GPSRD=5

OK
----
Msg: GPS Read Set!
Msg: Getting data from GPS using AT Cmd
Resp:
$GNGGA,134501.000,4900.5179,N,00825.4293,E,1,5,5.33,136.4,M,47.9,M,,*4E
$GPGSA,A,3,17,19,13,30,14,,,,,,,,6.95,5.33,4.47*00
$BDGSA,A,3,,,,,,,,,,,,,6.95,5.33,4.47*1B
$GPGSV,4,1,13,15,70,210,,13,53,143,16,24,48,281,,14,34,054,30*7A
$GPGSV,4,2,13,17,33,090,35,37,32,162,,23,30,288,18,19,26,121,22*73
$GPGSV,4,3,13,10,16,322,,12,13,216,,30,05,088,26,05,04,196,*70
$GPGSV,4,4,13,21,01,018,*40
$BDGSV,1,1,00*68
$GNRMC,134501.000,A,4900.5179,N,00825.4293,E,1.327,352.68,221221,,,A*4B
$GNVTG,352.68,T,,M,1.327,N,2.458,K,A*25
---
Msg: Getting data from GPS using AT done
Resp:
AT+GPSRD=0

OK
----
Msg: GPS Read Off!
Msg: Getting data from Sensors
Resp:
AT+CIPSEND

>
----
Msg: Send Started!
Resp:
GET https://api.thingspeak.com/update?api_key=AYKVFH212TKGNW2B&field1=30.31&field2=29.79&field3=1010.36&field4=14.30&field5=19.90&field6=$GNGGA,134501.000,4900.5179,N,00825.4293,E,1,5,5.33,136.4,M,47.9,M,,*4E

----
Resp:

OK



+CIPRCV,2:26
CLOSED
----
Msg: Send Completed!
Resp:
AT+CIPSTATUS
+CIPSTATUS:
STATE:CLOSED
----
Resp:
AT+CIPSTART="TCP","api.thingspeak.com",80
CONNECT OK
----
Msg: Connected!
Resp:
AT+GPSRD=5

OK
----
Msg: GPS Read Set!
Msg: Getting data from GPS using AT Cmd
Resp:
$GNGGA,134521.000,4900.5201,N,00825.4277,E,1,5,2.83,133.7,M,47.9,M,,*40
$GPGSA,A,3,17,19,13,30,14,,,,,,,,2.99,2.83,0.98*02
$BDGSA,A,3,,,,,,,,,,,,,2.99,2.83,0.98*19
$GPGSV,4,1,13,15,70,210,,13,53,143,11,24,48,281,,14,34,054,29*75
$GPGSV,4,2,13,17,33,090,35,23,30,288,17,33,29,210,,19,26,121,24*72
$GPGSV,4,3,13,10,16,322,,12,13,216,,30,05,088,27,05,04,196,*71
$GPGSV,4,4,13,21,01,018,*40
$BDGSV,1,1,00*68
$GNRMC,134521.000,A,4900.5201,N,00825.4277,E,0.170,90.53,221221,,,A*7B
$GNVTG,90.53,T,,M,0.170,N,0.315,K,A*1D
---
Msg: Getting data from GPS using AT done
Resp:
AT+GPSRD=0

OK
----
Msg: GPS Read Off!
Msg: Getting data from Sensors
Resp:
AT+CIPSEND

>
----
Msg: Send Started!
Resp:
GET https://api.thingspeak.com/update?api_key=AYKVFH212TKGNW2B&field1=30.44&field2=29.64&field3=1010.35&field4=14.60&field5=22.10&field6=$GNGGA,134521.000,4900.5201,N,00825.4277,E,1,5,2.83,133.7,M,47.9,M,,*40

----
Resp:

OK



+CIPRCV,2:27
CLOSED
----
Msg: Send Completed!
Resp:
AT+CIPSTATUS
+CIPSTATUS:
STATE:CLOSED
----
Resp:
AT+CIPSTART="TCP","api.thingspeak.com",80
CONNECT OK
----
Msg: Connected!
Resp:
AT+GPSRD=5

OK
----
Msg: GPS Read Set!
Msg: Getting data from GPS using AT Cmd
Resp:
$GNGGA,134541.000,4900.5185,N,00825.4413,E,1,5,2.83,134.1,M,47.9,M,,*4C
$GPGSA,A,3,17,19,13,30,14,,,,,,,,3.00,2.83,0.98*03
$BDGSA,A,3,,,,,,,,,,,,,3.00,2.83,0.98*18
$GPGSV,4,1,13,15,70,210,,13,53,143,17,24,48,281,,14,34,054,30*7B
$GPGSV,4,2,13,17,33,090,35,23,30,288,,19,26,121,24,10,16,322,*79
$GPGSV,4,3,13,12,13,216,,44,12,116,,30,05,088,28,05,04,196,*7E
$GPGSV,4,4,13,21,01,018,*40
$BDGSV,1,1,00*68
$GNRMC,134541.000,A,4900.5185,N,00825.4413,E,1.441,88.68,221221,,,A*71
$GNVTG,88.68,T,,M,1.441,N,2.670,K,A*1E
---
Msg: Getting data from GPS using AT done
Resp:
AT+GPSRD=0

OK
----
Msg: GPS Read Off!
Msg: Getting data from Sensors
Resp:
AT+CIPSEND

>
----
Msg: Send Started!
Resp:
GET https://api.thingspeak.com/update?api_key=AYKVFH212TKGNW2B&field1=30.57&field2=29.51&field3=1010.34&field4=14.00&field5=21.30&field6=$GNGGA,134541.000,4900.5185,N,00825.4413,E,1,5,2.83,134.1,M,47.9,M,,*4C

----
Resp:

OK



+CIPRCV,2:28
CLOSED
----
Msg: Send Completed!
Resp:
AT+CIPSTATUS
+CIPSTATUS:
STATE:CLOSED
----
Resp:
AT+CIPSTART="TCP","api.thingspeak.com",80
CONNECT OK
----
Msg: Connected!
Resp:
AT+GPSRD=5

OK
----
Msg: GPS Read Set!
Msg: Getting data from GPS using AT Cmd
Resp:
$GNGGA,134602.000,4900.5218,N,00825.4639,E,1,5,2.84,137.0,M,47.9,M,,*40
$GPGSA,A,3,17,19,13,30,14,,,,,,,,3.00,2.84,0.97*0B
$BDGSA,A,3,,,,,,,,,,,,,3.00,2.84,0.97*10
$GPGSV,3,1,12,15,69,209,,13,52,143,18,24,48,281,,14,34,054,30*73
$GPGSV,3,2,12,17,33,090,34,23,30,288,,19,27,120,22,10,16,322,*78
$GPGSV,3,3,12,12,14,216,,30,05,088,28,05,03,196,,21,01,018,*76
$BDGSV,1,1,00*68
$GNRMC,134602.000,A,4900.5218,N,00825.4639,E,1.281,53.80,221221,,,A*72
$GNVTG,53.80,T,,M,1.281,N,2.374,K,A*15
---
Msg: Getting data from GPS using AT done
Resp:
AT+GPSRD=0

OK
----
Msg: GPS Read Off!
Msg: Getting data from Sensors
Resp:
AT+CIPSEND

>
----
Msg: Send Started!
Resp:
GET https://api.thingspeak.com/update?api_key=AYKVFH212TKGNW2B&field1=30.69&field2=29.22&field3=1010.33&field4=12.50&field5=19.90&field6=$GNGGA,134602.000,4900.5218,N,00825.4639,E,1,5,2.84,137.0,M,47.9,M,,*40

----
Resp:

OK



+CIPRCV,2:29
CLOSED
----
Msg: Send Completed!
Resp:
AT+CIPSTATUS
+CIPSTATUS:
STATE:CLOSED
----
Resp:
AT+CIPSTART="TCP","api.thingspeak.com",80
CONNECT OK
----
Msg: Connected!
Resp:
AT+GPSRD=5

OK
----
Msg: GPS Read Set!
Msg: Getting data from GPS using AT Cmd
Resp:
$GNGGA,134622.000,4900.5180,N,00825.4670,E,1,4,3.34,138.1,M,47.9,M,,*48
$GPGSA,A,3,17,19,13,14,,,,,,,,,3.48,3.34,0.99*00
$BDGSA,A,3,,,,,,,,,,,,,3.48,3.34,0.99*18
$GPGSV,4,1,13,15,69,209,,13,52,143,16,24,49,282,17,14,34,054,31*7E
$GPGSV,4,2,13,17,33,090,34,23,30,288,,19,27,120,23,10,16,322,*7F
$GPGSV,4,3,13,12,14,216,,30,04,089,29,05,03,196,,21,01,018,*71
$GPGSV,4,4,13,34,,,*7C
$BDGSV,1,1,00*68
$GNRMC,134622.000,A,4900.5180,N,00825.4670,E,2.804,68.73,221221,,,A*7F
$GNVTG,68.73,T,,M,2.804,N,5.196,K,A*1C
---
Msg: Getting data from GPS using AT done
Resp:
AT+GPSRD=0

OK
----
Msg: GPS Read Off!
Msg: Getting data from Sensors
Resp:
AT+CIPSEND

>
----
Msg: Send Started!
Resp:
GET https://api.thingspeak.com/update?api_key=AYKVFH212TKGNW2B&field1=30.80&field2=29.09&field3=1010.33&field4=13.60&field5=19.80&field6=$GNGGA,134622.000,4900.5180,N,00825.4670,E,1,4,3.34,138.1,M,47.9,M,,*48

----
Resp:

OK



+CIPRCV,2:30
CLOSED
----
Msg: Send Completed!
Resp:
AT+CIPSTATUS
+CIPSTATUS:
STATE:CLOSED
----
Resp:
AT+CIPSTART="TCP","api.thingspeak.com",80
CONNECT OK
----
Msg: Connected!
Resp:
AT+GPSRD=5

OK
----
Msg: GPS Read Set!
Msg: Getting data from GPS using AT Cmd
Resp:
$GNGGA,134642.000,4900.5194,N,00825.4705,E,1,4,3.35,138.8,M,47.9,M,,*40
$GPGSA,A,3,17,19,13,14,,,,,,,,,3.49,3.35,0.99*00
$BDGSA,A,3,,,,,,,,,,,,,3.49,3.35,0.99*18
$GPGSV,3,1,12,15,69,209,,13,52,143,16,24,49,282,,14,34,054,30*7F
$GPGSV,3,2,12,17,33,090,34,23,30,288,,19,27,120,25,10,16,322,*7F
$GPGSV,3,3,12,12,14,216,,30,04,089,30,05,03,196,,21,01,018,*7F
$BDGSV,1,1,00*68
$GNRMC,134642.000,A,4900.5194,N,00825.4705,E,0.752,74.80,221221,,,A*70
$GNVTG,74.80,T,,M,0.752,N,1.393,K,A*10
---
Msg: Getting data from GPS using AT done
Resp:
AT+GPSRD=0

OK
----
Msg: GPS Read Off!
Msg: Getting data from Sensors
Resp:
AT+CIPSEND

>
----
Msg: Send Started!
Resp:
GET https://api.thingspeak.com/update?api_key=AYKVFH212TKGNW2B&field1=30.91&field2=29.07&field3=1010.31&field4=13.80&field5=17.00&field6=$GNGGA,134642.000,4900.5194,N,00825.4705,E,1,4,3.35,138.8,M,47.9,M,,*40

----
Resp:

OK



+CIPRCV,2:31
CLOSED
----
Msg: Send Completed!
Resp:
AT+CIPSTATUS
+CIPSTATUS:
STATE:CLOSED
----
Resp:
AT+CIPSTART="TCP","api.thingspeak.com",80
CONNECT OK
----
Msg: Connected!
Resp:
AT+GPSRD=5

OK
----
Msg: GPS Read Set!
Msg: Getting data from GPS using AT Cmd
Resp:
$GNGGA,134703.000,4900.5208,N,00825.4522,E,1,5,1.53,139.4,M,47.9,M,,*4B
$GPGSA,A,3,17,19,13,14,10,,,,,,,,1.81,1.53,0.97*0B
$BDGSA,A,3,,,,,,,,,,,,,1.81,1.53,0.97*12
$GPGSV,4,1,13,15,69,209,,13,52,143,13,24,49,282,,14,34,054,30*7C
$GPGSV,4,2,13,17,33,090,36,23,30,288,,19,27,120,28,10,16,322,16*71
$GPGSV,4,3,13,12,14,216,,30,04,089,29,05,03,196,,21,01,018,*71
$GPGSV,4,4,13,36,,,*7E
$BDGSV,1,1,00*68
$GNRMC,134703.000,A,4900.5208,N,00825.4522,E,0.386,55.45,221221,,,A*72
$GNVTG,55.45,T,,M,0.386,N,0.715,K,A*1C
---
Msg: Getting data from GPS using AT done
Resp:
AT+GPSRD=0

OK
----
Msg: GPS Read Off!
Msg: Getting data from Sensors
Resp:
AT+CIPSEND

>
----
Msg: Send Started!
Resp:
GET https://api.thingspeak.com/update?api_key=AYKVFH212TKGNW2B&field1=31.01&field2=28.93&field3=1010.30&field4=14.90&field5=17.10&field6=$GNGGA,134703.000,4900.5208,N,00825.4522,E,1,5,1.53,139.4,M,47.9,M,,*4B

----
Resp:

OK



+CIPRCV,2:32
CLOSED
----
Msg: Send Completed!
Resp:
AT+CIPSTATUS
+CIPSTATUS:
STATE:CLOSED
----
Resp:
AT+CIPSTART="TCP","api.thingspeak.com",80
CONNECT OK
----
Msg: Connected!
Resp:
AT+GPSRD=5

OK
----
Msg: GPS Read Set!
Msg: Getting data from GPS using AT Cmd
Resp:
$GNGGA,134723.000,4900.5215,N,00825.4515,E,1,5,1.52,142.3,M,47.9,M,,*4B
$GPGSA,A,3,17,19,13,14,10,,,,,,,,1.80,1.52,0.97*0B
$BDGSA,A,3,,,,,,,,,,,,,1.80,1.52,0.97*12
$GPGSV,4,1,13,15,69,208,,13,52,143,18,24,49,282,,14,33,054,31*70
$GPGSV,4,2,13,17,33,089,37,23,30,287,,19,27,120,28,10,17,321,16*75
$GPGSV,4,3,13,12,15,217,,30,04,089,28,05,03,196,,21,01,017,*7F
$GPGSV,4,4,13,41,,,*7E
$BDGSV,1,1,00*68
$GNRMC,134723.000,A,4900.5215,N,00825.4515,E,1.689,89.56,221221,,,A*70
$GNVTG,89.56,T,,M,1.689,N,3.130,K,A*16
---
Msg: Getting data from GPS using AT done
Resp:
AT+GPSRD=0

OK
----
Msg: GPS Read Off!
Msg: Getting data from Sensors
Resp:
AT+CIPSEND

>
----
Msg: Send Started!
Resp:
GET https://api.thingspeak.com/update?api_key=AYKVFH212TKGNW2B&field1=31.11&field2=28.68&field3=1010.30&field4=13.60&field5=20.40&field6=$GNGGA,134723.000,4900.5215,N,00825.4515,E,1,5,1.52,142.3,M,47.9,M,,*4B

----
Resp:

OK



+CIPRCV,2:33
CLOSED
----
Msg: Send Completed!
Resp:
AT+CIPSTATUS
+CIPSTATUS:
STATE:CLOSED
----
Resp:
AT+CIPSTART="TCP","api.thingspeak.com",80
CONNECT OK
----
Msg: Connected!
Resp:
AT+GPSRD=5

OK
----
Msg: GPS Read Set!
Msg: Getting data from GPS using AT Cmd
Resp:
$GNGGA,134743.000,4900.5213,N,00825.4569,E,1,5,1.52,141.3,M,47.9,M,,*43
$GPGSA,A,3,17,19,13,14,10,,,,,,,,1.80,1.52,0.97*0B
$BDGSA,A,3,,,,,,,,,,,,,1.80,1.52,0.97*12
$GPGSV,4,1,13,15,69,208,,13,52,143,19,24,49,282,17,14,33,054,31*77
$GPGSV,4,2,13,17,33,089,36,23,30,287,,19,27,120,30,10,17,321,13*78
$GPGSV,4,3,13,12,15,217,,30,04,089,28,05,03,196,,21,01,017,*7F
$GPGSV,4,4,13,47,,,*78
$BDGSV,1,1,00*68
$GNRMC,134743.000,A,4900.5213,N,00825.4569,E,2.122,109.87,221221,,,A*4B
$GNVTG,109.87,T,,M,2.122,N,3.932,K,A*2C
---
Msg: Getting data from GPS using AT done
Resp:
AT+GPSRD=0

OK
----
Msg: GPS Read Off!
Msg: Getting data from Sensors
Resp:
AT+CIPSEND

>
----
Msg: Send Started!
Resp:
GET https://api.thingspeak.com/update?api_key=AYKVFH212TKGNW2B&field1=31.20&field2=28.33&field3=1010.28&field4=13.40&field5=21.60&field6=$GNGGA,134743.000,4900.5213,N,00825.4569,E,1,5,1.52,141.3,M,47.9,M,,*43

----
Resp:

OK



+CIPRCV,2:34
CLOSED
----
Msg: Send Completed!
Resp:
AT+CIPSTATUS
+CIPSTATUS:
STATE:CLOSED
----
Resp:
AT+CIPSTART="TCP","api.thingspeak.com",80
CONNECT OK
----
Msg: Connected!
Resp:
AT+GPSRD=5

OK
----
Msg: GPS Read Set!
Msg: Getting data from GPS using AT Cmd
Resp:
$GNGGA,134804.000,4900.5212,N,00825.4544,E,1,5,1.52,142.7,M,47.9,M,,*46
$GPGSA,A,3,17,19,13,14,10,,,,,,,,1.80,1.52,0.97*0B
$BDGSA,A,3,,,,,,,,,,,,,1.80,1.52,0.97*12
$GPGSV,4,1,13,15,69,208,,13,52,143,19,24,49,282,15,14,33,054,31*75
$GPGSV,4,2,13,17,33,089,36,37,32,162,,23,30,287,,19,27,120,32*7F
$GPGSV,4,3,13,10,17,321,17,12,15,217,,30,04,089,28,05,03,196,*7A
$GPGSV,4,4,13,21,01,017,*4F
$BDGSV,1,1,00*68
$GNRMC,134804.000,A,4900.5212,N,00825.4544,E,1.454,83.19,221221,,,A*7A
$GNVTG,83.19,T,,M,1.454,N,2.695,K,A*1C
---
Msg: Getting data from GPS using AT done
Resp:
AT+GPSRD=0

OK
----
Msg: GPS Read Off!
Msg: Getting data from Sensors
Resp:
AT+CIPSEND

>
----
Msg: Send Started!
Resp:
GET https://api.thingspeak.com/update?api_key=AYKVFH212TKGNW2B&field1=31.28&field2=28.24&field3=1010.27&field4=13.50&field5=23.00&field6=$GNGGA,134804.000,4900.5212,N,00825.4544,E,1,5,1.52,142.7,M,47.9,M,,*46

----
Resp:

OK



+CIPRCV,2:35
CLOSED
----
Msg: Send Completed!
Resp:
AT+CIPSTATUS
+CIPSTATUS:
STATE:CLOSED
----
Resp:
AT+CIPSTART="TCP","api.thingspeak.com",80
CONNECT OK
----
Msg: Connected!
Resp:
AT+GPSRD=5

OK
----
Msg: GPS Read Set!
Msg: Getting data from GPS using AT Cmd
Resp:
$GNGGA,134824.000,4900.5206,N,00825.4601,E,1,5,1.51,145.0,M,47.9,M,,*40
$GPGSA,A,3,17,19,13,14,10,,,,,,,,1.80,1.51,0.97*08
$BDGSA,A,3,,,,,,,,,,,,,1.80,1.51,0.97*11
$GPGSV,4,1,13,15,69,208,,13,52,143,17,24,49,282,16,14,33,054,31*78
$GPGSV,4,2,13,17,33,089,36,23,30,287,,19,27,120,33,10,17,321,18*70
$GPGSV,4,3,13,12,15,217,,40,13,117,,30,04,089,26,05,02,196,*75
$GPGSV,4,4,13,21,01,017,*4F
$BDGSV,1,1,00*68
$GNRMC,134824.000,A,4900.5206,N,00825.4601,E,1.718,92.99,221221,,,A*7C
$GNVTG,92.99,T,,M,1.718,N,3.184,K,A*19
---
Msg: Getting data from GPS using AT done
Resp:
AT+GPSRD=0

OK
----
Msg: GPS Read Off!
Msg: Getting data from Sensors
Resp:
AT+CIPSEND

>
----
Msg: Send Started!
Resp:
GET https://api.thingspeak.com/update?api_key=AYKVFH212TKGNW2B&field1=31.35&field2=28.12&field3=1010.25&field4=14.90&field5=19.50&field6=$GNGGA,134824.000,4900.5206,N,00825.4601,E,1,5,1.51,145.0,M,47.9,M,,*40

----
Resp:

OK



+CIPRCV,2:36
CLOSED
----
Msg: Send Completed!
Resp:
AT+CIPSTATUS
+CIPSTATUS:
STATE:CLOSED
----
Resp:
AT+CIPSTART="TCP","api.thingspeak.com",80
CONNECT OK
----
Msg: Connected!
Resp:
AT+GPSRD=5

OK
----
Msg: GPS Read Set!
Msg: Getting data from GPS using AT Cmd
Resp:
$GNGGA,134844.000,4900.5216,N,00825.4621,E,1,5,1.51,144.2,M,47.9,M,,*46
$GPGSA,A,3,17,19,13,14,10,,,,,,,,1.80,1.51,0.97*08
$BDGSA,A,3,,,,,,,,,,,,,1.80,1.51,0.97*11
$GPGSV,4,1,13,15,68,207,,13,51,143,22,24,50,282,,17,34,089,37*7E
$GPGSV,4,2,13,14,33,054,32,23,30,287,,19,28,119,35,10,17,321,18*74
$GPGSV,4,3,13,12,15,217,,30,04,089,27,05,02,196,,21,01,017,*71
$GPGSV,4,4,13,34,,,*7C
$BDGSV,1,1,00*68
$GNRMC,134844.000,A,4900.5216,N,00825.4621,E,2.806,88.91,221221,,,A*79
$GNVTG,88.91,T,,M,2.806,N,5.199,K,A*13
---
Msg: Getting data from GPS using AT done
Resp:
AT+GPSRD=0

OK
----
Msg: GPS Read Off!
Msg: Getting data from Sensors
Resp:
AT+CIPSEND

>
----
Msg: Send Started!
Resp:
GET https://api.thingspeak.com/update?api_key=AYKVFH212TKGNW2B&field1=31.42&field2=28.09&field3=1010.23&field4=15.50&field5=18.80&field6=$GNGGA,134844.000,4900.5216,N,00825.4621,E,1,5,1.51,144.2,M,47.9,M,,*46

----
Resp:

OK



+CIPRCV,2:37
CLOSED
----
Msg: Send Completed!
Resp:
AT+CIPSTATUS
+CIPSTATUS:
STATE:CLOSED
----
Resp:
AT+CIPSTART="TCP","api.thingspeak.com",80
CONNECT OK
----
Msg: Connected!
Resp:
AT+GPSRD=5

OK
----
Msg: GPS Read Set!
Msg: Getting data from GPS using AT Cmd
Resp:
$GNGGA,134905.000,4900.5217,N,00825.4620,E,1,5,1.51,142.3,M,47.9,M,,*45
$GPGSA,A,3,17,19,13,14,10,,,,,,,,1.79,1.51,0.97*0E
$BDGSA,A,3,,,,,,,,,,,,,1.79,1.51,0.97*17
$GPGSV,4,1,13,15,68,207,14,13,51,143,20,24,50,282,,17,34,089,37*79
$GPGSV,4,2,13,14,33,054,33,23,30,287,,19,28,119,35,10,17,321,18*75
$GPGSV,4,3,13,12,15,217,,30,03,089,27,05,02,196,,21,01,017,*76
$GPGSV,4,4,13,36,,,28*74
$BDGSV,1,1,00*68
$GNRMC,134905.000,A,4900.5217,N,00825.4620,E,1.495,85.08,221221,,,A*75
$GNVTG,85.08,T,,M,1.495,N,2.769,K,A*15
---
Msg: Getting data from GPS using AT done
Resp:
AT+GPSRD=0

OK
----
Msg: GPS Read Off!
Msg: Getting data from Sensors
Resp:
AT+CIPSEND

>
----
Msg: Send Started!
Resp:
GET https://api.thingspeak.com/update?api_key=AYKVFH212TKGNW2B&field1=31.48&field2=27.98&field3=1010.23&field4=15.30&field5=18.60&field6=$GNGGA,134905.000,4900.5217,N,00825.4620,E,1,5,1.51,142.3,M,47.9,M,,*45

----
Resp:

OK



+CIPRCV,2:38
CLOSED
----
Msg: Send Completed!
Resp:
AT+CIPSTATUS
+CIPSTATUS:
STATE:CLOSED
----
Resp:
AT+CIPSTART="TCP","api.thingspeak.com",80
CONNECT OK
----
Msg: Connected!
Resp:
AT+GPSRD=5

OK
----
Msg: GPS Read Set!
Msg: Getting data from GPS using AT Cmd
Resp:
$GNGGA,134926.000,4900.5207,N,00825.4550,E,1,5,1.50,142.5,M,47.9,M,,*46
$GPGSA,A,3,17,19,13,14,10,,,,,,,,1.79,1.50,0.97*0F
$BDGSA,A,3,,,,,,,,,,,,,1.79,1.50,0.97*16
$GPGSV,4,1,13,15,68,207,12,13,51,143,17,24,50,282,,17,34,089,37*7B
$GPGSV,4,2,13,14,33,054,31,23,30,287,,19,28,119,34,10,17,321,18*76
$GPGSV,4,3,13,12,15,217,,30,03,089,26,05,02,196,,21,01,017,*77
$GPGSV,4,4,13,36,,,28*74
$BDGSV,1,1,00*68
$GNRMC,134926.000,A,4900.5207,N,00825.4550,E,1.745,89.82,221221,,,A*71
$GNVTG,89.82,T,,M,1.745,N,3.234,K,A*19
---
Msg: Getting data from GPS using AT done
Resp:
AT+GPSRD=0

OK
----
Msg: GPS Read Off!
Msg: Getting data from Sensors
Resp:
AT+CIPSEND

>
----
Msg: Send Started!
Resp:
GET https://api.thingspeak.com/update?api_key=AYKVFH212TKGNW2B&field1=31.54&field2=27.89&field3=1010.21&field4=14.80&field5=17.90&field6=$GNGGA,134926.000,4900.5207,N,00825.4550,E,1,5,1.50,142.5,M,47.9,M,,*46

----
Resp:

OK



+CIPRCV,2:39
CLOSED
----
Msg: Send Completed!
Resp:
AT+CIPSTATUS
+CIPSTATUS:
STATE:CLOSED
----
Resp:
AT+CIPSTART="TCP","api.thingspeak.com",80
CONNECT OK
----
Msg: Connected!
Resp:
AT+GPSRD=5

OK
----
Msg: GPS Read Set!
Msg: Getting data from GPS using AT Cmd
Resp:
$GNGGA,134946.000,4900.5201,N,00825.4563,E,1,5,1.50,143.2,M,47.9,M,,*40
$GPGSA,A,3,17,19,13,14,10,,,,,,,,1.79,1.50,0.97*0F
$BDGSA,A,3,,,,,,,,,,,,,1.79,1.50,0.97*16
$GPGSV,4,1,13,15,68,207,,13,51,143,19,24,50,282,,17,34,089,37*76
$GPGSV,4,2,13,14,33,054,30,23,30,287,,19,28,119,34,10,17,320,18*76
$GPGSV,4,3,13,12,16,217,,30,03,089,25,05,02,196,,21,01,017,*77
$GPGSV,4,4,13,36,,,27*7B
$BDGSV,1,1,00*68
$GNRMC,134946.000,A,4900.5201,N,00825.4563,E,1.494,83.63,221221,,,A*7B
$GNVTG,83.63,T,,M,1.494,N,2.768,K,A*1E
---
Msg: Getting data from GPS using AT done
Resp:
AT+GPSRD=0

OK
----
Msg: GPS Read Off!
Msg: Getting data from Sensors
Resp:
AT+CIPSEND

>
----
Msg: Send Started!
Resp:
GET https://api.thingspeak.com/update?api_key=AYKVFH212TKGNW2B&field1=31.59&field2=27.82&field3=1010.19&field4=14.10&field5=18.20&field6=$GNGGA,134946.000,4900.5201,N,00825.4563,E,1,5,1.50,143.2,M,47.9,M,,*40

----
Resp:

OK



+CIPRCV,2:40
CLOSED
----
Msg: Send Completed!
Resp:
AT+CIPSTATUS
+CIPSTATUS:
STATE:CLOSED
----
Resp:
AT+CIPSTART="TCP","api.thingspeak.com",80
CONNECT OK
----
Msg: Connected!
Resp:
AT+GPSRD=5

OK
----
Msg: GPS Read Set!
Msg: Getting data from GPS using AT Cmd
Resp:
$GNGGA,135007.000,4900.5198,N,00825.4529,E,1,5,1.50,143.2,M,47.9,M,,*40
$GPGSA,A,3,17,19,13,14,10,,,,,,,,1.79,1.50,0.97*0F
$BDGSA,A,3,,,,,,,,,,,,,1.79,1.50,0.97*16
$GPGSV,4,1,13,15,68,205,,24,51,283,,13,50,144,23,17,34,088,37*7A
$GPGSV,4,2,13,14,32,054,31,23,30,286,,19,28,119,35,10,17,320,18*76
$GPGSV,4,3,13,12,16,217,,30,03,090,25,05,02,196,,21,01,017,*7F
$GPGSV,4,4,13,36,,,29*75
$BDGSV,1,1,00*68
$GNRMC,135007.000,A,4900.5198,N,00825.4529,E,0.250,55.77,221221,,,A*7A
$GNVTG,55.77,T,,M,0.250,N,0.464,K,A*12
---
Msg: Getting data from GPS using AT done
Resp:
AT+GPSRD=0

OK
----
Msg: GPS Read Off!
Msg: Getting data from Sensors
Resp:
AT+CIPSEND

>
----
Msg: Send Started!
Resp:
GET https://api.thingspeak.com/update?api_key=AYKVFH212TKGNW2B&field1=31.63&field2=27.86&field3=1010.18&field4=14.10&field5=17.80&field6=$GNGGA,135007.000,4900.5198,N,00825.4529,E,1,5,1.50,143.2,M,47.9,M,,*40

----
Resp:

OK



+CIPRCV,2:41
CLOSED
----
Msg: Send Completed!
Resp:
AT+CIPSTATUS
+CIPSTATUS:
STATE:CLOSED
----
Resp:
AT+CIPSTART="TCP","api.thingspeak.com",80
CONNECT OK
----
Msg: Connected!
Resp:
AT+GPSRD=5

OK
----
Msg: GPS Read Set!
Msg: Getting data from GPS using AT Cmd
Resp:
$GNGGA,135028.000,4900.5196,N,00825.4560,E,1,5,1.49,141.9,M,47.9,M,,*4F
$GPGSA,A,3,17,19,13,14,10,,,,,,,,1.78,1.49,0.97*06
$BDGSA,A,3,,,,,,,,,,,,,1.78,1.49,0.97*1F
$GPGSV,4,1,13,15,68,205,,24,51,283,,13,50,144,19,17,34,088,38*7C
$GPGSV,4,2,13,14,32,054,31,23,30,286,,19,28,119,34,10,17,320,19*76
$GPGSV,4,3,13,12,16,217,,30,03,090,25,05,02,196,,21,01,017,*7F
$GPGSV,4,4,13,36,,,28*74
$BDGSV,1,1,00*68
$GNRMC,135028.000,A,4900.5196,N,00825.4560,E,0.697,65.38,221221,,,A*73
$GNVTG,65.38,T,,M,0.697,N,1.292,K,A*1B
---
Msg: Getting data from GPS using AT done
Resp:
AT+GPSRD=0

OK
----
Msg: GPS Read Off!
Msg: Getting data from Sensors
Resp:
AT+CIPSEND

>
----
Msg: Send Started!
Resp:
GET https://api.thingspeak.com/update?api_key=AYKVFH212TKGNW2B&field1=31.68&field2=27.90&field3=1010.18&field4=13.00&field5=14.60&field6=$GNGGA,135028.000,4900.5196,N,00825.4560,E,1,5,1.49,141.9,M,47.9,M,,*4F

----
Resp:

OK



+CIPRCV,2:42
CLOSED
----
Msg: Send Completed!
Resp:
AT+CIPSTATUS
+CIPSTATUS:
STATE:CLOSED
----
Resp:
AT+CIPSTART="TCP","api.thingspeak.com",80
CONNECT OK
----
Msg: Connected!
Resp:
AT+GPSRD=5

OK
----
Msg: GPS Read Set!
Msg: Getting data from GPS using AT Cmd
Resp:
$GNGGA,135049.000,4900.5202,N,00825.4624,E,1,5,1.49,136.5,M,47.9,M,,*49
$GPGSA,A,3,17,19,13,14,10,,,,,,,,1.78,1.49,0.98*09
$BDGSA,A,3,,,,,,,,,,,,,1.78,1.49,0.98*10
$GPGSV,4,1,13,15,68,205,,24,51,283,14,13,50,144,25,17,34,088,38*76
$GPGSV,4,2,13,14,32,054,30,23,30,286,,19,28,119,34,10,17,320,20*7D
$GPGSV,4,3,13,12,16,217,,30,03,090,24,05,02,196,,21,01,017,*7E
$GPGSV,4,4,13,36,,,28*74
$BDGSV,1,1,00*68
$GNRMC,135049.000,A,4900.5202,N,00825.4624,E,0.730,89.51,221221,,,A*78
$GNVTG,89.51,T,,M,0.730,N,1.353,K,A*16
---
Msg: Getting data from GPS using AT done
Resp:
AT+GPSRD=0

OK
----
Msg: GPS Read Off!
Msg: Getting data from Sensors
Resp:
AT+CIPSEND

>
----
Msg: Send Started!
Resp:
GET https://api.thingspeak.com/update?api_key=AYKVFH212TKGNW2B&field1=31.72&field2=27.82&field3=1010.17&field4=13.70&field5=16.10&field6=$GNGGA,135049.000,4900.5202,N,00825.4624,E,1,5,1.49,136.5,M,47.9,M,,*49

----
Resp:

OK



+CIPRCV,2:43
CLOSED
----
Msg: Send Completed!
Resp:
AT+CIPSTATUS
+CIPSTATUS:
STATE:CLOSED
----
Resp:
AT+CIPSTART="TCP","api.thingspeak.com",80
CONNECT OK
----
Msg: Connected!
Resp:
AT+GPSRD=5

OK
----
Msg: GPS Read Set!
Msg: Getting data from GPS using AT Cmd
Resp:
$GNGGA,135109.000,4900.5218,N,00825.4636,E,2,5,1.49,132.2,M,47.9,M,,*44
$GPGSA,A,3,17,19,13,14,10,,,,,,,,1.78,1.49,0.98*09
$BDGSA,A,3,,,,,,,,,,,,,1.78,1.49,0.98*10
$GPGSV,4,1,13,15,67,204,,24,51,283,13,13,50,144,24,17,34,087,38*71
$GPGSV,4,2,13,14,32,053,29,23,30,286,17,36,29,150,28,19,28,119,36*72
$GPGSV,4,3,13,10,17,320,19,12,16,217,,30,03,090,22,21,01,017,*7F
$GPGSV,4,4,13,05,01,195,*42
$BDGSV,1,1,00*68
$GNRMC,135109.000,A,4900.5218,N,00825.4636,E,1.163,98.72,221221,,,D*70
$GNVTG,98.72,T,,M,1.163,N,2.156,K,D*17
---
Msg: Getting data from GPS using AT done
Resp:
AT+GPSRD=0

OK
----
Msg: GPS Read Off!
Msg: Getting data from Sensors
Resp:
AT+CIPSEND

>
----
Msg: Send Started!
Resp:
GET https://api.thingspeak.com/update?api_key=AYKVFH212TKGNW2B&field1=31.76&field2=27.67&field3=1010.15&field4=13.90&field5=18.20&field6=$GNGGA,135109.000,4900.5218,N,00825.4636,E,2,5,1.49,132.2,M,47.9,M,,*44

----
Resp:

OK



+CIPRCV,2:44
CLOSED
----
Msg: Send Completed!
Resp:
AT+CIPSTATUS
+CIPSTATUS:
STATE:CLOSED
----
Resp:
AT+CIPSTART="TCP","api.thingspeak.com",80
CONNECT OK
----
Msg: Connected!
Resp:
AT+GPSRD=5

OK
----
Msg: GPS Read Set!
Msg: Getting data from GPS using AT Cmd
Resp:
$GNGGA,135129.000,4900.5204,N,00825.4664,E,2,5,1.48,130.0,M,47.9,M,,*4D
$GPGSA,A,3,17,19,13,14,10,,,,,,,,1.78,1.48,0.98*08
$BDGSA,A,3,,,,,,,,,,,,,1.78,1.48,0.98*11
$GPGSV,4,1,13,15,67,204,,24,51,283,13,13,50,144,23,17,34,087,38*76
$GPGSV,4,2,13,14,32,053,29,23,30,285,16,36,29,150,28,19,28,119,35*73
$GPGSV,4,3,13,10,17,320,19,12,16,217,,30,02,090,22,21,01,016,*7F
$GPGSV,4,4,13,05,01,195,*42
$BDGSV,1,1,00*68
$GNRMC,135129.000,A,4900.5204,N,00825.4664,E,1.484,83.01,221221,,,D*7A
$GNVTG,83.01,T,,M,1.484,N,2.750,K,D*15
---
Msg: Getting data from GPS using AT done
Resp:
AT+GPSRD=0

OK
----
Msg: GPS Read Off!
Msg: Getting data from Sensors
Resp:
AT+CIPSEND

>
----
Msg: Send Started!
Resp:
GET https://api.thingspeak.com/update?api_key=AYKVFH212TKGNW2B&field1=31.80&field2=27.53&field3=1010.16&field4=15.20&field5=24.80&field6=$GNGGA,135129.000,4900.5204,N,00825.4664,E,2,5,1.48,130.0,M,47.9,M,,*4D

----
Resp:

OK



+CIPRCV,2:45
CLOSED
----
Msg: Send Completed!
Resp:
AT+CIPSTATUS
+CIPSTATUS:
STATE:CLOSED
----
Resp:
AT+CIPSTART="TCP","api.thingspeak.com",80
CONNECT OK
----
Msg: Connected!
Resp:
AT+GPSRD=5

OK
----
Msg: GPS Read Set!
Msg: Getting data from GPS using AT Cmd
Resp:
$GNGGA,135150.000,4900.5202,N,00825.4684,E,2,5,1.48,127.8,M,47.9,M,,*45
$GPGSA,A,3,17,19,13,14,10,,,,,,,,1.78,1.48,0.98*08
$BDGSA,A,3,,,,,,,,,,,,,1.78,1.48,0.98*11
$GPGSV,4,1,13,15,67,204,,24,51,283,,13,50,144,18,17,34,087,38*7C
$GPGSV,4,2,13,14,32,053,29,23,30,285,14,36,29,150,28,19,28,119,36*72
$GPGSV,4,3,13,10,17,320,19,12,16,217,,30,02,090,23,21,01,016,*7E
$GPGSV,4,4,13,05,01,195,*42
$BDGSV,1,1,00*68
$GNRMC,135150.000,A,4900.5202,N,00825.4684,E,0.491,33.21,221221,,,D*70
$GNVTG,33.21,T,,M,0.491,N,0.910,K,D*11
---
Msg: Getting data from GPS using AT done
Resp:
AT+GPSRD=0

OK
----
Msg: GPS Read Off!
Msg: Getting data from Sensors
Resp:
AT+CIPSEND

>
----
Msg: Send Started!
Resp:
GET https://api.thingspeak.com/update?api_key=AYKVFH212TKGNW2B&field1=31.83&field2=27.46&field3=1010.15&field4=14.60&field5=23.70&field6=$GNGGA,135150.000,4900.5202,N,00825.4684,E,2,5,1.48,127.8,M,47.9,M,,*45

----
Resp:

OK



+CIPRCV,2:46
CLOSED
----
Msg: Send Completed!
Resp:
AT+CIPSTATUS
+CIPSTATUS:
STATE:CLOSED
----
Resp:
AT+CIPSTART="TCP","api.thingspeak.com",80
CONNECT OK
----
Msg: Connected!
Resp:
AT+GPSRD=5

OK
----
Msg: GPS Read Set!
Msg: Getting data from GPS using AT Cmd
Resp:
$GNGGA,135210.000,4900.5213,N,00825.4708,E,2,5,1.48,124.6,M,47.9,M,,*4A
$GPGSA,A,3,17,19,13,14,10,,,,,,,,1.77,1.48,0.98*07
$BDGSA,A,3,,,,,,,,,,,,,1.77,1.48,0.98*1E
$GPGSV,4,1,13,15,67,204,,24,51,283,,13,50,144,16,17,34,087,38*72
$GPGSV,4,2,13,14,32,053,29,23,30,285,12,36,29,150,28,19,28,119,36*74
$GPGSV,4,3,13,10,17,320,19,12,16,217,,30,02,090,21,21,01,016,*7C
$GPGSV,4,4,13,05,01,195,*42
$BDGSV,1,1,00*68
$GNRMC,135210.000,A,4900.5213,N,00825.4708,E,2.091,89.44,221221,,,D*76
$GNVTG,89.44,T,,M,2.091,N,3.876,K,D*17
---
Msg: Getting data from GPS using AT done
Resp:
AT+GPSRD=0

OK
----
Msg: GPS Read Off!
Msg: Getting data from Sensors
Resp:
AT+CIPSEND

>
----
Msg: Send Started!
Resp:
GET https://api.thingspeak.com/update?api_key=AYKVFH212TKGNW2B&field1=31.87&field2=27.29&field3=1010.13&field4=14.20&field5=22.90&field6=$GNGGA,135210.000,4900.5213,N,00825.4708,E,2,5,1.48,124.6,M,47.9,M,,*4A

----
Resp:

OK



+CIPRCV,2:47
CLOSED
----
Msg: Send Completed!
Resp:
AT+CIPSTATUS
+CIPSTATUS:
STATE:CLOSED
----
Resp:
AT+CIPSTART="TCP","api.thingspeak.com",80
CONNECT OK
----
Msg: Connected!
Resp:
AT+GPSRD=5

OK
----
Msg: GPS Read Set!
Msg: Getting data from GPS using AT Cmd
Resp:
$GNGGA,135230.000,4900.5214,N,00825.4732,E,2,5,1.48,116.5,M,47.9,M,,*44
$GPGSA,A,3,17,19,13,14,10,,,,,,,,1.77,1.48,0.98*07
$BDGSA,A,3,,,,,,,,,,,,,1.77,1.48,0.98*1E
$GPGSV,4,1,13,15,67,203,16,24,51,283,,13,49,144,16,17,34,087,38*7A
$GPGSV,4,2,13,14,31,053,28,23,30,285,17,19,29,118,35,36,29,150,28*70
$GPGSV,4,3,13,10,18,319,18,12,17,217,,30,02,090,21,21,01,016,*79
$GPGSV,4,4,13,05,01,195,*42
$BDGSV,1,1,00*68
$GNRMC,135230.000,A,4900.5214,N,00825.4732,E,2.387,78.39,221221,,,D*7A
$GNVTG,78.39,T,,M,2.387,N,4.424,K,D*1B
---
Msg: Getting data from GPS using AT done
Resp:
AT+GPSRD=0

OK
----
Msg: GPS Read Off!
Msg: Getting data from Sensors
Resp:
AT+CIPSEND

>
----
Msg: Send Started!
Resp:
GET https://api.thingspeak.com/update?api_key=AYKVFH212TKGNW2B&field1=31.90&field2=27.17&field3=1010.12&field4=14.60&field5=22.20&field6=$GNGGA,135230.000,4900.5214,N,00825.4732,E,2,5,1.48,116.5,M,47.9,M,,*44

----
Resp:

OK



+CIPRCV,2:48
CLOSED
----
Msg: Send Completed!
Resp:
AT+CIPSTATUS
+CIPSTATUS:
STATE:CLOSED
----
Resp:
AT+CIPSTART="TCP","api.thingspeak.com",80
CONNECT OK
----
Msg: Connected!
Resp:
AT+GPSRD=5

OK
----
