created_at,entry_id,field1,field2,field3,field4,field5,field6,field7,field8,latitude,longitude,elevation,status
2021-12-30T00:05:25+01:00,1,3.00,17.00,0.00,23.00,34.00,0,0,"$GNGGA,000027.264,4900.5472,N,00825.3981,E,0,0,,102.1,M,47.9,M,,*55",,,,
2021-12-30T00:05:45+01:00,2,4.00,15.00,1.00,23.00,31.00,0,0,"$GNGGA,000047.264,4900.5472,N,00825.3981,E,0,0,,102.1,M,47.9,M,,*53",,,,
2021-12-30T00:06:05+01:00,3,4.00,18.00,2.00,23.00,33.00,0,0,"$GNGGA,000107.264,4900.5472,N,00825.3981,E,0,0,,102.1,M,47.9,M,,*56",,,,
2021-12-30T00:06:25+01:00,4,3.00,17.00,3.00,21.00,34.00,0,0,"$GNGGA,000127.264,4900.5472,N,00825.3981,E,0,0,,102.1,M,47.9,M,,*54",,,,
2021-12-30T00:06:45+01:00,5,3.00,15.00,4.00,21.00,30.00,0,0,"$GNGGA,000147.264,4900.5472,N,00825.3981,E,0,0,,102.1,M,47.9,M,,*52",,,,
2021-12-30T00:07:05+01:00,6,9.00,16.00,5.00,22.00,31.00,0,0,"$GNGGA,000207.264,4900.5472,N,00825.3981,E,0,0,,102.1,M,47.9,M,,*55",,,,
2021-12-30T00:07:25+01:00,7,7.00,12.00,6.00,22.00,34.00,0,0,"$GNGGA,000227.264,4900.5472,N,00825.3981,E,0,0,,102.1,M,47.9,M,,*57",,,,
2021-12-30T00:07:45+01:00,8,8.00,11.00,7.00,21.00,33.00,0,0,"$GNGGA,000247.264,4900.5472,N,00825.3981,E,0,0,,102.1,M,47.9,M,,*51",,,,
2021-12-30T00:08:05+01:00,9,4.00,17.00,8.00,20.00,32.00,0,0,"$GNGGA,000307.264,4900.5472,N,00825.3981,E,0,0,,102.1,M,47.9,M,,*54",,,,
2021-12-30T00:08:25+01:00,10,8.00,19.00,9.00,23.00,30.00,0,0,"$GNGGA,000327.264,4900.5472,N,00825.3981,E,0,0,,102.1,M,47.9,M,,*56",,,,
2021-12-30T00:08:45+01:00,11,2.00,17.00,10.00,24.00,32.00,0,0,"$GNGGA,000347.264,4900.5472,N,00825.3981,E,0,0,,102.1,M,47.9,M,,*50",,,,
2021-12-30T00:09:05+01:00,12,5.00,12.00,11.00,21.00,34.00,0,0,"$GNGGA,000407.264,4900.5472,N,00825.3981,E,0,0,,102.1,M,47.9,M,,*53",,,,
2021-12-30T00:09:25+01:00,13,9.00,15.00,12.00,24.00,33.00,0,0,"$GNGGA,000427.264,4900.5472,N,00825.3981,E,0,0,,102.1,M,47.9,M,,*51",,,,
2021-12-30T00:09:46+01:00,14,5.00,12.00,13.00,23.00,34.00,0,0,"$GNGGA,230942.086,4900.5305,N,00825.3460,E,0,3,,42.6,M,47.9,M,,*64",,,,
2021-12-30T00:10:07+01:00,15,4.00,10.00,14.00,24.00,33.00,0,0,"$GNGGA,231002.000,4900.5520,N,00825.2829,E,0,4,,81.9,M,47.9,M,,*60",,,,
2021-12-30T00:10:27+01:00,16,4.00,16.00,15.00,24.00,32.00,0,0,"$GNGGA,231023.000,4900.5249,N,00825.3566,E,0,4,,88.0,M,47.9,M,,*6C",,,,
2021-12-30T00:10:48+01:00,17,9.00,17.00,16.00,21.00,31.00,0,0,"$GNGGA,231043.000,4900.5120,N,00825.3865,E,1,4,5.51,97.4,M,47.9,M,,*7C",,,,
2021-12-30T00:11:08+01:00,18,3.00,19.00,17.00,20.00,31.00,0,0,"$GNGGA,231104.000,4900.5199,N,00825.4271,E,1,4,5.44,115.0,M,47.9,M,,*4F",,,,
2021-12-30T00:11:28+01:00,19,8.00,15.00,18.00,22.00,31.00,0,0,"$GNGGA,231124.000,4900.5184,N,00825.4406,E,1,4,5.38,124.5,M,47.9,M,,*4B",,,,
2021-12-30T00:11:48+01:00,20,8.00,14.00,19.00,21.00,30.00,0,0,"$GNGGA,231144.000,4900.5215,N,00825.4321,E,0,3,,116.1,M,47.9,M,,*57",,,,
2021-12-30T00:12:08+01:00,21,5.00,12.00,20.00,22.00,34.00,0,0,"$GNGGA,231204.000,4900.5290,N,00825.4170,E,1,4,5.27,125.6,M,47.9,M,,*44",,,,
2021-12-30T00:12:28+01:00,22,4.00,14.00,21.00,24.00,34.00,0,0,"$GNGGA,231224.000,4900.5238,N,00825.4611,E,1,4,5.21,132.8,M,47.9,M,,*4A",,,,
2021-12-30T00:12:48+01:00,23,3.00,13.00,22.00,21.00,33.00,0,0,"$GNGGA,231244.000,4900.5236,N,00825.4761,E,0,3,,133.1,M,47.9,M,,*52",,,,
2021-12-30T00:13:08+01:00,24,7.00,11.00,23.00,22.00,34.00,0,0,"$GNGGA,231304.000,4900.5274,N,00825.5209,E,0,3,,133.3,M,47.9,M,,*59",,,,
2021-12-30T00:13:28+01:00,25,8.00,12.00,24.00,22.00,30.00,0,0,"$GNGGA,231324.000,4900.5252,N,00825.5646,E,0,3,,133.6,M,47.9,M,,*55",,,,
2021-12-30T00:13:48+01:00,26,9.00,16.00,25.00,20.00,31.00,0,0,"$GNGGA,231344.000,4900.4995,N,00825.4797,E,0,3,,134.7,M,47.9,M,,*58",,,,
2021-12-30T00:14:08+01:00,27,3.00,13.00,26.00,24.00,30.00,0,0,"$GNGGA,231404.000,4900.5067,N,00825.4934,E,0,3,,135.1,M,47.9,M,,*5E",,,,
2021-12-30T00:14:28+01:00,28,3.00,19.00,27.00,24.00,31.00,0,0,"$GNGGA,231424.000,4900.5475,N,00825.3213,E,0,3,,135.5,M,47.9,M,,*56",,,,
2021-12-30T00:14:48+01:00,29,3.00,13.00,28.00,22.00,33.00,0,0,"$GNGGA,231444.000,4900.5581,N,00825.2820,E,0,3,,136.2,M,47.9,M,,*55",,,,
2021-12-30T00:15:08+01:00,30,5.00,17.00,29.00,20.00,33.00,0,0,"$GNGGA,231504.000,4900.5499,N,00825.3414,E,0,4,,135.0,M,47.9,M,,*54",,,,
2021-12-30T00:15:28+01:00,31,3.00,17.00,30.00,21.00,32.00,0,0,"$GNGGA,231524.000,4900.5477,N,00825.3260,E,0,4,,130.6,M,47.9,M,,*50",,,,
2021-12-30T00:15:48+01:00,32,6.00,13.00,31.00,20.00,32.00,0,0,"$GNGGA,231544.000,4900.5292,N,00825.4575,E,1,4,4.72,123.8,M,47.9,M,,*4D",,,,
2021-12-30T00:16:08+01:00,33,7.00,13.00,32.00,21.00,30.00,0,0,"$GNGGA,231604.000,4900.5241,N,00825.5010,E,1,4,4.68,122.8,M,47.9,M,,*49",,,,
2021-12-30T00:16:28+01:00,34,2.00,14.00,33.00,23.00,33.00,0,0,"$GNGGA,231624.000,4900.5275,N,00825.4581,E,1,4,4.64,120.9,M,47.9,M,,*4F",,,,
2021-12-30T00:16:48+01:00,35,3.00,13.00,34.00,24.00,32.00,0,0,"$GNGGA,231644.000,4900.5213,N,00825.5042,E,1,4,4.59,118.0,M,47.9,M,,*4E",,,,
2021-12-30T00:17:08+01:00,36,4.00,13.00,35.00,22.00,31.00,0,0,"$GNGGA,231704.000,4900.5311,N,00825.4464,E,1,4,4.55,124.2,M,47.9,M,,*48",,,,
2021-12-30T00:17:28+01:00,37,4.00,15.00,36.00,23.00,33.00,0,0,"$GNGGA,231724.000,4900.5269,N,00825.4344,E,1,4,4.51,125.7,M,47.9,M,,*41",,,,
2021-12-30T00:17:48+01:00,38,5.00,14.00,37.00,20.00,30.00,0,0,"$GNGGA,231744.000,4900.5198,N,00825.4440,E,1,4,4.48,122.7,M,47.9,M,,*46",,,,
2021-12-30T00:18:08+01:00,39,6.00,15.00,38.00,23.00,30.00,0,0,"$GNGGA,231804.000,4900.5236,N,00825.4331,E,1,4,4.44,120.7,M,47.9,M,,*45",,,,
2021-12-30T00:18:28+01:00,40,8.00,14.00,39.00,23.00,33.00,0,0,"$GNGGA,231824.000,4900.5295,N,00825.4050,E,1,4,4.40,118.6,M,47.9,M,,*44",,,,
2021-12-30T00:18:48+01:00,41,3.00,17.00,40.00,21.00,31.00,0,0,"$GNGGA,231844.000,4900.5247,N,00825.4127,E,1,4,4.37,119.6,M,47.9,M,,*4D",,,,
2021-12-30T00:19:08+01:00,42,4.00,11.00,41.00,24.00,30.00,0,0,"$GNGGA,231904.000,4900.5337,N,00825.3981,E,1,3,4.34,120.3,M,47.9,M,,*46",,,,
2021-12-30T00:19:28+01:00,43,8.00,18.00,42.00,20.00,30.00,0,0,"$GNGGA,231924.000,4900.5327,N,00825.4012,E,1,3,4.31,120.2,M,47.9,M,,*45",,,,
2021-12-30T00:19:48+01:00,44,6.00,17.00,43.00,23.00,33.00,0,0,"$GNGGA,231944.000,4900.5206,N,00825.4323,E,1,3,11.29,115.5,M,47.9,M,,*7C",,,,
2021-12-30T00:20:08+01:00,45,7.00,14.00,44.00,20.00,31.00,0,0,"$GNGGA,232004.000,4900.5253,N,00825.4217,E,1,4,4.23,115.0,M,47.9,M,,*48",,,,
2021-12-30T00:20:28+01:00,46,4.00,17.00,45.00,20.00,30.00,0,0,"$GNGGA,232024.000,4900.5299,N,00825.4346,E,1,4,4.20,117.8,M,47.9,M,,*40",,,,
2021-12-30T00:20:48+01:00,47,2.00,18.00,46.00,23.00,34.00,0,0,"$GNGGA,232044.000,4900.5331,N,00825.4219,E,1,4,4.17,117.0,M,47.9,M,,*42",,,,
2021-12-30T00:21:08+01:00,48,8.00,10.00,47.00,20.00,30.00,0,0,"$GNGGA,232104.000,4900.5273,N,00825.4544,E,1,4,4.14,119.6,M,47.9,M,,*44",,,,
2021-12-30T00:21:28+01:00,49,9.00,17.00,48.00,20.00,33.00,0,0,"$GNGGA,232124.000,4900.5277,N,00825.4399,E,1,4,4.11,123.0,M,47.9,M,,*4E",,,,
2021-12-30T00:21:48+01:00,50,7.00,16.00,49.00,22.00,31.00,0,0,"$GNGGA,232144.000,4900.5136,N,00825.5361,E,1,4,4.09,121.1,M,47.9,M,,*42",,,,
2021-12-30T00:22:08+01:00,51,6.00,17.00,50.00,22.00,31.00,0,0,"$GNGGA,232204.000,4900.5113,N,00825.5244,E,1,4,4.06,116.4,M,47.9,M,,*4A",,,,
2021-12-30T00:22:28+01:00,52,8.00,12.00,51.00,24.00,32.00,0,0,"$GNGGA,232224.000,4900.5175,N,00825.4388,E,1,4,4.03,116.1,M,47.9,M,,*48",,,,
2021-12-30T00:22:48+01:00,53,3.00,15.00,52.00,24.00,31.00,0,0,"$GNGGA,232244.000,4900.5158,N,00825.4227,E,1,4,4.01,117.8,M,47.9,M,,*4F",,,,
2021-12-30T00:23:08+01:00,54,3.00,17.00,53.00,23.00,30.00,0,0,"$GNGGA,232304.000,4900.5220,N,00825.4063,E,1,4,3.98,119.5,M,47.9,M,,*40",,,,
2021-12-30T00:23:28+01:00,55,5.00,19.00,54.00,21.00,33.00,0,0,"$GNGGA,232324.000,4900.5269,N,00825.4076,E,1,4,3.96,122.2,M,47.9,M,,*4A",,,,
2021-12-30T00:23:48+01:00,56,4.00,19.00,55.00,24.00,30.00,0,0,"$GNGGA,232344.000,4900.5241,N,00825.4109,E,1,4,3.93,121.6,M,47.9,M,,*4D",,,,
2021-12-30T00:24:08+01:00,57,6.00,11.00,56.00,23.00,34.00,0,0,"$GNGGA,232404.000,4900.5219,N,00825.4364,E,1,4,3.90,116.7,M,47.9,M,,*4C",,,,
2021-12-30T00:24:28+01:00,58,7.00,15.00,57.00,24.00,32.00,0,0,"$GNGGA,232424.000,4900.5227,N,00825.4862,E,1,4,3.88,113.9,M,47.9,M,,*4C",,,,
2021-12-30T00:24:48+01:00,59,9.00,10.00,58.00,24.00,30.00,0,0,"$GNGGA,232444.000,4900.5183,N,00825.5014,E,1,4,3.86,111.5,M,47.9,M,,*4F",,,,
2021-12-30T00:25:08+01:00,60,9.00,11.00,59.00,23.00,30.00,0,0,"$GNGGA,232504.000,4900.5262,N,00825.4675,E,1,4,3.84,110.1,M,47.9,M,,*41",,,,
2021-12-30T00:25:28+01:00,61,7.00,17.00,60.00,23.00,32.00,0,0,"$GNGGA,232524.000,4900.5237,N,00825.4566,E,1,4,3.81,108.5,M,47.9,M,,*4A",,,,
2021-12-30T00:25:48+01:00,62,8.00,19.00,61.00,23.00,30.00,0,0,"$GNGGA,232544.000,4900.5242,N,00825.4581,E,1,4,3.79,108.2,M,47.9,M,,*47",,,,
2021-12-30T00:26:08+01:00,63,9.00,18.00,62.00,20.00,32.00,0,0,"$GNGGA,232604.000,4900.5262,N,00825.4602,E,1,4,3.78,108.7,M,47.9,M,,*4E",,,,
2021-12-30T00:26:28+01:00,64,3.00,12.00,63.00,24.00,32.00,0,0,"$GNGGA,232624.000,4900.5242,N,00825.4632,E,1,4,3.75,110.6,M,47.9,M,,*48",,,,
2021-12-30T00:26:48+01:00,65,5.00,15.00,64.00,21.00,32.00,0,0,"$GNGGA,232644.000,4900.5347,N,00825.4410,E,1,4,3.73,114.8,M,47.9,M,,*44",,,,
2021-12-30T00:27:08+01:00,66,7.00,15.00,65.00,23.00,31.00,0,0,"$GNGGA,232704.000,4900.5384,N,00825.4234,E,1,3,6.31,115.1,M,47.9,M,,*42",,,,
2021-12-30T00:27:28+01:00,67,8.00,17.00,66.00,23.00,33.00,0,0,"$GNGGA,232724.000,4900.5455,N,00825.4157,E,1,4,3.69,115.2,M,47.9,M,,*41",,,,
2021-12-30T00:27:48+01:00,68,5.00,13.00,67.00,24.00,31.00,0,0,"$GNGGA,232744.000,4900.5370,N,00825.4315,E,1,4,3.67,113.9,M,47.9,M,,*40",,,,
2021-12-30T00:28:08+01:00,69,9.00,12.00,68.00,21.00,34.00,0,0,"$GNGGA,232804.000,4900.5285,N,00825.4402,E,1,4,3.66,113.7,M,47.9,M,,*4E",,,,
2021-12-30T00:28:28+01:00,70,6.00,15.00,69.00,20.00,30.00,0,0,"$GNGGA,232824.000,4900.5319,N,00825.4414,E,1,4,4.74,112.5,M,47.9,M,,*48",,,,
2021-12-30T00:28:48+01:00,71,6.00,19.00,70.00,21.00,32.00,0,0,"$GNGGA,232844.000,4900.5341,N,00825.4330,E,1,3,3.63,111.5,M,47.9,M,,*47",,,,
2021-12-30T00:29:08+01:00,72,3.00,19.00,71.00,22.00,33.00,0,0,"$GNGGA,232904.000,4900.5328,N,00825.4373,E,1,4,3.60,113.6,M,47.9,M,,*4F",,,,
2021-12-30T00:29:28+01:00,73,7.00,13.00,72.00,20.00,31.00,0,0,"$GNGGA,232924.000,4900.5297,N,00825.4480,E,1,3,3.59,113.7,M,47.9,M,,*4F",,,,
2021-12-30T00:29:48+01:00,74,5.00,13.00,73.00,23.00,34.00,0,0,"$GNGGA,232944.000,4900.5265,N,00825.4652,E,1,3,3.58,113.6,M,47.9,M,,*49",,,,
2021-12-30T00:30:08+01:00,75,8.00,16.00,74.00,24.00,34.00,0,0,"$GNGGA,233004.000,4900.5273,N,00825.4649,E,1,4,4.73,113.7,M,47.9,M,,*40",,,,
2021-12-30T00:30:28+01:00,76,2.00,14.00,75.00,24.00,33.00,0,0,"$GNGGA,233024.000,4900.5212,N,00825.4577,E,1,4,3.53,115.2,M,47.9,M,,*4D",,,,
2021-12-30T00:30:48+01:00,77,5.00,15.00,76.00,21.00,34.00,0,0,"$GNGGA,233044.000,4900.5262,N,00825.4618,E,1,4,3.53,115.6,M,47.9,M,,*42",,,,
2021-12-30T00:31:08+01:00,78,2.00,15.00,77.00,20.00,34.00,0,0,"$GNGGA,233104.000,4900.5284,N,00825.4599,E,1,3,3.52,115.7,M,47.9,M,,*42",,,,
2021-12-30T00:31:28+01:00,79,4.00,16.00,78.00,24.00,33.00,0,0,"$GNGGA,233124.000,4900.5305,N,00825.4574,E,6,3,3.50,115.7,M,47.9,M,,*4E",,,,
2021-12-30T00:31:48+01:00,80,4.00,15.00,79.00,20.00,33.00,0,0,"$GNGGA,233144.000,4900.5261,N,00825.4567,E,1,4,3.48,115.7,M,47.9,M,,*40",,,,
2021-12-30T00:32:08+01:00,81,7.00,15.00,80.00,23.00,32.00,0,0,"$GNGGA,233204.000,4900.5259,N,00825.4521,E,1,4,3.46,116.7,M,47.9,M,,*43",,,,
2021-12-30T00:32:28+01:00,82,9.00,10.00,81.00,24.00,34.00,0,0,"$GNGGA,233224.000,4900.5297,N,00825.4442,E,1,4,3.45,117.8,M,47.9,M,,*4A",,,,
2021-12-30T00:32:48+01:00,83,9.00,13.00,82.00,21.00,32.00,0,0,"$GNGGA,233244.000,4900.5310,N,00825.4456,E,1,4,3.44,118.5,M,47.9,M,,*44",,,,
2021-12-30T00:33:08+01:00,84,3.00,12.00,83.00,23.00,30.00,0,0,"$GNGGA,233304.000,4900.5319,N,00825.4345,E,1,4,3.42,119.7,M,47.9,M,,*48",,,,
2021-12-30T00:33:28+01:00,85,6.00,13.00,84.00,20.00,33.00,0,0,"$GNGGA,233324.000,4900.5326,N,00825.4437,E,1,4,3.41,120.7,M,47.9,M,,*4D",,,,
2021-12-30T00:33:48+01:00,86,8.00,10.00,85.00,21.00,32.00,0,0,"$GNGGA,233344.000,4900.5314,N,00825.4589,E,1,4,3.40,122.0,M,47.9,M,,*4A",,,,
2021-12-30T00:34:08+01:00,87,8.00,12.00,86.00,20.00,32.00,0,0,"$GNGGA,233404.000,4900.5287,N,00825.4629,E,1,4,3.39,123.0,M,47.9,M,,*44",,,,
2021-12-30T00:34:28+01:00,88,7.00,19.00,87.00,20.00,34.00,0,0,"$GNGGA,233424.000,4900.5331,N,00825.4601,E,1,4,3.38,125.2,M,47.9,M,,*45",,,,
2021-12-30T00:34:48+01:00,89,3.00,18.00,88.00,20.00,34.00,0,0,"$GNGGA,233444.000,4900.5382,N,00825.4583,E,1,4,4.74,126.9,M,47.9,M,,*45",,,,
2021-12-30T00:35:08+01:00,90,2.00,17.00,89.00,21.00,31.00,0,0,"$GNGGA,233504.000,4900.5426,N,00825.4707,E,1,4,3.35,128.4,M,47.9,M,,*46",,,,
2021-12-30T00:35:28+01:00,91,6.00,12.00,90.00,23.00,33.00,0,0,"$GNGGA,233524.000,4900.5492,N,00825.4848,E,1,4,3.34,131.5,M,47.9,M,,*47",,,,
2021-12-30T00:35:48+01:00,92,2.00,10.00,91.00,20.00,31.00,0,0,"$GNGGA,233544.000,4900.5469,N,00825.4770,E,1,4,3.33,133.9,M,47.9,M,,*48",,,,
2021-12-30T00:36:08+01:00,93,3.00,15.00,92.00,21.00,30.00,0,0,"$GNGGA,233604.000,4900.5438,N,00825.4783,E,1,4,3.32,135.8,M,47.9,M,,*41",,,,
2021-12-30T00:36:28+01:00,94,6.00,12.00,93.00,22.00,30.00,0,0,"$GNGGA,233624.000,4900.5430,N,00825.4711,E,1,4,3.31,137.0,M,47.9,M,,*49",,,,
2021-12-30T00:36:48+01:00,95,3.00,11.00,94.00,21.00,32.00,0,0,"$GNGGA,233644.000,4900.5414,N,00825.4690,E,1,4,3.31,137.9,M,47.9,M,,*48",,,,
2021-12-30T00:37:08+01:00,96,4.00,15.00,95.00,23.00,30.00,0,0,"$GNGGA,233704.000,4900.5369,N,00825.4610,E,1,4,3.29,136.9,M,47.9,M,,*40",,,,
2021-12-30T00:37:28+01:00,97,4.00,13.00,96.00,24.00,32.00,0,0,"$GNGGA,233724.000,4900.5356,N,00825.4667,E,1,4,3.29,135.9,M,47.9,M,,*4D",,,,
2021-12-30T00:37:48+01:00,98,3.00,13.00,97.00,21.00,30.00,0,0,"$GNGGA,233744.000,4900.5349,N,00825.4720,E,1,4,3.28,137.6,M,47.9,M,,*4B",,,,
2021-12-30T00:38:08+01:00,99,4.00,10.00,98.00,21.00,32.00,0,0,"$GNGGA,233804.000,4900.5378,N,00825.4572,E,1,4,3.27,137.8,M,47.9,M,,*46",,,,
2021-12-30T00:38:28+01:00,100,5.00,13.00,99.00,22.00,33.00,0,0,"$GNGGA,233824.000,4900.5438,N,00825.4567,E,1,4,3.26,139.5,M,47.9,M,,*41",,,,
2021-12-30T00:38:48+01:00,101,6.00,11.00,100.00,21.00,32.00,0,0,"$GNGGA,233844.000,4900.5406,N,00825.4603,E,1,4,3.26,140.3,M,47.9,M,,*43",,,,
2021-12-30T00:39:08+01:00,102,8.00,11.00,101.00,20.00,30.00,0,0,"$GNGGA,233904.000,4900.5411,N,00825.4647,E,1,4,3.25,143.3,M,47.9,M,,*40",,,,
2021-12-30T00:39:28+01:00,103,6.00,10.00,102.00,24.00,30.00,0,0,"$GNGGA,233924.000,4900.5418,N,00825.4809,E,1,4,3.24,146.5,M,47.9,M,,*4D",,,,
2021-12-30T00:39:48+01:00,104,3.00,13.00,103.00,23.00,34.00,0,0,"$GNGGA,233944.000,4900.5413,N,00825.4849,E,1,3,3.25,146.4,M,47.9,M,,*43",,,,
2021-12-30T00:40:08+01:00,105,8.00,12.00,104.00,20.00,33.00,0,0,"$GNGGA,234004.000,4900.5417,N,00825.4794,E,1,3,3.25,146.5,M,47.9,M,,*43",,,,
2021-12-30T00:40:28+01:00,106,3.00,18.00,105.00,23.00,33.00,0,0,"$GNGGA,234024.000,4900.5412,N,00825.4710,E,1,3,3.24,146.4,M,47.9,M,,*48",,,,
2021-12-30T00:40:48+01:00,107,5.00,19.00,106.00,20.00,34.00,0,0,"$GNGGA,234044.000,4900.5347,N,00825.4701,E,1,4,3.21,145.6,M,47.9,M,,*4A",,,,
2021-12-30T00:41:08+01:00,108,7.00,14.00,107.00,22.00,33.00,0,0,"$GNGGA,234104.000,4900.5465,N,00825.4641,E,1,4,3.21,144.8,M,47.9,M,,*42",,,,
2021-12-30T00:41:28+01:00,109,3.00,14.00,108.00,23.00,34.00,0,0,"$GNGGA,234124.000,4900.5506,N,00825.4645,E,1,4,3.20,143.9,M,47.9,M,,*47",,,,
2021-12-30T00:41:48+01:00,110,2.00,16.00,109.00,24.00,34.00,0,0,"$GNGGA,234144.000,4900.5524,N,00825.4576,E,1,4,3.20,143.0,M,47.9,M,,*4B",,,,
2021-12-30T00:42:08+01:00,111,3.00,19.00,110.00,22.00,32.00,0,0,"$GNGGA,234204.000,4900.5389,N,00825.4652,E,1,4,3.19,142.5,M,47.9,M,,*46",,,,
2021-12-30T00:42:28+01:00,112,2.00,15.00,111.00,22.00,34.00,0,0,"$GNGGA,234224.000,4900.5440,N,00825.4713,E,1,4,4.84,142.5,M,47.9,M,,*41",,,,
2021-12-30T00:42:48+01:00,113,9.00,15.00,112.00,20.00,32.00,0,0,"$GNGGA,234244.000,4900.5431,N,00825.4786,E,1,4,3.18,143.7,M,47.9,M,,*4C",,,,
2021-12-30T00:43:08+01:00,114,9.00,12.00,113.00,20.00,32.00,0,0,"$GNGGA,234304.000,4900.5423,N,00825.4785,E,1,4,3.18,144.1,M,47.9,M,,*48",,,,
2021-12-30T00:43:28+01:00,115,4.00,10.00,114.00,23.00,34.00,0,0,"$GNGGA,234324.000,4900.5385,N,00825.4762,E,1,4,3.17,143.6,M,47.9,M,,*47",,,,
2021-12-30T00:43:48+01:00,116,2.00,13.00,115.00,22.00,34.00,0,0,"$GNGGA,234344.000,4900.5438,N,00825.4778,E,1,4,3.17,143.4,M,47.9,M,,*49",,,,
2021-12-30T00:44:08+01:00,117,3.00,16.00,116.00,20.00,33.00,0,0,"$GNGGA,234404.000,4900.5390,N,00825.4759,E,1,3,3.19,142.9,M,47.9,M,,*49",,,,
2021-12-30T00:44:28+01:00,118,8.00,17.00,117.00,22.00,34.00,0,0,"$GNGGA,234424.000,4900.5424,N,00825.5119,E,1,3,3.19,142.9,M,47.9,M,,*40",,,,
2021-12-30T00:44:48+01:00,119,7.00,19.00,118.00,22.00,31.00,0,0,"$GNGGA,234444.000,4900.5398,N,00825.5348,E,0,2,,143.1,M,47.9,M,,*5C",,,,
2021-12-30T00:45:08+01:00,120,2.00,19.00,119.00,24.00,33.00,0,0,"$GNGGA,234504.000,4900.5366,N,00825.4240,E,1,4,3.15,142.8,M,47.9,M,,*46",,,,
2021-12-30T00:45:28+01:00,121,5.00,12.00,120.00,22.00,30.00,0,0,"$GNGGA,234524.000,4900.5462,N,00825.4390,E,1,3,3.19,142.3,M,47.9,M,,*4B",,,,
2021-12-30T00:45:48+01:00,122,9.00,16.00,121.00,24.00,32.00,0,0,"$GNGGA,234544.000,4900.5535,N,00825.4174,E,1,3,3.18,142.2,M,47.9,M,,*46",,,,
2021-12-30T00:46:08+01:00,123,4.00,10.00,122.00,21.00,33.00,0,0,"$GNGGA,234604.000,4900.5513,N,00825.4188,E,0,0,,142.3,M,47.9,M,,*51",,,,
2021-12-30T00:46:28+01:00,124,3.00,16.00,123.00,20.00,32.00,0,0,"$GNGGA,234624.000,4900.5512,N,00825.4188,E,0,0,,142.3,M,47.9,M,,*52",,,,
2021-12-30T00:46:48+01:00,125,9.00,18.00,124.00,22.00,30.00,0,0,"$GNGGA,234644.000,4900.5512,N,00825.4188,E,0,0,,142.3,M,47.9,M,,*54",,,,
2021-12-30T00:47:08+01:00,126,6.00,10.00,125.00,24.00,34.00,0,0,"$GNGGA,234704.000,4900.5512,N,00825.4188,E,0,0,,142.3,M,47.9,M,,*51",,,,
2021-12-30T00:47:28+01:00,127,7.00,14.00,126.00,24.00,34.00,0,0,"$GNGGA,234724.000,4900.5512,N,00825.4188,E,0,0,,142.3,M,47.9,M,,*53",,,,
2021-12-30T00:47:48+01:00,128,2.00,11.00,127.00,20.00,34.00,0,0,"$GNGGA,234744.000,4900.5512,N,00825.4188,E,0,0,,142.3,M,47.9,M,,*55",,,,
2021-12-30T00:48:08+01:00,129,8.00,13.00,128.00,23.00,30.00,0,0,"$GNGGA,234804.000,4900.5489,N,00825.4195,E,0,0,,142.5,M,47.9,M,,*57",,,,
2021-12-30T00:48:28+01:00,130,7.00,12.00,129.00,20.00,31.00,0,0,"$GNGGA,234824.000,4900.5489,N,00825.4195,E,0,0,,142.5,M,47.9,M,,*55",,,,
2021-12-30T00:48:48+01:00,131,6.00,11.00,130.00,24.00,32.00,0,0,"$GNGGA,234844.000,4900.5330,N,00825.4494,E,0,3,,142.3,M,47.9,M,,*57",,,,
2021-12-30T00:49:08+01:00,132,7.00,16.00,131.00,21.00,31.00,0,0,"$GNGGA,234904.000,4900.5342,N,00825.4417,E,0,3,,145.7,M,47.9,M,,*5F",,,,
2021-12-30T00:49:28+01:00,133,6.00,11.00,132.00,24.00,31.00,0,0,"$GNGGA,234924.000,4900.5357,N,00825.4378,E,0,3,,143.6,M,47.9,M,,*50",,,,
2021-12-30T00:49:48+01:00,134,5.00,14.00,133.00,21.00,34.00,0,0,"$GNGGA,234944.000,4900.5324,N,00825.4341,E,6,2,99.99,141.6,M,47.9,M,,*73",,,,
2021-12-30T00:50:08+01:00,135,7.00,14.00,134.00,24.00,32.00,0,0,"$GNGGA,235004.000,4900.5487,N,00825.4276,E,0,2,,141.3,M,47.9,M,,*59",,,,
2021-12-30T00:50:28+01:00,136,5.00,16.00,135.00,23.00,32.00,0,0,"$GNGGA,235024.000,4900.5488,N,00825.4278,E,1,3,3.18,141.4,M,47.9,M,,*49",,,,
2021-12-30T00:50:48+01:00,137,3.00,10.00,136.00,21.00,33.00,0,0,"$GNGGA,235044.000,4900.5378,N,00825.4701,E,0,2,,141.3,M,47.9,M,,*5F",,,,
2021-12-30T00:51:08+01:00,138,2.00,16.00,137.00,20.00,30.00,0,0,"$GNGGA,235104.000,4900.5388,N,00825.4716,E,1,3,10.38,141.2,M,47.9,M,,*76",,,,
2021-12-30T00:51:28+01:00,139,8.00,19.00,138.00,23.00,32.00,0,0,"$GNGGA,235124.000,4900.5268,N,00825.4522,E,1,3,10.50,142.2,M,47.9,M,,*73",,,,
2021-12-30T00:51:48+01:00,140,2.00,12.00,139.00,22.00,31.00,0,0,"$GNGGA,235144.000,4900.5320,N,00825.4575,E,6,2,99.99,142.7,M,47.9,M,,*7D",,,,
2021-12-30T00:52:08+01:00,141,4.00,19.00,140.00,24.00,32.00,0,0,"$GNGGA,235204.000,4900.5317,N,00825.4689,E,1,3,10.79,142.3,M,47.9,M,,*73",,,,
2021-12-30T00:52:28+01:00,142,4.00,10.00,141.00,24.00,34.00,0,0,"$GNGGA,235224.000,4900.5329,N,00825.4813,E,0,2,,142.0,M,47.9,M,,*53",,,,
2021-12-30T00:52:48+01:00,143,7.00,16.00,142.00,21.00,31.00,0,0,"$GNGGA,235244.000,4900.5333,N,00825.4817,E,1,3,11.09,141.9,M,47.9,M,,*77",,,,
2021-12-30T00:53:08+01:00,144,4.00,19.00,143.00,24.00,30.00,0,0,"$GNGGA,235304.000,4900.5421,N,00825.4548,E,1,4,3.13,142.1,M,47.9,M,,*45",,,,
2021-12-30T00:53:28+01:00,145,3.00,18.00,144.00,22.00,31.00,0,0,"$GNGGA,235324.000,4900.5109,N,00825.4085,E,6,2,99.99,141.5,M,47.9,M,,*7B",,,,
2021-12-30T00:53:48+01:00,146,2.00,16.00,145.00,22.00,31.00,0,0,"$GNGGA,235344.000,4900.4940,N,00825.3651,E,0,2,,141.6,M,47.9,M,,*5A",,,,
2021-12-30T00:54:12+01:00,147,4.00,17.00,146.00,20.00,34.00,0,0,"$GNGGA,235408.000,4900.5470,N,00825.3983,E,1,3,5.04,139.0,M,47.9,M,,*4C",,,,
2021-12-30T00:54:32+01:00,148,3.00,17.00,147.00,20.00,32.00,0,0,"$GNGGA,235428.000,4900.5405,N,00825.4270,E,0,2,,137.9,M,47.9,M,,*54",,,,
2021-12-30T00:54:52+01:00,149,6.00,14.00,148.00,24.00,30.00,0,0,"$GNGGA,235448.000,4900.5407,N,00825.4273,E,0,2,,138.0,M,47.9,M,,*55",,,,
2021-12-30T00:55:12+01:00,150,8.00,13.00,149.00,23.00,34.00,0,0,"$GNGGA,235508.000,4900.5407,N,00825.4273,E,0,2,,138.0,M,47.9,M,,*50",,,,
2021-12-30T00:55:32+01:00,151,6.00,15.00,150.00,24.00,34.00,0,0,"$GNGGA,235528.000,4900.5407,N,00825.4273,E,6,2,99.99,138.0,M,47.9,M,,*7A",,,,
2021-12-30T00:55:52+01:00,152,5.00,13.00,151.00,22.00,30.00,0,0,"$GNGGA,235548.000,4900.5406,N,00825.4274,E,6,1,99.99,138.0,M,47.9,M,,*79",,,,
2021-12-30T00:56:12+01:00,153,6.00,15.00,152.00,22.00,30.00,0,0,"$GNGGA,235608.000,4900.5407,N,00825.4274,E,0,2,,138.0,M,47.9,M,,*54",,,,
2021-12-30T00:56:32+01:00,154,3.00,19.00,153.00,24.00,30.00,0,0,"$GNGGA,235628.000,4900.5405,N,00825.4275,E,0,0,,141.2,M,47.9,M,,*5B",,,,
2021-12-30T00:56:52+01:00,155,4.00,13.00,154.00,23.00,30.00,0,0,"$GNGGA,235648.000,4900.5405,N,00825.4275,E,0,0,,141.2,M,47.9,M,,*5D",,,,
2021-12-30T00:57:12+01:00,156,5.00,11.00,155.00,20.00,30.00,0,0,"$GNGGA,235708.000,4900.5405,N,00825.4275,E,0,0,,141.2,M,47.9,M,,*58",,,,
2021-12-30T00:57:32+01:00,157,5.00,19.00,156.00,20.00,31.00,0,0,"$GNGGA,235728.000,4900.5405,N,00825.4275,E,0,0,,141.2,M,47.9,M,,*5A",,,,
2021-12-30T00:57:52+01:00,158,9.00,11.00,157.00,22.00,31.00,0,0,"$GNGGA,235748.000,4900.5405,N,00825.4275,E,0,0,,141.2,M,47.9,M,,*5C",,,,
2021-12-30T00:58:12+01:00,159,7.00,12.00,158.00,22.00,31.00,0,0,"$GNGGA,235808.000,4900.5405,N,00825.4275,E,0,0,,141.2,M,47.9,M,,*57",,,,
2021-12-30T00:58:32+01:00,160,9.00,14.00,159.00,22.00,33.00,0,0,"$GNGGA,235828.000,4900.5405,N,00825.4275,E,0,0,,141.2,M,47.9,M,,*55",,,,
2021-12-30T00:58:52+01:00,161,9.00,16.00,160.00,21.00,30.00,0,0,"$GNGGA,235848.000,4900.5405,N,00825.4275,E,0,0,,141.2,M,47.9,M,,*53",,,,
2021-12-30T00:59:12+01:00,162,6.00,13.00,161.00,21.00,32.00,0,0,"$GNGGA,235908.000,4900.5405,N,00825.4275,E,0,0,,141.2,M,47.9,M,,*56",,,,
2021-12-30T00:59:32+01:00,163,6.00,19.00,162.00,20.00,30.00,0,0,"$GNGGA,235928.000,4900.5405,N,00825.4275,E,0,0,,141.5,M,47.9,M,,*53",,,,
2021-12-30T00:59:52+01:00,164,3.00,11.00,163.00,24.00,30.00,0,0,"$GNGGA,235948.000,4900.5405,N,00825.4275,E,0,0,,141.5,M,47.9,M,,*55",,,,
2021-12-30T01:00:12+01:00,165,2.00,16.00,164.00,22.00,31.00,0,0,"$GNGGA,000008.000,4900.5405,N,00825.4275,E,0,0,,141.5,M,47.9,M,,*5C",,,,
2021-12-30T01:00:32+01:00,166,2.00,11.00,165.00,23.00,30.00,0,0,"$GNGGA,000028.000,4900.5430,N,00825.4234,E,0,0,,141.5,M,47.9,M,,*5D",,,,
2021-12-30T01:00:52+01:00,167,6.00,16.00,166.00,24.00,30.00,0,0,"$GNGGA,000048.000,4900.5430,N,00825.4234,E,0,0,,141.6,M,47.9,M,,*58",,,,
2021-12-30T01:01:12+01:00,168,6.00,16.00,167.00,24.00,31.00,0,0,"$GNGGA,000108.000,4900.5451,N,00825.4202,E,0,0,,141.6,M,47.9,M,,*5F",,,,
2021-12-30T01:01:32+01:00,169,2.00,15.00,168.00,21.00,30.00,0,0,"$GNGGA,000128.000,4900.5501,N,00825.4123,E,0,0,,141.6,M,47.9,M,,*59",,,,
2021-12-30T01:01:52+01:00,170,9.00,16.00,169.00,24.00,31.00,0,0,"$GNGGA,000148.000,4900.5519,N,00825.4095,E,0,0,,141.8,M,47.9,M,,*54",,,,
2021-12-30T01:02:12+01:00,171,5.00,18.00,170.00,21.00,34.00,0,0,"$GNGGA,000208.000,4900.5519,N,00825.4095,E,0,0,,141.8,M,47.9,M,,*53",,,,
2021-12-30T01:02:32+01:00,172,2.00,15.00,171.00,23.00,34.00,0,0,"$GNGGA,000228.000,4900.5519,N,00825.4095,E,0,0,,141.8,M,47.9,M,,*51",,,,
2021-12-30T01:02:52+01:00,173,3.00,11.00,172.00,23.00,34.00,0,0,"$GNGGA,000248.000,4900.5519,N,00825.4095,E,0,0,,141.8,M,47.9,M,,*57",,,,
2021-12-30T01:03:12+01:00,174,8.00,19.00,173.00,23.00,33.00,0,0,"$GNGGA,000308.000,4900.5519,N,00825.4095,E,0,0,,141.8,M,47.9,M,,*52",,,,
2021-12-30T01:03:32+01:00,175,9.00,16.00,174.00,21.00,31.00,0,0,"$GNGGA,000328.000,4900.5519,N,00825.4095,E,0,0,,141.8,M,47.9,M,,*50",,,,
2021-12-30T01:03:52+01:00,176,6.00,17.00,175.00,20.00,31.00,0,0,"$GNGGA,000348.000,4900.5519,N,00825.4095,E,0,0,,141.8,M,47.9,M,,*56",,,,
2021-12-30T01:04:12+01:00,177,7.00,11.00,176.00,23.00,33.00,0,0,"$GNGGA,000408.000,4900.5519,N,00825.4095,E,0,0,,141.8,M,47.9,M,,*55",,,,
2021-12-30T01:04:32+01:00,178,4.00,16.00,177.00,22.00,34.00,0,0,"$GNGGA,000428.000,4900.5519,N,00825.4095,E,0,0,,141.8,M,47.9,M,,*57",,,,
2021-12-30T01:04:52+01:00,179,3.00,10.00,178.00,24.00,33.00,0,0,"$GNGGA,000448.000,4900.5519,N,00825.4095,E,0,0,,141.8,M,47.9,M,,*51",,,,
2021-12-30T01:05:12+01:00,180,2.00,12.00,179.00,21.00,30.00,0,0,"$GNGGA,000508.000,4900.5519,N,00825.4095,E,0,0,,141.8,M,47.9,M,,*54",,,,
2021-12-30T01:05:32+01:00,181,7.00,12.00,180.00,22.00,30.00,0,0,"$GNGGA,000528.000,4900.5519,N,00825.4095,E,0,0,,141.8,M,47.9,M,,*56",,,,
2021-12-30T01:05:52+01:00,182,3.00,14.00,181.00,24.00,30.00,0,0,"$GNGGA,000548.000,4900.5512,N,00825.4093,E,0,0,,141.8,M,47.9,M,,*5D",,,,
2021-12-30T01:06:12+01:00,183,3.00,10.00,182.00,24.00,31.00,0,0,"$GNGGA,000608.000,4900.5516,N,00825.4094,E,0,0,,141.8,M,47.9,M,,*59",,,,
2021-12-30T01:06:32+01:00,184,6.00,17.00,183.00,20.00,31.00,0,0,"$GNGGA,000628.000,4900.5516,N,00825.4094,E,0,0,,141.8,M,47.9,M,,*5B",,,,
2021-12-30T01:06:52+01:00,185,6.00,19.00,184.00,24.00,33.00,0,0,"$GNGGA,000648.000,4900.5516,N,00825.4094,E,0,0,,141.8,M,47.9,M,,*5D",,,,
2021-12-30T01:07:12+01:00,186,4.00,12.00,185.00,20.00,31.00,0,0,"$GNGGA,000708.000,4900.5516,N,00825.4094,E,0,0,,141.8,M,47.9,M,,*58",,,,
2021-12-30T01:07:32+01:00,187,7.00,12.00,186.00,21.00,34.00,0,0,"$GNGGA,000728.000,4900.5516,N,00825.4094,E,0,0,,141.8,M,47.9,M,,*5A",,,,
2021-12-30T01:07:52+01:00,188,7.00,14.00,187.00,20.00,34.00,0,0,"$GNGGA,000748.000,4900.5516,N,00825.4094,E,0,0,,141.8,M,47.9,M,,*5C",,,,
2021-12-30T01:08:12+01:00,189,8.00,15.00,188.00,23.00,30.00,0,0,"$GNGGA,000808.000,4900.5516,N,00825.4094,E,0,0,,141.8,M,47.9,M,,*57",,,,
2021-12-30T01:08:32+01:00,190,6.00,18.00,189.00,24.00,32.00,0,0,"$GNGGA,000828.000,4900.5516,N,00825.4094,E,0,0,,141.8,M,47.9,M,,*55",,,,
2021-12-30T01:08:52+01:00,191,7.00,18.00,190.00,23.00,30.00,0,0,"$GNGGA,000848.000,4900.5516,N,00825.4094,E,0,0,,141.8,M,47.9,M,,*53",,,,
2021-12-30T01:09:12+01:00,192,2.00,17.00,191.00,20.00,32.00,0,0,"$GNGGA,000908.000,4900.5516,N,00825.4094,E,0,0,,141.8,M,47.9,M,,*56",,,,
2021-12-30T01:09:32+01:00,193,6.00,19.00,192.00,21.00,33.00,0,0,"$GNGGA,000928.000,4900.5516,N,00825.4094,E,0,0,,141.8,M,47.9,M,,*54",,,,
2021-12-30T01:09:52+01:00,194,8.00,19.00,193.00,24.00,34.00,0,0,"$GNGGA,000948.000,4900.5516,N,00825.4094,E,0,0,,141.8,M,47.9,M,,*52",,,,
2021-12-30T01:10:12+01:00,195,9.00,16.00,194.00,24.00,32.00,0,0,"$GNGGA,001008.000,4900.5290,N,00825.5425,E,0,3,,153.8,M,47.9,M,,*58",,,,
2021-12-30T01:10:32+01:00,196,6.00,15.00,195.00,22.00,34.00,0,0,"$GNGGA,001028.000,4900.5006,N,00826.6920,E,1,3,6.51,775.3,M,47.9,M,,*4B",,,,
2021-12-30T01:10:52+01:00,197,4.00,11.00,196.00,23.00,34.00,0,0,"$GNGGA,001048.000,4900.5028,N,00826.7131,E,1,3,6.52,791.0,M,47.9,M,,*42",,,,
2021-12-30T01:11:12+01:00,198,5.00,13.00,197.00,20.00,32.00,0,0,"$GNGGA,001108.000,4900.4979,N,00826.6674,E,1,3,6.53,808.7,M,47.9,M,,*45",,,,
2021-12-30T01:11:32+01:00,199,9.00,19.00,198.00,20.00,33.00,0,0,"$GNGGA,001128.000,4900.4963,N,00826.7018,E,1,3,6.54,827.5,M,47.9,M,,*49",,,,
2021-12-30T01:11:52+01:00,200,3.00,11.00,199.00,20.00,30.00,0,0,"$GNGGA,001148.000,4900.5016,N,00826.8065,E,1,3,6.55,845.7,M,47.9,M,,*47",,,,
2021-12-30T01:12:12+01:00,201,5.00,19.00,200.00,20.00,33.00,0,0,"$GNGGA,001208.000,4900.5023,N,00826.8544,E,1,3,6.56,865.0,M,47.9,M,,*46",,,,
2021-12-30T01:12:32+01:00,202,9.00,15.00,201.00,20.00,33.00,0,0,"$GNGGA,001228.000,4900.5048,N,00826.8643,E,1,3,6.57,880.6,M,47.9,M,,*41",,,,
2021-12-30T01:12:52+01:00,203,7.00,13.00,202.00,24.00,31.00,0,0,"$GNGGA,001248.000,4900.5069,N,00826.8952,E,1,3,6.57,891.2,M,47.9,M,,*4F",,,,
2021-12-30T01:13:12+01:00,204,6.00,13.00,203.00,21.00,32.00,0,0,"$GNGGA,001308.000,4900.5058,N,00826.8875,E,1,3,6.58,901.9,M,47.9,M,,*40",,,,
2021-12-30T01:13:32+01:00,205,8.00,13.00,204.00,22.00,32.00,0,0,"$GNGGA,001328.000,4900.5015,N,00826.7886,E,1,3,6.59,909.8,M,47.9,M,,*40",,,,
2021-12-30T01:13:52+01:00,206,7.00,11.00,205.00,22.00,33.00,0,0,"$GNGGA,001348.000,4900.5057,N,00826.8829,E,1,3,6.60,915.3,M,47.9,M,,*46",,,,
2021-12-30T01:14:12+01:00,207,4.00,13.00,206.00,22.00,32.00,0,0,"$GNGGA,001408.000,4900.5119,N,00826.9551,E,1,3,6.61,910.1,M,47.9,M,,*4B",,,,
2021-12-30T01:14:32+01:00,208,8.00,17.00,207.00,21.00,33.00,0,0,"$GNGGA,001428.000,4900.5113,N,00826.8830,E,1,3,6.62,882.4,M,47.9,M,,*44",,,,
2021-12-30T01:14:52+01:00,209,6.00,19.00,208.00,24.00,33.00,0,0,"$GNGGA,001448.000,4900.5118,N,00826.7560,E,1,3,6.63,833.5,M,47.9,M,,*44",,,,
2021-12-30T01:15:12+01:00,210,3.00,11.00,209.00,20.00,34.00,0,0,"$GNGGA,001508.000,4900.5092,N,00826.5882,E,1,3,6.64,777.2,M,47.9,M,,*4E",,,,
2021-12-30T01:15:32+01:00,211,3.00,12.00,210.00,21.00,31.00,0,0,"$GNGGA,001528.000,4900.5108,N,00826.4700,E,1,3,6.66,715.7,M,47.9,M,,*49",,,,
2021-12-30T01:15:52+01:00,212,8.00,10.00,211.00,21.00,33.00,0,0,"$GNGGA,001548.000,4900.5151,N,00826.4021,E,1,3,6.66,652.1,M,47.9,M,,*43",,,,
2021-12-30T01:16:12+01:00,213,3.00,13.00,212.00,21.00,33.00,0,0,"$GNGGA,001608.000,4900.5180,N,00826.2950,E,1,3,6.67,589.5,M,47.9,M,,*41",,,,
2021-12-30T01:16:32+01:00,214,5.00,15.00,213.00,24.00,31.00,0,0,"$GNGGA,001628.000,4900.5196,N,00826.2005,E,1,3,6.69,529.7,M,47.9,M,,*4B",,,,
2021-12-30T01:16:52+01:00,215,2.00,11.00,214.00,22.00,32.00,0,0,"$GNGGA,001648.000,4900.5225,N,00826.0812,E,1,3,6.70,473.4,M,47.9,M,,*4F",,,,
2021-12-30T01:17:12+01:00,216,8.00,19.00,215.00,20.00,31.00,0,0,"$GNGGA,001708.000,4900.5229,N,00825.9786,E,1,3,6.71,420.6,M,47.9,M,,*4B",,,,
2021-12-30T01:17:32+01:00,217,5.00,15.00,216.00,24.00,33.00,0,0,"$GNGGA,001728.000,4900.5319,N,00825.9410,E,1,3,6.72,371.5,M,47.9,M,,*44",,,,
2021-12-30T01:17:52+01:00,218,4.00,16.00,217.00,24.00,34.00,0,0,"$GNGGA,001748.000,4900.5314,N,00825.8475,E,1,3,6.73,328.5,M,47.9,M,,*40",,,,
2021-12-30T01:18:12+01:00,219,8.00,19.00,218.00,22.00,34.00,0,0,"$GNGGA,001808.000,4900.5364,N,00825.8569,E,1,3,6.74,300.7,M,47.9,M,,*4F",,,,
2021-12-30T01:18:32+01:00,220,4.00,16.00,219.00,23.00,33.00,0,0,"$GNGGA,001828.000,4900.5303,N,00825.7749,E,1,3,6.75,288.8,M,47.9,M,,*4C",,,,
2021-12-30T01:18:52+01:00,221,5.00,12.00,220.00,21.00,34.00,0,0,"$GNGGA,001848.000,4900.5251,N,00825.7114,E,1,3,6.77,272.0,M,47.9,M,,*4D",,,,
2021-12-30T01:19:12+01:00,222,7.00,13.00,221.00,22.00,30.00,0,0,"$GNGGA,001908.000,4900.5253,N,00825.7041,E,1,3,6.77,251.9,M,47.9,M,,*43",,,,
2021-12-30T01:19:32+01:00,223,3.00,17.00,222.00,24.00,31.00,0,0,"$GNGGA,001928.000,4900.5284,N,00825.7039,E,1,3,6.79,240.6,M,47.9,M,,*45",,,,
2021-12-30T01:19:52+01:00,224,9.00,16.00,223.00,23.00,34.00,0,0,"$GNGGA,001948.000,4900.5290,N,00825.7027,E,1,3,6.80,237.3,M,47.9,M,,*4A",,,,
2021-12-30T01:20:12+01:00,225,9.00,14.00,224.00,23.00,30.00,0,0,"$GNGGA,002008.000,4900.5287,N,00825.6960,E,1,3,6.82,235.8,M,47.9,M,,*42",,,,
2021-12-30T01:20:32+01:00,226,7.00,14.00,225.00,20.00,31.00,0,0,"$GNGGA,002028.000,4900.5289,N,00825.6858,E,1,3,6.82,233.3,M,47.9,M,,*49",,,,
2021-12-30T01:20:52+01:00,227,7.00,15.00,226.00,20.00,34.00,0,0,"$GNGGA,002048.000,4900.5326,N,00825.7091,E,1,3,6.84,231.0,M,47.9,M,,*40",,,,
2021-12-30T01:21:12+01:00,228,6.00,13.00,227.00,20.00,30.00,0,0,"$GNGGA,002108.000,4900.5391,N,00825.7249,E,1,3,6.85,228.0,M,47.9,M,,*47",,,,
2021-12-30T01:21:32+01:00,229,2.00,15.00,228.00,21.00,31.00,0,0,"$GNGGA,002128.000,4900.5323,N,00825.6985,E,1,4,3.06,226.0,M,47.9,M,,*41",,,,
2021-12-30T01:21:52+01:00,230,5.00,11.00,229.00,20.00,32.00,0,0,"$GNGGA,002148.000,4900.5279,N,00825.6759,E,1,4,3.06,225.4,M,47.9,M,,*41",,,,
2021-12-30T01:22:12+01:00,231,3.00,16.00,230.00,23.00,33.00,0,0,"$GNGGA,002208.000,4900.5223,N,00825.6544,E,1,4,3.07,225.3,M,47.9,M,,*41",,,,
2021-12-30T01:22:32+01:00,232,8.00,17.00,231.00,22.00,33.00,0,0,"$GNGGA,002228.000,4900.5213,N,00825.6378,E,1,4,3.07,225.3,M,47.9,M,,*49",,,,
2021-12-30T01:22:52+01:00,233,3.00,11.00,232.00,23.00,34.00,0,0,"$GNGGA,002248.000,4900.5208,N,00825.6032,E,1,4,3.08,223.6,M,47.9,M,,*44",,,,
2021-12-30T01:23:12+01:00,234,2.00,14.00,233.00,22.00,32.00,0,0,"$GNGGA,002308.000,4900.5135,N,00825.5820,E,1,4,3.08,221.5,M,47.9,M,,*45",,,,
2021-12-30T01:23:32+01:00,235,2.00,16.00,234.00,21.00,32.00,0,0,"$GNGGA,002328.000,4900.5182,N,00825.5553,E,1,3,3.11,221.4,M,47.9,M,,*4C",,,,
2021-12-30T01:23:52+01:00,236,8.00,16.00,235.00,23.00,33.00,0,0,"$GNGGA,002348.000,4900.5177,N,00825.5629,E,1,4,3.09,218.9,M,47.9,M,,*47",,,,
2021-12-30T01:24:12+01:00,237,4.00,18.00,236.00,20.00,34.00,0,0,"$GNGGA,002408.000,4900.5180,N,00825.5924,E,1,4,3.09,217.3,M,47.9,M,,*4B",,,,
2021-12-30T01:24:32+01:00,238,9.00,12.00,237.00,22.00,31.00,0,0,"$GNGGA,002428.000,4900.5208,N,00825.5752,E,1,4,3.09,216.8,M,47.9,M,,*4F",,,,
2021-12-30T01:24:52+01:00,239,5.00,16.00,238.00,23.00,31.00,0,0,"$GNGGA,002448.000,4900.5200,N,00825.5367,E,1,4,3.10,214.6,M,47.9,M,,*47",,,,
2021-12-30T01:25:12+01:00,240,9.00,18.00,239.00,20.00,32.00,0,0,"$GNGGA,002508.000,4900.5173,N,00825.5353,E,1,4,3.10,213.2,M,47.9,M,,*41",,,,
2021-12-30T01:25:32+01:00,241,8.00,11.00,240.00,23.00,32.00,0,0,"$GNGGA,002528.000,4900.5158,N,00825.5310,E,1,4,3.10,209.1,M,47.9,M,,*45",,,,
2021-12-30T01:25:52+01:00,242,2.00,17.00,241.00,21.00,31.00,0,0,"$GNGGA,002548.000,4900.5163,N,00825.5257,E,1,4,3.11,204.2,M,47.9,M,,*46",,,,
2021-12-30T01:26:12+01:00,243,4.00,16.00,242.00,23.00,33.00,0,0,"$GNGGA,002608.000,4900.5174,N,00825.5066,E,1,4,3.11,198.8,M,47.9,M,,*4B",,,,
2021-12-30T01:26:32+01:00,244,2.00,13.00,243.00,20.00,33.00,0,0,"$GNGGA,002628.000,4900.5179,N,00825.5130,E,1,4,3.11,192.8,M,47.9,M,,*4C",,,,
2021-12-30T01:26:52+01:00,245,7.00,19.00,244.00,20.00,34.00,0,0,"$GNGGA,002648.000,4900.5184,N,00825.5141,E,1,4,3.12,188.1,M,47.9,M,,*4F",,,,
2021-12-30T01:27:12+01:00,246,9.00,17.00,245.00,22.00,31.00,0,0,"$GNGGA,002708.000,4900.5167,N,00825.5070,E,1,4,3.12,178.7,M,47.9,M,,*4D",,,,
2021-12-30T01:27:32+01:00,247,5.00,13.00,246.00,21.00,33.00,0,0,"$GNGGA,002728.000,4900.5175,N,00825.4962,E,1,4,3.12,166.9,M,47.9,M,,*46",,,,
2021-12-30T01:27:52+01:00,248,3.00,18.00,247.00,24.00,31.00,0,0,"$GNGGA,002748.000,4900.5177,N,00825.4977,E,1,4,3.13,158.7,M,47.9,M,,*44",,,,
2021-12-30T01:28:12+01:00,249,9.00,14.00,248.00,20.00,33.00,0,0,"$GNGGA,002808.000,4900.5237,N,00825.4792,E,1,4,3.13,152.6,M,47.9,M,,*46",,,,
2021-12-30T01:28:32+01:00,250,8.00,16.00,249.00,20.00,34.00,0,0,"$GNGGA,002828.000,4900.5262,N,00825.4518,E,1,4,3.14,149.5,M,47.9,M,,*4A",,,,
2021-12-30T01:28:52+01:00,251,3.00,14.00,250.00,24.00,33.00,0,0,"$GNGGA,002848.000,4900.5182,N,00825.4802,E,1,4,3.14,147.2,M,47.9,M,,*4E",,,,
2021-12-30T01:29:12+01:00,252,7.00,10.00,251.00,20.00,30.00,0,0,"$GNGGA,002908.000,4900.5225,N,00825.4580,E,1,4,3.14,142.2,M,47.9,M,,*47",,,,
2021-12-30T01:29:32+01:00,253,9.00,16.00,252.00,22.00,34.00,0,0,"$GNGGA,002928.000,4900.5257,N,00825.4505,E,1,4,3.15,137.3,M,47.9,M,,*4F",,,,
2021-12-30T01:29:52+01:00,254,9.00,11.00,253.00,22.00,31.00,0,0,"$GNGGA,002948.000,4900.5225,N,00825.4407,E,1,4,3.15,130.7,M,47.9,M,,*4C",,,,
2021-12-30T01:30:12+01:00,255,7.00,12.00,254.00,22.00,34.00,0,0,"$GNGGA,003008.000,4900.5241,N,00825.4426,E,1,4,7.11,126.8,M,47.9,M,,*49",,,,
2021-12-30T01:30:32+01:00,256,3.00,11.00,255.00,21.00,31.00,0,0,"$GNGGA,003028.000,4900.5279,N,00825.4463,E,1,4,3.15,127.4,M,47.9,M,,*4C",,,,
2021-12-30T01:30:52+01:00,257,6.00,11.00,256.00,20.00,31.00,0,0,"$GNGGA,003048.000,4900.5261,N,00825.4440,E,1,4,3.16,126.6,M,47.9,M,,*42",,,,
2021-12-30T01:31:12+01:00,258,8.00,13.00,257.00,22.00,32.00,0,0,"$GNGGA,003108.000,4900.5303,N,00825.4374,E,1,4,3.16,126.6,M,47.9,M,,*42",,,,
2021-12-30T01:31:32+01:00,259,6.00,16.00,258.00,21.00,34.00,0,0,"$GNGGA,003128.000,4900.5279,N,00825.4293,E,1,4,3.17,125.6,M,47.9,M,,*46",,,,
2021-12-30T01:31:52+01:00,260,8.00,16.00,259.00,21.00,31.00,0,0,"$GNGGA,003148.000,4900.5272,N,00825.4369,E,1,4,3.17,123.3,M,47.9,M,,*4C",,,,
2021-12-30T01:32:12+01:00,261,5.00,14.00,260.00,23.00,33.00,0,0,"$GNGGA,003208.000,4900.5242,N,00825.4385,E,1,4,3.18,123.1,M,47.9,M,,*47",,,,
2021-12-30T01:32:32+01:00,262,2.00,15.00,261.00,22.00,31.00,0,0,"$GNGGA,003228.000,4900.5268,N,00825.4467,E,1,4,3.18,122.7,M,47.9,M,,*41",,,,
2021-12-30T01:32:52+01:00,263,8.00,10.00,262.00,22.00,34.00,0,0,"$GNGGA,003248.000,4900.5274,N,00825.4555,E,1,4,3.18,123.2,M,47.9,M,,*4E",,,,
2021-12-30T01:33:12+01:00,264,4.00,19.00,263.00,20.00,32.00,0,0,"$GNGGA,003308.000,4900.5256,N,00825.4501,E,1,4,3.18,124.1,M,47.9,M,,*4E",,,,
2021-12-30T01:33:32+01:00,265,8.00,14.00,264.00,23.00,32.00,0,0,"$GNGGA,003328.000,4900.5253,N,00825.4559,E,1,4,3.19,122.8,M,47.9,M,,*4A",,,,
2021-12-30T01:33:52+01:00,266,2.00,11.00,265.00,23.00,30.00,0,0,"$GNGGA,003348.000,4900.5236,N,00825.4581,E,1,4,3.19,122.3,M,47.9,M,,*41",,,,
2021-12-30T01:34:12+01:00,267,9.00,11.00,266.00,23.00,31.00,0,0,"$GNGGA,003408.000,4900.5270,N,00825.4504,E,1,4,3.20,122.9,M,47.9,M,,*4D",,,,
2021-12-30T01:34:32+01:00,268,3.00,12.00,267.00,20.00,34.00,0,0,"$GNGGA,003428.000,4900.5275,N,00825.4498,E,1,4,3.20,122.4,M,47.9,M,,*43",,,,
2021-12-30T01:34:52+01:00,269,4.00,19.00,268.00,24.00,34.00,0,0,"$GNGGA,003448.000,4900.5246,N,00825.4496,E,1,4,6.69,121.5,M,47.9,M,,*41",,,,
2021-12-30T01:35:12+01:00,270,5.00,10.00,269.00,22.00,33.00,0,0,"$GNGGA,003508.000,4900.5205,N,00825.4540,E,1,3,3.26,121.1,M,47.9,M,,*44",,,,
2021-12-30T01:35:32+01:00,271,5.00,13.00,270.00,20.00,33.00,0,0,"$GNGGA,003528.000,4900.5204,N,00825.4463,E,1,3,3.26,121.1,M,47.9,M,,*47",,,,
2021-12-30T01:35:52+01:00,272,4.00,19.00,271.00,22.00,33.00,0,0,"$GNGGA,003548.000,4900.5229,N,00825.4449,E,1,3,3.26,121.2,M,47.9,M,,*45",,,,
2021-12-30T01:36:12+01:00,273,5.00,13.00,272.00,21.00,30.00,0,0,"$GNGGA,003608.000,4900.5210,N,00825.4575,E,1,4,3.22,120.7,M,47.9,M,,*41",,,,
2021-12-30T01:36:32+01:00,274,2.00,17.00,273.00,22.00,33.00,0,0,"$GNGGA,003628.000,4900.5245,N,00825.4600,E,1,4,3.22,120.3,M,47.9,M,,*46",,,,
2021-12-30T01:36:52+01:00,275,3.00,13.00,274.00,21.00,34.00,0,0,"$GNGGA,003648.000,4900.5262,N,00825.4567,E,1,4,3.23,119.9,M,47.9,M,,*46",,,,
2021-12-30T01:37:12+01:00,276,4.00,14.00,275.00,20.00,32.00,0,0,"$GNGGA,003708.000,4900.5245,N,00825.4254,E,1,4,3.23,118.4,M,47.9,M,,*4D",,,,
2021-12-30T01:37:32+01:00,277,5.00,19.00,276.00,21.00,31.00,0,0,"$GNGGA,003728.000,4900.5223,N,00825.4417,E,1,4,3.24,115.8,M,47.9,M,,*48",,,,
2021-12-30T01:37:52+01:00,278,5.00,12.00,277.00,21.00,30.00,0,0,"$GNGGA,003748.000,4900.5197,N,00825.4594,E,1,4,3.24,114.4,M,47.9,M,,*45",,,,
2021-12-30T01:38:12+01:00,279,3.00,18.00,278.00,24.00,31.00,0,0,"$GNGGA,003808.000,4900.5214,N,00825.4582,E,1,3,3.30,114.2,M,47.9,M,,*45",,,,
2021-12-30T01:38:32+01:00,280,9.00,10.00,279.00,20.00,33.00,0,0,"$GNGGA,003828.000,4900.5212,N,00825.4372,E,1,4,3.25,114.1,M,47.9,M,,*48",,,,
2021-12-30T01:38:52+01:00,281,7.00,10.00,280.00,22.00,30.00,0,0,"$GNGGA,003848.000,4900.5236,N,00825.3954,E,1,4,3.25,113.2,M,47.9,M,,*45",,,,
2021-12-30T01:39:12+01:00,282,5.00,12.00,281.00,24.00,34.00,0,0,"$GNGGA,003908.000,4900.5224,N,00825.4495,E,1,4,3.25,113.5,M,47.9,M,,*43",,,,
2021-12-30T01:39:32+01:00,283,8.00,12.00,282.00,23.00,30.00,0,0,"$GNGGA,003928.000,4900.5179,N,00825.4819,E,1,3,3.32,113.9,M,47.9,M,,*4F",,,,
2021-12-30T01:39:52+01:00,284,4.00,19.00,283.00,23.00,31.00,0,0,"$GNGGA,003948.000,4900.5223,N,00825.4708,E,1,4,3.26,113.8,M,47.9,M,,*49",,,,
2021-12-30T01:40:12+01:00,285,8.00,15.00,284.00,24.00,31.00,0,0,"$GNGGA,004008.000,4900.5240,N,00825.4220,E,1,4,3.27,111.9,M,47.9,M,,*4B",,,,
2021-12-30T01:40:32+01:00,286,7.00,16.00,285.00,20.00,34.00,0,0,"$GNGGA,004028.000,4900.5270,N,00825.3747,E,1,3,51.64,110.8,M,47.9,M,,*7E",,,,
2021-12-30T01:40:52+01:00,287,7.00,11.00,286.00,24.00,30.00,0,0,"$GNGGA,004048.000,4900.5537,N,00825.3208,E,0,3,,111.0,M,47.9,M,,*52",,,,
2021-12-30T01:41:12+01:00,288,8.00,16.00,287.00,24.00,33.00,0,0,"$GNGGA,004108.000,4900.5335,N,00825.4119,E,1,4,3.28,111.6,M,47.9,M,,*40",,,,
2021-12-30T01:41:32+01:00,289,8.00,14.00,288.00,24.00,33.00,0,0,"$GNGGA,004128.000,4900.5359,N,00825.4081,E,1,4,3.28,112.6,M,47.9,M,,*4B",,,,
2021-12-30T01:41:52+01:00,290,8.00,12.00,289.00,23.00,32.00,0,0,"$GNGGA,004148.000,4900.5315,N,00825.4103,E,1,4,3.29,113.2,M,47.9,M,,*4A",,,,
2021-12-30T01:42:12+01:00,291,5.00,14.00,290.00,22.00,31.00,0,0,"$GNGGA,004208.000,4900.5323,N,00825.4297,E,1,4,3.29,113.8,M,47.9,M,,*4C",,,,
2021-12-30T01:42:32+01:00,292,4.00,14.00,291.00,23.00,31.00,0,0,"$GNGGA,004228.000,4900.5273,N,00825.4057,E,1,3,8.06,115.0,M,47.9,M,,*4B",,,,
2021-12-30T01:42:52+01:00,293,6.00,18.00,292.00,22.00,32.00,0,0,"$GNGGA,004248.000,4900.5276,N,00825.3938,E,1,3,8.08,114.9,M,47.9,M,,*49",,,,
2021-12-30T01:43:12+01:00,294,9.00,10.00,293.00,22.00,31.00,0,0,"$GNGGA,004308.000,4900.5271,N,00825.3984,E,1,3,8.11,114.9,M,47.9,M,,*44",,,,
2021-12-30T01:43:32+01:00,295,9.00,10.00,294.00,24.00,34.00,0,0,"$GNGGA,004328.000,4900.5277,N,00825.4188,E,1,3,8.14,114.8,M,47.9,M,,*47",,,,
2021-12-30T01:43:52+01:00,296,3.00,18.00,295.00,21.00,33.00,0,0,"$GNGGA,004348.000,4900.5257,N,00825.4507,E,1,3,8.16,114.7,M,47.9,M,,*4D",,,,
2021-12-30T01:44:12+01:00,297,3.00,10.00,296.00,24.00,34.00,0,0,"$GNGGA,004408.000,4900.5273,N,00825.4097,E,0,0,,115.2,M,47.9,M,,*53",,,,
2021-12-30T01:44:32+01:00,298,9.00,18.00,297.00,23.00,34.00,0,0,"$GNGGA,004428.000,4900.5279,N,00825.4457,E,0,3,,112.7,M,47.9,M,,*52",,,,
2021-12-30T01:44:52+01:00,299,2.00,17.00,298.00,21.00,32.00,0,0,"$GNGGA,004448.000,4900.5268,N,00825.4663,E,0,3,,112.4,M,47.9,M,,*52",,,,
2021-12-30T01:45:12+01:00,300,5.00,13.00,299.00,22.00,32.00,0,0,"$GNGGA,004508.000,4900.5150,N,00825.4152,E,0,2,,112.9,M,47.9,M,,*56",,,,
2021-12-30T01:45:32+01:00,301,4.00,14.00,300.00,22.00,32.00,0,0,"$GNGGA,004528.000,4900.5280,N,00825.4072,E,0,0,,115.2,M,47.9,M,,*57",,,,
2021-12-30T01:45:52+01:00,302,6.00,13.00,301.00,24.00,32.00,0,0,"$GNGGA,004548.000,4900.5280,N,00825.4072,E,0,0,,115.2,M,47.9,M,,*51",,,,
2021-12-30T01:46:12+01:00,303,6.00,12.00,302.00,21.00,33.00,0,0,"$GNGGA,004608.000,4900.5280,N,00825.4072,E,0,0,,115.2,M,47.9,M,,*56",,,,
2021-12-30T01:46:32+01:00,304,6.00,16.00,303.00,21.00,30.00,0,0,"$GNGGA,004628.000,4900.5280,N,00825.4072,E,0,0,,115.2,M,47.9,M,,*54",,,,
2021-12-30T01:46:52+01:00,305,3.00,11.00,304.00,23.00,34.00,0,0,"$GNGGA,004648.000,4900.5227,N,00825.3530,E,0,3,,117.7,M,47.9,M,,*5F",,,,
2021-12-30T01:47:12+01:00,306,9.00,17.00,305.00,21.00,31.00,0,0,"$GNGGA,004708.000,4900.5235,N,00825.3938,E,0,3,,111.2,M,47.9,M,,*5E",,,,
2021-12-30T01:47:32+01:00,307,7.00,17.00,306.00,20.00,30.00,0,0,"$GNGGA,004728.000,4900.5238,N,00825.4297,E,1,4,3.37,120.5,M,47.9,M,,*42",,,,
2021-12-30T01:47:52+01:00,308,8.00,16.00,307.00,24.00,33.00,0,0,"$GNGGA,004748.000,4900.5196,N,00825.3982,E,1,4,3.37,110.5,M,47.9,M,,*48",,,,
2021-12-30T01:48:12+01:00,309,5.00,17.00,308.00,24.00,32.00,0,0,"$GNGGA,004808.000,4900.5247,N,00825.4181,E,1,4,3.38,115.7,M,47.9,M,,*48",,,,
2021-12-30T01:48:32+01:00,310,9.00,15.00,309.00,23.00,32.00,0,0,"$GNGGA,004828.000,4900.5206,N,00825.3891,E,1,4,3.38,112.1,M,47.9,M,,*41",,,,
2021-12-30T01:48:52+01:00,311,9.00,12.00,310.00,23.00,34.00,0,0,"$GNGGA,004848.000,4900.5200,N,00825.4133,E,1,4,3.39,108.3,M,47.9,M,,*4F",,,,
2021-12-30T01:49:12+01:00,312,6.00,12.00,311.00,23.00,30.00,0,0,"$GNGGA,004908.000,4900.5191,N,00825.4085,E,1,4,3.40,102.3,M,47.9,M,,*49",,,,
2021-12-30T01:49:32+01:00,313,7.00,11.00,312.00,23.00,32.00,0,0,"$GNGGA,004928.000,4900.5194,N,00825.3941,E,1,4,3.40,97.3,M,47.9,M,,*75",,,,
2021-12-30T01:49:52+01:00,314,5.00,19.00,313.00,21.00,32.00,0,0,"$GNGGA,004948.000,4900.5208,N,00825.3935,E,1,4,3.40,94.6,M,47.9,M,,*70",,,,
2021-12-30T01:50:12+01:00,315,9.00,19.00,314.00,20.00,34.00,0,0,"$GNGGA,005008.000,4900.5202,N,00825.3887,E,1,4,3.41,97.4,M,47.9,M,,*7E",,,,
2021-12-30T01:50:32+01:00,316,8.00,18.00,315.00,23.00,31.00,0,0,"$GNGGA,005028.000,4900.5211,N,00825.4075,E,1,4,3.41,102.2,M,47.9,M,,*47",,,,
2021-12-30T01:50:52+01:00,317,5.00,13.00,316.00,23.00,31.00,0,0,"$GNGGA,005048.000,4900.5214,N,00825.4232,E,1,4,3.42,103.9,M,47.9,M,,*4C",,,,
2021-12-30T01:51:12+01:00,318,8.00,13.00,317.00,23.00,31.00,0,0,"$GNGGA,005108.000,4900.5208,N,00825.4304,E,1,4,3.43,103.4,M,47.9,M,,*4C",,,,
2021-12-30T01:51:32+01:00,319,2.00,16.00,318.00,23.00,33.00,0,0,"$GNGGA,005128.000,4900.5216,N,00825.4320,E,1,4,3.43,104.6,M,47.9,M,,*42",,,,
2021-12-30T01:51:52+01:00,320,3.00,11.00,319.00,22.00,34.00,0,0,"$GNGGA,005148.000,4900.5219,N,00825.4271,E,1,4,3.44,105.8,M,47.9,M,,*46",,,,
2021-12-30T01:52:12+01:00,321,2.00,12.00,320.00,23.00,32.00,0,0,"$GNGGA,005208.000,4900.5201,N,00825.4106,E,1,4,3.45,109.9,M,47.9,M,,*47",,,,
2021-12-30T01:52:32+01:00,322,8.00,12.00,321.00,22.00,31.00,0,0,"$GNGGA,005228.000,4900.5181,N,00825.4156,E,1,4,3.45,112.2,M,47.9,M,,*4A",,,,
2021-12-30T01:52:52+01:00,323,7.00,15.00,322.00,22.00,33.00,0,0,"$GNGGA,005248.000,4900.5195,N,00825.4270,E,1,4,3.46,110.3,M,47.9,M,,*4E",,,,
2021-12-30T01:53:12+01:00,324,7.00,16.00,323.00,20.00,34.00,0,0,"$GNGGA,005308.000,4900.5197,N,00825.4344,E,1,4,3.46,109.3,M,47.9,M,,*47",,,,
2021-12-30T01:53:32+01:00,325,8.00,11.00,324.00,21.00,34.00,0,0,"$GNGGA,005328.000,4900.5203,N,00825.4319,E,1,4,3.47,110.4,M,47.9,M,,*4D",,,,
2021-12-30T01:53:52+01:00,326,2.00,16.00,325.00,20.00,33.00,0,0,"$GNGGA,005348.000,4900.5224,N,00825.4417,E,1,4,3.48,112.6,M,47.9,M,,*48",,,,
2021-12-30T01:54:12+01:00,327,3.00,13.00,326.00,23.00,34.00,0,0,"$GNGGA,005408.000,4900.5243,N,00825.4593,E,1,4,3.48,116.7,M,47.9,M,,*42",,,,
2021-12-30T01:54:32+01:00,328,6.00,11.00,327.00,21.00,32.00,0,0,"$GNGGA,005428.000,4900.5236,N,00825.4427,E,1,4,3.49,118.6,M,47.9,M,,*42",,,,
2021-12-30T01:54:52+01:00,329,8.00,18.00,328.00,24.00,32.00,0,0,"$GNGGA,005448.000,4900.5224,N,00825.4481,E,1,4,3.50,118.8,M,47.9,M,,*4D",,,,
2021-12-30T01:55:12+01:00,330,8.00,10.00,329.00,20.00,33.00,0,0,"$GNGGA,005508.000,4900.5206,N,00825.4428,E,1,4,3.50,120.3,M,47.9,M,,*4B",,,,
2021-12-30T01:55:32+01:00,331,7.00,15.00,330.00,22.00,30.00,0,0,"$GNGGA,005528.000,4900.5212,N,00825.4246,E,1,4,3.51,122.3,M,47.9,M,,*41",,,,
2021-12-30T01:55:52+01:00,332,6.00,10.00,331.00,21.00,31.00,0,0,"$GNGGA,005548.000,4900.5209,N,00825.4379,E,1,4,3.52,125.0,M,47.9,M,,*47",,,,
2021-12-30T01:56:12+01:00,333,5.00,13.00,332.00,23.00,32.00,0,0,"$GNGGA,005608.000,4900.5189,N,00825.4555,E,1,4,3.52,125.4,M,47.9,M,,*47",,,,
2021-12-30T01:56:32+01:00,334,8.00,17.00,333.00,20.00,33.00,0,0,"$GNGGA,005628.000,4900.5204,N,00825.4398,E,1,4,3.53,125.5,M,47.9,M,,*44",,,,
2021-12-30T01:56:52+01:00,335,8.00,16.00,334.00,20.00,30.00,0,0,"$GNGGA,005648.000,4900.5211,N,00825.4442,E,1,4,3.54,126.4,M,47.9,M,,*43",,,,
2021-12-30T01:57:12+01:00,336,8.00,16.00,335.00,23.00,33.00,0,0,"$GNGGA,005708.000,4900.5199,N,00825.4175,E,1,4,3.55,127.6,M,47.9,M,,*46",,,,
2021-12-30T01:57:32+01:00,337,5.00,14.00,336.00,23.00,31.00,0,0,"$GNGGA,005728.000,4900.5250,N,00825.4588,E,1,4,3.55,129.4,M,47.9,M,,*48",,,,
2021-12-30T01:57:52+01:00,338,8.00,14.00,337.00,23.00,34.00,0,0,"$GNGGA,005748.000,4900.5249,N,00825.4380,E,1,3,9.61,130.6,M,47.9,M,,*48",,,,
2021-12-30T01:58:12+01:00,339,9.00,18.00,338.00,20.00,32.00,0,0,"$GNGGA,005808.000,4900.5252,N,00825.4722,E,1,3,9.65,130.5,M,47.9,M,,*42",,,,
2021-12-30T01:58:32+01:00,340,3.00,11.00,339.00,24.00,31.00,0,0,"$GNGGA,005828.000,4900.5234,N,00825.4261,E,1,4,3.57,129.8,M,47.9,M,,*4B",,,,
2021-12-30T01:58:52+01:00,341,9.00,10.00,340.00,22.00,32.00,0,0,"$GNGGA,005848.000,4900.5227,N,00825.4017,E,1,4,3.58,129.4,M,47.9,M,,*4F",,,,
2021-12-30T01:59:12+01:00,342,2.00,16.00,341.00,24.00,34.00,0,0,"$GNGGA,005908.000,4900.5238,N,00825.4483,E,1,4,3.59,128.0,M,47.9,M,,*49",,,,
2021-12-30T01:59:32+01:00,343,5.00,19.00,342.00,24.00,33.00,0,0,"$GNGGA,005928.000,4900.5236,N,00825.4478,E,1,4,3.60,129.6,M,47.9,M,,*4C",,,,
2021-12-30T01:59:52+01:00,344,3.00,16.00,343.00,23.00,34.00,0,0,"$GNGGA,005948.000,4900.5241,N,00825.4605,E,1,4,3.61,130.3,M,47.9,M,,*4E",,,,
2021-12-30T02:00:12+01:00,345,7.00,12.00,344.00,20.00,33.00,0,0,"$GNGGA,010008.000,4900.5259,N,00825.4529,E,1,4,3.61,131.3,M,47.9,M,,*42",,,,
2021-12-30T02:00:32+01:00,346,5.00,15.00,345.00,20.00,34.00,0,0,"$GNGGA,010028.000,4900.5264,N,00825.4267,E,1,4,3.62,133.1,M,47.9,M,,*40",,,,
2021-12-30T02:00:52+01:00,347,4.00,11.00,346.00,23.00,34.00,0,0,"$GNGGA,010048.000,4900.5250,N,00825.4397,E,1,3,3.81,133.2,M,47.9,M,,*46",,,,
2021-12-30T02:01:12+01:00,348,9.00,12.00,347.00,24.00,34.00,0,0,"$GNGGA,010108.000,4900.5251,N,00825.4513,E,1,3,3.82,131.8,M,47.9,M,,*43",,,,
2021-12-30T02:01:32+01:00,349,8.00,19.00,348.00,21.00,33.00,0,0,"$GNGGA,010128.000,4900.5195,N,00825.4620,E,1,4,3.65,130.3,M,47.9,M,,*4D",,,,
2021-12-30T02:01:52+01:00,350,2.00,11.00,349.00,20.00,32.00,0,0,"$GNGGA,010148.000,4900.5217,N,00825.4619,E,1,4,3.66,127.8,M,47.9,M,,*46",,,,
2021-12-30T02:02:12+01:00,351,6.00,15.00,350.00,20.00,34.00,0,0,"$GNGGA,010208.000,4900.5224,N,00825.4598,E,1,4,3.67,126.9,M,47.9,M,,*4A",,,,
2021-12-30T02:02:32+01:00,352,9.00,14.00,351.00,24.00,32.00,0,0,"$GNGGA,010228.000,4900.4974,N,00825.4215,E,1,5,2.76,125.9,M,47.9,M,,*46",,,,
2021-12-30T02:02:52+01:00,353,9.00,19.00,352.00,21.00,33.00,0,0,"$GNGGA,010248.000,4900.4178,N,00825.2115,E,1,5,2.77,129.0,M,47.9,M,,*45",,,,
2021-12-30T02:03:12+01:00,354,8.00,14.00,353.00,20.00,32.00,0,0,"$GNGGA,010308.000,4900.3333,N,00824.9966,E,1,5,2.78,133.3,M,47.9,M,,*4B",,,,
2021-12-30T02:03:32+01:00,355,7.00,19.00,354.00,22.00,30.00,0,0,"$GNGGA,010328.000,4900.2670,N,00824.7909,E,1,5,2.78,138.9,M,47.9,M,,*4C",,,,
2021-12-30T02:03:56+01:00,356,8.00,11.00,355.00,20.00,32.00,0,0,"$GNGGA,010352.000,4900.4755,N,00825.3334,E,1,5,2.79,151.6,M,47.9,M,,*41",,,,
2021-12-30T02:04:16+01:00,357,8.00,10.00,356.00,20.00,30.00,0,0,"$GNGGA,010412.000,4900.4453,N,00825.2716,E,1,5,2.79,146.6,M,47.9,M,,*44",,,,
2021-12-30T02:04:36+01:00,358,7.00,16.00,357.00,21.00,33.00,0,0,"$GNGGA,010432.000,4900.4427,N,00825.2695,E,1,5,2.80,137.6,M,47.9,M,,*4F",,,,
2021-12-30T02:04:56+01:00,359,4.00,16.00,358.00,21.00,31.00,0,0,"$GNGGA,010452.000,4900.4602,N,00825.3089,E,1,5,2.81,122.5,M,47.9,M,,*40",,,,
2021-12-30T02:05:16+01:00,360,5.00,14.00,359.00,22.00,31.00,0,0,"$GNGGA,010512.000,4900.4514,N,00825.3315,E,1,5,2.81,125.0,M,47.9,M,,*45",,,,
2021-12-30T02:05:36+01:00,361,7.00,17.00,360.00,20.00,33.00,0,0,"$GNGGA,010532.000,4900.4333,N,00825.1723,E,1,5,2.82,121.4,M,47.9,M,,*44",,,,
2021-12-30T02:05:56+01:00,362,8.00,11.00,361.00,21.00,34.00,0,0,"$GNGGA,010552.000,4900.4398,N,00825.1453,E,1,5,2.83,131.2,M,47.9,M,,*41",,,,
2021-12-30T02:06:16+01:00,363,6.00,14.00,362.00,20.00,33.00,0,0,"$GNGGA,010612.000,4900.4813,N,00825.3018,E,1,5,2.83,157.9,M,47.9,M,,*4C",,,,
2021-12-30T02:06:36+01:00,364,9.00,14.00,363.00,24.00,33.00,0,0,"$GNGGA,010632.000,4900.4959,N,00825.3622,E,1,5,2.84,170.2,M,47.9,M,,*47",,,,
2021-12-30T02:06:56+01:00,365,7.00,12.00,364.00,20.00,31.00,0,0,"$GNGGA,010652.000,4900.5025,N,00825.3683,E,1,5,2.85,177.7,M,47.9,M,,*4A",,,,
2021-12-30T02:07:16+01:00,366,4.00,14.00,365.00,22.00,33.00,0,0,"$GNGGA,010712.000,4900.5039,N,00825.3677,E,1,5,2.85,186.2,M,47.9,M,,*42",,,,
2021-12-30T02:07:36+01:00,367,9.00,15.00,366.00,22.00,31.00,0,0,"$GNGGA,010732.000,4900.5049,N,00825.3895,E,1,5,2.86,192.5,M,47.9,M,,*44",,,,
2021-12-30T02:07:56+01:00,368,2.00,16.00,367.00,23.00,33.00,0,0,"$GNGGA,010752.000,4900.5112,N,00825.4149,E,1,5,2.87,198.5,M,47.9,M,,*49",,,,
2021-12-30T02:08:16+01:00,369,6.00,15.00,368.00,21.00,30.00,0,0,"$GNGGA,010812.000,4900.5110,N,00825.4290,E,1,5,2.87,200.0,M,47.9,M,,*40",,,,
2021-12-30T02:08:36+01:00,370,8.00,10.00,369.00,24.00,30.00,0,0,"$GNGGA,010832.000,4900.5184,N,00825.4500,E,1,5,2.88,200.5,M,47.9,M,,*4B",,,,
2021-12-30T02:08:56+01:00,371,3.00,11.00,370.00,22.00,34.00,0,0,"$GNGGA,010852.000,4900.5193,N,00825.4412,E,1,5,2.89,196.8,M,47.9,M,,*49",,,,
2021-12-30T02:09:16+01:00,372,8.00,11.00,371.00,23.00,34.00,0,0,"$GNGGA,010912.000,4900.5157,N,00825.4212,E,1,5,2.90,189.3,M,47.9,M,,*4F",,,,
2021-12-30T02:09:36+01:00,373,4.00,15.00,372.00,21.00,31.00,0,0,"$GNGGA,010932.000,4900.5069,N,00825.3837,E,1,5,2.90,187.8,M,47.9,M,,*4E",,,,
2021-12-30T02:09:56+01:00,374,8.00,11.00,373.00,24.00,32.00,0,0,"$GNGGA,010952.000,4900.5215,N,00825.4374,E,1,5,2.91,181.9,M,47.9,M,,*4C",,,,
2021-12-30T02:10:16+01:00,375,9.00,18.00,374.00,22.00,34.00,0,0,"$GNGGA,011012.000,4900.5192,N,00825.4528,E,1,5,2.92,175.9,M,47.9,M,,*4B",,,,
2021-12-30T02:10:36+01:00,376,5.00,13.00,375.00,24.00,33.00,0,0,"$GNGGA,011032.000,4900.5175,N,00825.4475,E,1,5,2.93,178.1,M,47.9,M,,*4D",,,,
2021-12-30T02:11:00+01:00,377,2.00,11.00,376.00,20.00,30.00,0,0,"$GNGGA,011056.000,4900.5147,N,00825.4451,E,1,5,2.94,179.1,M,47.9,M,,*4E",,,,
2021-12-30T02:11:20+01:00,378,4.00,17.00,377.00,20.00,34.00,0,0,"$GNGGA,011116.000,4900.5227,N,00825.4368,E,1,5,2.94,179.4,M,47.9,M,,*46",,,,
2021-12-30T02:11:40+01:00,379,8.00,15.00,378.00,24.00,33.00,0,0,"$GNGGA,011136.000,4900.5237,N,00825.4491,E,1,5,2.95,181.3,M,47.9,M,,*45",,,,
2021-12-30T02:12:01+01:00,380,5.00,16.00,379.00,21.00,32.00,0,0,"$GNGGA,011156.000,4900.5240,N,00825.4379,E,1,5,2.96,180.7,M,47.9,M,,*44",,,,
2021-12-30T02:12:20+01:00,381,5.00,10.00,380.00,22.00,31.00,0,0,"$GNGGA,011216.000,4900.5188,N,00825.4299,E,1,5,2.97,181.6,M,47.9,M,,*4A",,,,
2021-12-30T02:12:40+01:00,382,7.00,15.00,381.00,23.00,33.00,0,0,"$GNGGA,011236.000,4900.5233,N,00825.4462,E,1,5,2.98,185.9,M,47.9,M,,*4D",,,,
2021-12-30T02:13:00+01:00,383,5.00,11.00,382.00,22.00,31.00,0,0,"$GNGGA,011256.000,4900.5365,N,00825.4460,E,1,5,2.99,186.8,M,47.9,M,,*48",,,,
2021-12-30T02:13:20+01:00,384,9.00,10.00,383.00,24.00,33.00,0,0,"$GNGGA,011316.000,4900.5548,N,00825.4190,E,1,5,3.27,189.3,M,47.9,M,,*4E",,,,
2021-12-30T02:13:40+01:00,385,9.00,17.00,384.00,20.00,30.00,0,0,"$GNGGA,011336.000,4900.5469,N,00825.4309,E,1,5,3.00,193.2,M,47.9,M,,*43",,,,
2021-12-30T02:14:00+01:00,386,7.00,15.00,385.00,20.00,32.00,0,0,"$GNGGA,011356.000,4900.5291,N,00825.4596,E,1,5,3.01,189.9,M,47.9,M,,*45",,,,
2021-12-30T02:14:20+01:00,387,9.00,13.00,386.00,21.00,34.00,0,0,"$GNGGA,011416.000,4900.5232,N,00825.4638,E,1,5,3.02,191.1,M,47.9,M,,*4A",,,,
2021-12-30T02:14:40+01:00,388,9.00,19.00,387.00,22.00,32.00,0,0,"$GNGGA,011436.000,4900.5240,N,00825.4532,E,1,5,3.03,193.2,M,47.9,M,,*44",,,,
2021-12-30T02:15:00+01:00,389,6.00,11.00,388.00,23.00,31.00,0,0,"$GNGGA,011456.000,4900.5246,N,00825.4503,E,1,5,3.04,197.1,M,47.9,M,,*46",,,,
2021-12-30T02:15:20+01:00,390,8.00,19.00,389.00,23.00,33.00,0,0,"$GNGGA,011516.000,4900.5213,N,00825.4542,E,1,5,3.05,203.7,M,47.9,M,,*4F",,,,
2021-12-30T02:15:40+01:00,391,3.00,12.00,390.00,23.00,34.00,0,0,"$GNGGA,011536.000,4900.5193,N,00825.4624,E,1,5,3.06,210.5,M,47.9,M,,*46",,,,
2021-12-30T02:16:00+01:00,392,8.00,14.00,391.00,23.00,32.00,0,0,"$GNGGA,011556.000,4900.5255,N,00825.4546,E,1,5,3.07,215.6,M,47.9,M,,*49",,,,
2021-12-30T02:16:20+01:00,393,9.00,15.00,392.00,24.00,33.00,0,0,"$GNGGA,011616.000,4900.5253,N,00825.4606,E,1,5,3.08,219.4,M,47.9,M,,*4E",,,,
2021-12-30T02:16:40+01:00,394,8.00,14.00,393.00,21.00,34.00,0,0,"$GNGGA,011636.000,4900.5280,N,00825.4501,E,1,5,3.09,220.3,M,47.9,M,,*4A",,,,
2021-12-30T02:17:00+01:00,395,9.00,15.00,394.00,23.00,31.00,0,0,"$GNGGA,011656.000,4900.5306,N,00825.4586,E,1,5,3.10,222.3,M,47.9,M,,*46",,,,
2021-12-30T02:17:20+01:00,396,9.00,16.00,395.00,20.00,31.00,0,0,"$GNGGA,011716.000,4900.5197,N,00825.4682,E,1,4,3.36,225.3,M,47.9,M,,*4C",,,,
2021-12-30T02:17:40+01:00,397,4.00,12.00,396.00,24.00,30.00,0,0,"$GNGGA,011736.000,4900.5221,N,00825.4422,E,1,4,3.37,234.1,M,47.9,M,,*4B",,,,
2021-12-30T02:18:00+01:00,398,9.00,10.00,397.00,24.00,34.00,0,0,"$GNGGA,011756.000,4900.5213,N,00825.4500,E,1,4,3.39,243.2,M,47.9,M,,*40",,,,
2021-12-30T02:18:20+01:00,399,6.00,16.00,398.00,22.00,34.00,0,0,"$GNGGA,011816.000,4900.5220,N,00825.4554,E,1,4,3.40,253.4,M,47.9,M,,*43",,,,
2021-12-30T02:18:40+01:00,400,3.00,18.00,399.00,22.00,31.00,0,0,"$GNGGA,011836.000,4900.5304,N,00825.4347,E,1,4,3.41,264.2,M,47.9,M,,*41",,,,
2021-12-30T02:19:00+01:00,401,6.00,16.00,400.00,24.00,32.00,0,0,"$GNGGA,011856.000,4900.5240,N,00825.4266,E,1,4,3.42,275.6,M,47.9,M,,*43",,,,
2021-12-30T02:19:20+01:00,402,2.00,19.00,401.00,22.00,30.00,0,0,"$GNGGA,011916.000,4900.5241,N,00825.4273,E,1,4,3.43,287.4,M,47.9,M,,*4D",,,,
2021-12-30T02:19:40+01:00,403,9.00,13.00,402.00,20.00,33.00,0,0,"$GNGGA,011936.000,4900.5259,N,00825.4215,E,1,4,3.44,300.1,M,47.9,M,,*4A",,,,
2021-12-30T02:20:00+01:00,404,3.00,15.00,403.00,24.00,30.00,0,0,"$GNGGA,011956.000,4900.5275,N,00825.4447,E,1,4,3.45,314.6,M,47.9,M,,*40",,,,
2021-12-30T02:20:20+01:00,405,7.00,13.00,404.00,23.00,32.00,0,0,"$GNGGA,012016.000,4900.5243,N,00825.4501,E,1,4,3.47,330.6,M,47.9,M,,*4C",,,,
2021-12-30T02:20:40+01:00,406,4.00,11.00,405.00,21.00,34.00,0,0,"$GNGGA,012036.000,4900.5243,N,00825.4494,E,1,4,3.48,340.5,M,47.9,M,,*48",,,,
2021-12-30T02:21:04+01:00,407,2.00,10.00,406.00,24.00,33.00,0,0,"$GNGGA,012100.000,4900.5262,N,00825.4577,E,1,4,3.49,347.8,M,47.9,M,,*48",,,,
2021-12-30T02:21:24+01:00,408,6.00,16.00,407.00,23.00,30.00,0,0,"$GNGGA,012120.000,4900.5313,N,00825.4552,E,1,4,3.51,348.8,M,47.9,M,,*4C",,,,
2021-12-30T02:21:44+01:00,409,7.00,11.00,408.00,22.00,34.00,0,0,"$GNGGA,012140.000,4900.5282,N,00825.4592,E,1,4,3.52,350.7,M,47.9,M,,*4A",,,,
2021-12-30T02:22:04+01:00,410,4.00,19.00,409.00,22.00,32.00,0,0,"$GNGGA,012200.000,4900.5276,N,00825.4463,E,1,4,3.53,353.4,M,47.9,M,,*48",,,,
2021-12-30T02:22:24+01:00,411,2.00,11.00,410.00,20.00,30.00,0,0,"$GNGGA,012220.000,4900.5269,N,00825.4402,E,1,4,3.55,357.3,M,47.9,M,,*46",,,,
2021-12-30T02:22:44+01:00,412,8.00,18.00,411.00,20.00,31.00,0,0,"$GNGGA,012240.000,4900.5277,N,00825.4476,E,1,4,3.56,362.1,M,47.9,M,,*4B",,,,
2021-12-30T02:23:04+01:00,413,4.00,16.00,412.00,23.00,33.00,0,0,"$GNGGA,012300.000,4900.5282,N,00825.4459,E,1,4,3.57,367.4,M,47.9,M,,*48",,,,
2021-12-30T02:23:24+01:00,414,5.00,18.00,413.00,22.00,31.00,0,0,"$GNGGA,012320.000,4900.5265,N,00825.4451,E,1,4,3.59,370.8,M,47.9,M,,*4F",,,,
2021-12-30T02:23:44+01:00,415,5.00,14.00,414.00,24.00,31.00,0,0,"$GNGGA,012340.000,4900.5240,N,00825.4452,E,1,4,3.60,374.9,M,47.9,M,,*42",,,,
2021-12-30T02:24:04+01:00,416,7.00,17.00,415.00,24.00,32.00,0,0,"$GNGGA,012400.000,4900.5226,N,00825.4457,E,1,4,3.62,379.7,M,47.9,M,,*45",,,,
2021-12-30T02:24:24+01:00,417,5.00,19.00,416.00,20.00,34.00,0,0,"$GNGGA,012420.000,4900.5250,N,00825.4426,E,1,4,3.63,385.6,M,47.9,M,,*43",,,,
2021-12-30T02:24:44+01:00,418,7.00,15.00,417.00,20.00,31.00,0,0,"$GNGGA,012440.000,4900.5237,N,00825.4367,E,1,4,3.65,392.7,M,47.9,M,,*47",,,,
2021-12-30T02:25:04+01:00,419,5.00,19.00,418.00,22.00,32.00,0,0,"$GNGGA,012500.000,4900.5247,N,00825.4345,E,1,4,3.66,400.4,M,47.9,M,,*49",,,,
2021-12-30T02:25:24+01:00,420,9.00,16.00,419.00,20.00,31.00,0,0,"$GNGGA,012520.000,4900.5270,N,00825.4275,E,1,4,3.68,406.5,M,47.9,M,,*44",,,,
2021-12-30T02:25:44+01:00,421,4.00,11.00,420.00,22.00,33.00,0,0,"$GNGGA,012540.000,4900.5302,N,00825.4231,E,1,4,3.69,409.8,M,47.9,M,,*45",,,,
2021-12-30T02:26:04+01:00,422,8.00,10.00,421.00,21.00,32.00,0,0,"$GNGGA,012600.000,4900.5317,N,00825.4236,E,1,4,3.71,412.2,M,47.9,M,,*48",,,,
2021-12-30T02:26:24+01:00,423,9.00,14.00,422.00,22.00,31.00,0,0,"$GNGGA,012620.000,4900.5298,N,00825.4166,E,1,4,3.72,414.4,M,47.9,M,,*49",,,,
2021-12-30T02:26:44+01:00,424,4.00,15.00,423.00,20.00,31.00,0,0,"$GNGGA,012640.000,4900.5303,N,00825.4011,E,1,4,3.74,417.7,M,47.9,M,,*4B",,,,
2021-12-30T02:27:04+01:00,425,5.00,10.00,424.00,21.00,32.00,0,0,"$GNGGA,012700.000,4900.5346,N,00825.3875,E,1,4,3.76,422.1,M,47.9,M,,*40",,,,
2021-12-30T02:27:24+01:00,426,7.00,12.00,425.00,21.00,33.00,0,0,"$GNGGA,012720.000,4900.5338,N,00825.3909,E,1,4,3.77,428.1,M,47.9,M,,*4A",,,,
