Init...

+CIEV: "Charging",100%


+CREG: 2

^STN: 37
+CTZV:21/11/10,00:20:43,+01

+CREG: 1

A9/A9G
V02.02.20190915R
Ai_Thinker_Co._Ltd.
READY
+CIEV: "Complete the Charge",100%

A9/A9G Module READY.
AT

OK
AT

OK
A9/A9G Module had turned on.
AT+GPS=1

OK
AT+GPSRD=10

OK
AT+LOCATION=2
+LOCATION: GPS NOT FIX NOW
+CME ERROR: 52
Maduino A9/A9G GPS Test Begin!
+GPSRD:$GNGGA,000009.263,4900.5149,N,00825.4374,E,0,0,,102.1,M,47.9,M,,*54
$GPGSA,A,1,,,,,,,,,,,,,,,*1E
$BDGSA,A,1,,,,,,,,,,,,,,,*0F
$GPGSV,1,1,02,23,,,28,05,,,31*77
$BDGSV,1,1,00*68
$GNRMC,000009.263,V,4900.5149,N,00825.4374,E,0.000,0.00,060180,,,N*56
$GNVTG,0.00,T,,M,0.000,N,0.000,K,N*2C
AT+LOCATION=2
+LOCATION: GPS NOT FIX NOW
+CME ERROR: 52
+GPSRD:$GNGGA,002110.096,4900.5149,N,00825.4374,E,0,0,,99.6,M,47.9,M,,*63
$GPGSA,A,1,,,,,,,,,,,,,,,*1E
$BDGSA,A,1,,,,,,,,,,,,,,,*0F
$GPGSV,3,1,11,26,76,239,,18,75,114,,16,43,304,,29,28,077,*7F
$GPGSV,3,2,11,23,20,142,28,27,20,272,,31,20,207,,05,19,045,31*7D
$GPGSV,3,3,11,25,02,136,,20,01,024,,10,01,166,*4C
$BDGSV,1,1,00*68
$GNRMC,002110.096,V,4900.5149,N,00825.4374,E,0.000,0.00,101121,,,N*58
$GNVTG,0.00,T,,M,0.000,N,0.000,K,N*2C
+GPSRD:$GNGGA,002120.094,4900.5149,N,00825.4374,E,0,0,,99.6,M,47.9,M,,*62
$GPGSA,A,1,,,,,,,,,,,,,,,*1E
$BDGSA,A,1,,,,,,,,,,,,,,,*0F
$GPGSV,3,1,11,26,76,239,,18,75,114,25,16,43,304,,29,28,077,*78
$GPGSV,3,2,11,23,20,142,24,27,20,272,,31,20,207,,05,19,045,31*71
$GPGSV,3,3,11,25,02,136,,20,01,024,,10,01,166,*4C
$BDGSV,1,1,00*68
$GNRMC,002120.094,V,4900.5149,N,00825.4374,E,0.000,0.00,101121,,,N*59
$GNVTG,0.00,T,,M,0.000,N,0.000,K,N*2C
AT+LOCATION=2
+LOCATION: GPS NOT FIX NOW
+CME ERROR: 52
+GPSRD:$GNGGA,002130.098,4900.1196,N,00835.0358,E,0,2,,114.4,M,48.0,M,,*50
$GPGSA,A,1,23,05,,,,,,,,,,,,,*1A
$BDGSA,A,1,,,,,,,,,,,,,,,*0F
$GPGSV,3,1,11,26,76,239,,18,75,113,26,16,44,304,,29,28,077,*7B
$GPGSV,3,2,11,23,20,142,26,27,20,272,,31,20,207,,05,19,045,32*70
$GPGSV,3,3,11,25,02,136,,20,01,024,,10,01,166,*4C
$BDGSV,1,1,00*68
$GNRMC,002130.098,V,4900.1196,N,00835.0358,E,0.061,199.95,101121,,,N*53
$GNVTG,199.95,T,,M,0.061,N,0.113,K,N*25
AT+LOCATION=2
+LOCATION: GPS NOT FIX NOW
+CME ERROR: 52
+GPSRD:$GNGGA,002140.098,4900.5164,N,00825.5782,E,0,2,,99.6,M,47.9,M,,*69
$GPGSA,A,1,23,05,,,,,,,,,,,,,*1A
$BDGSA,A,1,,,,,,,,,,,,,,,*0F
$GPGSV,3,1,11,26,76,238,,18,75,113,26,16,44,304,,29,28,078,*75
$GPGSV,3,2,11,23,20,142,28,27,20,272,,31,20,207,,05,19,045,31*7D
$GPGSV,3,3,11,25,02,136,,20,01,024,,10,01,166,*4C
$BDGSV,1,1,01,05,,,27*69
$GNRMC,002140.098,V,4900.5164,N,00825.5782,E,0.083,3.47,101121,,,N*5B
$GNVTG,3.47,T,,M,0.083,N,0.154,K,N*27
+GPSRD:$GNGGA,002150.098,4900.5214,N,00825.4401,E,0,2,,99.6,M,47.9,M,,*65
$GPGSA,A,1,23,05,,,,,,,,,,,,,*1A
$BDGSA,A,1,,,,,,,,,,,,,,,*0F
$GPGSV,3,1,11,26,76,238,,18,75,113,26,16,44,304,,29,28,078,26*71
$GPGSV,3,2,11,23,20,142,28,27,20,272,,31,20,207,,05,19,045,31*7D
$GPGSV,3,3,11,25,02,136,,20,01,024,,10,01,166,*4C
$BDGSV,1,1,01,05,,,28*66
$GNRMC,002150.098,V,4900.5214,N,00825.4401,E,0.616,3.42,101121,,,N*58
$GNVTG,3.42,T,,M,0.616,N,1.142,K,N*2E
AT+LOCATION=2
+LOCATION: GPS NOT FIX NOW
+CME ERROR: 52
+GPSRD:$GNGGA,002200.098,4900.5209,N,00825.4065,E,0,3,,99.7,M,47.9,M,,*69
$GPGSA,A,1,23,05,18,,,,,,,,,,,,*13
$BDGSA,A,1,,,,,,,,,,,,,,,*0F
$GPGSV,3,1,11,26,76,238,,18,75,113,26,16,44,304,,29,28,078,27*70
$GPGSV,3,2,11,23,20,142,28,27,20,272,,31,20,207,,05,19,045,30*7C
$GPGSV,3,3,11,25,02,136,,20,01,024,,10,01,166,*4C
$BDGSV,1,1,01,05,,,28*66
$GNRMC,002200.098,V,4900.5209,N,00825.4065,E,0.624,187.12,101121,,,N*5D
$GNVTG,187.12,T,,M,0.624,N,1.156,K,N*22
+GPSRD:$GNGGA,002210.098,4900.5216,N,00825.3939,E,0,3,,99.6,M,47.9,M,,*60
$GPGSA,A,1,23,05,18,,,,,,,,,,,,*13
$BDGSA,A,1,,,,,,,,,,,,,,,*0F
$GPGSV,3,1,11,26,76,238,,18,75,113,27,16,44,304,,29,28,078,21*77
$GPGSV,3,2,11,23,20,142,29,27,20,272,,31,20,207,,05,19,045,31*7C
$GPGSV,3,3,11,25,02,136,,20,01,024,,10,01,166,*4C
$BDGSV,1,1,01,05,,,27*69
$GNRMC,002210.098,V,4900.5216,N,00825.3939,E,0.674,11.69,101121,,,N*62
$GNVTG,11.69,T,,M,0.674,N,1.249,K,N*18
AT+LOCATION=2
+LOCATION: GPS NOT FIX NOW
+CME ERROR: 52
+GPSRD:$GNGGA,002220.098,4900.5229,N,00825.3983,E,0,3,,99.6,M,47.9,M,,*6E
$GPGSA,A,1,23,05,18,,,,,,,,,,,,*13
$BDGSA,A,1,,,,,,,,,,,,,,,*0F
$GPGSV,3,1,11,26,76,238,,18,75,113,27,16,44,304,,29,28,078,14*71
$GPGSV,3,2,11,23,20,142,29,27,20,272,,31,20,207,,05,19,045,31*7C
$GPGSV,3,3,11,25,02,136,,20,01,024,,10,01,166,*4C
$BDGSV,1,1,01,05,,,27*69
$GNRMC,002220.098,V,4900.5229,N,00825.3983,E,0.356,234.34,101121,,,N*54
$GNVTG,234.34,T,,M,0.356,N,0.661,K,N*2F
AT+LOCATION=2
+LOCATION: GPS NOT FIX NOW
+CME ERROR: 52
+GPSRD:$GNGGA,002230.098,4900.5222,N,00825.3995,E,0,3,,99.6,M,47.9,M,,*63
$GPGSA,A,1,23,05,18,,,,,,,,,,,,*13
$BDGSA,A,1,,,,,,,,,,,,,,,*0F
$GPGSV,3,1,11,26,76,238,,18,75,113,28,16,44,304,,29,28,078,18*72
$GPGSV,3,2,11,23,20,142,29,27,20,272,,31,20,207,,05,19,044,31*7D
$GPGSV,3,3,11,25,02,136,,20,01,024,,10,01,166,*4C
$BDGSV,1,1,01,05,,,27*69
$GNRMC,002230.098,V,4900.5222,N,00825.3995,E,0.142,85.13,101121,,,N*63
$GNVTG,85.13,T,,M,0.142,N,0.262,K,N*12
+GPSRD:$GNGGA,002240.098,4900.5213,N,00825.4093,E,0,3,,99.6,M,47.9,M,,*6E
$GPGSA,A,1,23,05,18,,,,,,,,,,,,*13
$BDGSA,A,1,,,,,,,,,,,,,,,*0F
$GPGSV,3,1,11,26,76,238,,18,75,113,27,16,44,304,,29,28,078,22*74
$GPGSV,3,2,11,23,20,142,29,27,20,272,,31,20,207,,05,19,044,30*7C
$GPGSV,3,3,11,25,02,136,,20,01,024,,10,01,166,*4C
$BDGSV,1,1,01,05,,,27*69
$GNRMC,002240.098,V,4900.5213,N,00825.4093,E,0.521,247.08,101121,,,N*59
$GNVTG,247.08,T,,M,0.521,N,0.965,K,N*29
AT+LOCATION=2
+LOCATION: GPS NOT FIX NOW
+CME ERROR: 52
+GPSRD:$GNGGA,002250.098,4900.5224,N,00825.4023,E,0,3,,99.6,M,47.9,M,,*60
$GPGSA,A,1,23,05,18,,,,,,,,,,,,*13
$BDGSA,A,1,,,,,,,,,,,,,,,*0F
$GPGSV,3,1,10,26,76,238,,18,75,111,27,16,44,303,,29,28,078,25*77
$GPGSV,3,2,10,23,21,142,30,27,20,272,,31,20,207,,05,19,044,30*74
$GPGSV,3,3,10,25,02,136,,10,01,166,*78
$BDGSV,1,1,01,05,,,27*69
$GNRMC,002250.098,V,4900.5224,N,00825.4023,E,0.527,238.24,101121,,,N*57
$GNVTG,238.24,T,,M,0.527,N,0.976,K,N*2B
AT+LOCATION=2

49.008683,8.424040

OK
+GPSRD:$GNGGA,002301.000,4900.5211,N,00825.4424,E,1,4,2.72,127.3,M,47.9,M,,*4F
$GPGSA,A,3,23,05,18,29,,,,,,,,,2.89,2.72,0.95*0C
$BDGSA,A,3,,,,,,,,,,,,,2.89,2.72,0.95*1B
$GPGSV,3,1,11,26,76,236,,18,75,111,26,16,44,303,,37,32,162,*70
$GPGSV,3,2,11,29,27,078,28,23,21,142,27,27,21,272,,31,20,206,*76
$GPGSV,3,3,11,05,19,044,29,25,02,136,,10,01,166,*4F
$BDGSV,1,1,01,05,,,27*69
$GNRMC,002301.000,A,4900.5211,N,00825.4424,E,0.501,236.53,101121,,,A*44
$GNVTG,236.53,T,,M,0.501,N,0.929,K,A*24
+GPSRD:$GNGGA,002311.000,4900.5213,N,00825.4358,E,1,4,2.72,126.9,M,47.9,M,,*4B
$GPGSA,A,3,23,05,18,29,,,,,,,,,2.89,2.72,0.95*0C
$BDGSA,A,3,,,,,,,,,,,,,2.89,2.72,0.95*1B
$GPGSV,3,1,11,26,76,236,,18,75,111,26,16,44,303,,39,31,158,*74
$GPGSV,3,2,11,29,27,078,29,23,21,142,27,27,21,272,,31,20,206,*77
$GPGSV,3,3,11,05,19,044,28,25,02,136,,10,01,166,*4E
$BDGSV,1,1,01,05,,,27*69
$GNRMC,002311.000,A,4900.5213,N,00825.4358,E,1.213,262.30,101121,,,A*4A
$GNVTG,262.30,T,,M,1.213,N,2.247,K,A*24
AT+LOCATION=2

49.008693,8.423913

OK
+GPSRD:$GNGGA,002321.000,4900.5214,N,00825.4325,E,1,4,2.72,124.8,M,47.9,M,,*46
$GPGSA,A,3,23,05,18,29,,,,,,,,,2.88,2.72,0.95*0D
$BDGSA,A,3,,,,,,,,,,,,,2.88,2.72,0.95*1A
$GPGSV,3,1,11,26,76,236,,18,75,111,25,16,44,303,,33,29,210,*7B
$GPGSV,3,2,11,29,27,078,29,23,21,142,27,27,21,272,,31,20,206,*77
$GPGSV,3,3,11,05,19,044,28,25,02,136,,10,01,166,*4E
$BDGSV,1,1,01,05,,,27*69
$GNRMC,002321.000,A,4900.5214,N,00825.4325,E,0.412,228.48,101121,,,A*43
$GNVTG,228.48,T,,M,0.412,N,0.763,K,A*22
AT+LOCATION=2

49.008678,8.423833

OK
+GPSRD:$GNGGA,002331.000,4900.5206,N,00825.4305,E,1,4,2.72,123.7,M,47.9,M,,*4E
$GPGSA,A,3,23,05,18,29,,,,,,,,,2.88,2.72,0.95*0D
$BDGSA,A,3,,,,,,,,,,,,,2.88,2.72,0.95*1A
$GPGSV,3,1,11,26,76,236,,18,75,111,25,16,44,303,,29,27,078,25*75
$GPGSV,3,2,11,23,21,142,27,27,21,272,,31,20,206,,05,19,044,28*7A
$GPGSV,3,3,11,40,13,117,,25,02,136,,10,01,166,*48
$BDGSV,1,1,01,05,,,27*69
$GNRMC,002331.000,A,4900.5206,N,00825.4305,E,0.924,131.08,101121,,,A*44
$GNVTG,131.08,T,,M,0.924,N,1.711,K,A*21
+GPSRD:$GNGGA,002341.000,4900.5209,N,00825.4297,E,1,4,2.72,123.2,M,47.9,M,,*49
$GPGSA,A,3,23,05,18,29,,,,,,,,,2.88,2.72,0.95*0D
$BDGSA,A,3,,,,,,,,,,,,,2.88,2.72,0.95*1A
$GPGSV,3,1,11,26,76,236,,18,75,111,25,16,44,303,,37,32,162,*73
$GPGSV,3,2,11,29,27,078,20,23,21,142,28,27,21,272,,31,20,206,*71
$GPGSV,3,3,11,05,19,044,27,25,02,136,,10,01,166,*41
$BDGSV,1,1,01,05,,,27*69
$GNRMC,002341.000,A,4900.5209,N,00825.4297,E,0.372,264.05,101121,,,A*41
$GNVTG,264.05,T,,M,0.372,N,0.690,K,A*2F
AT+LOCATION=2

49.008683,8.423893

OK
+GPSRD:$GNGGA,002351.000,4900.5207,N,00825.4368,E,1,4,2.72,124.7,M,47.9,M,,*45
$GPGSA,A,3,23,05,18,29,,,,,,,,,2.88,2.72,0.95*0D
$BDGSA,A,3,,,,,,,,,,,,,2.88,2.72,0.95*1A
$GPGSV,3,1,11,26,76,236,,18,75,111,25,16,44,303,,39,31,158,*77
$GPGSV,3,2,11,29,27,078,22,23,21,142,27,27,21,272,,31,20,206,*7C
$GPGSV,3,3,11,05,19,044,28,25,02,136,,10,01,166,*4E
$BDGSV,1,1,01,05,,,26*68
$GNRMC,002351.000,A,4900.5207,N,00825.4368,E,0.050,300.16,101121,,,A*4D
$GNVTG,300.16,T,,M,0.050,N,0.093,K,A*28
+GPSRD:$GNGGA,002401.000,4900.5206,N,00825.4431,E,1,4,2.71,127.4,M,47.9,M,,*4E
$GPGSA,A,3,23,05,18,29,,,,,,,,,2.88,2.71,0.95*0E
$BDGSA,A,3,,,,,,,,,,,,,2.88,2.71,0.95*19
$GPGSV,3,1,11,26,76,236,,18,75,108,23,16,45,303,,33,29,210,*74
$GPGSV,3,2,11,29,27,078,20,23,21,142,25,27,21,272,,31,20,206,*7C
$GPGSV,3,3,11,05,19,044,27,25,02,136,,10,02,166,*42
$BDGSV,1,1,01,05,,,26*68
$GNRMC,002401.000,A,4900.5206,N,00825.4431,E,0.072,178.45,101121,,,A*4E
$GNVTG,178.45,T,,M,0.072,N,0.133,K,A*28
AT+LOCATION=2

49.008677,8.424057

OK
+GPSRD:$GNGGA,004811.000,4900.5214,N,00825.4344,E,2,7,1.29,102.1,M,47.9,M,,*4F
$GPGSA,A,3,23,05,18,16,29,,,,,,,,1.59,1.29,0.93*0E
$BDGSA,A,3,13,08,,,,,,,,,,,1.59,1.29,0.93*14
$GPGSV,3,1,11,26,70,199,16,18,69,075,16,16,55,299,15,23,30,135,34*7E
$GPGSV,3,2,11,27,30,279,,29,18,085,34,40,18,125,29,05,14,036,28*75
$GPGSV,3,3,11,10,11,163,19,31,10,202,,08,02,275,*4D
$BDGSV,3,1,09,26,58,234,,29,40,062,,13,29,043,20,12,24,257,*6D
$BDGSV,3,2,09,08,19,037,22,05,18,121,26,20,11,075,,02,02,100,*6F
$BDGSV,3,3,09,19,01,120,*5B
$GNRMC,004811.000,A,4900.5214,N,00825.4344,E,3.278,282.82,101121,,,D*40
$GNVTG,282.82,T,,M,3.278,N,6.075,K,D*2E
AT+LOCATION=2

49.008670,8.423955

OK
+GPSRD:$GNGGA,004821.000,4900.5199,N,00825.4372,E,2,7,1.29,101.1,M,47.9,M,,*4C
$GPGSA,A,3,23,05,18,16,29,,,,,,,,1.59,1.29,0.93*0E
$BDGSA,A,3,13,08,,,,,,,,,,,1.59,1.29,0.93*14
$GPGSV,3,1,11,26,70,199,16,18,69,075,18,16,55,299,14,23,30,135,34*71
$GPGSV,3,2,11,27,30,279,,29,18,085,34,40,18,125,29,05,14,036,29*74
$GPGSV,3,3,11,10,11,163,19,31,10,202,,08,02,275,*4D
$BDGSV,3,1,09,26,58,234,,29,40,062,,13,29,043,21,12,24,257,*6C
$BDGSV,3,2,09,08,19,037,22,05,18,121,26,20,11,075,,02,02,100,*6F
$BDGSV,3,3,09,19,01,120,*5B
$GNRMC,004821.000,A,4900.5199,N,00825.4372,E,2.441,273.26,101121,,,D*4D
$GNVTG,273.26,T,,M,2.441,N,4.524,K,D*20
+GPSRD:$GNGGA,004831.000,4900.5205,N,00825.4363,E,2,7,1.29,104.4,M,47.9,M,,*4B
$GPGSA,A,3,23,05,18,16,29,,,,,,,,1.59,1.29,0.93*0E
$BDGSA,A,3,13,08,,,,,,,,,,,1.59,1.29,0.93*14
$GPGSV,3,1,11,26,70,199,14,18,69,075,17,16,55,299,16,23,30,135,34*7E
$GPGSV,3,2,11,27,30,279,,29,18,085,35,40,18,125,29,05,13,035,30*79
$GPGSV,3,3,11,10,11,163,19,31,10,202,,08,02,276,*4E
$BDGSV,3,1,09,26,58,234,,29,40,062,,13,29,043,22,12,24,257,*6F
$BDGSV,3,2,09,08,19,037,22,05,18,121,26,20,11,075,,02,02,100,*6F
$BDGSV,3,3,09,19,01,120,*5B
$GNRMC,004831.000,A,4900.5205,N,00825.4363,E,0.105,294.33,101121,,,D*40
$GNVTG,294.33,T,,M,0.105,N,0.194,K,D*21
AT+LOCATION=2

49.008668,8.423898

OK
+GPSRD:$GNGGA,004841.000,4900.5204,N,00825.4330,E,2,7,1.30,107.0,M,47.9,M,,*44
$GPGSA,A,3,23,05,18,16,29,,,,,,,,1.59,1.30,0.93*06
$BDGSA,A,3,13,08,,,,,,,,,,,1.59,1.30,0.93*1C
$GPGSV,3,1,11,26,70,199,14,18,69,074,20,16,56,299,18,23,30,135,34*76
$GPGSV,3,2,11,27,30,279,,29,18,085,36,40,18,125,29,05,13,035,29*72
$GPGSV,3,3,11,10,12,162,21,31,10,202,,08,02,276,*47
$BDGSV,3,1,09,26,58,234,,29,40,062,,13,29,043,22,12,24,257,*6F
$BDGSV,3,2,09,08,19,037,23,05,18,121,26,20,11,075,,02,02,100,*6E
$BDGSV,3,3,09,19,01,120,*5B
$GNRMC,004841.000,A,4900.5204,N,00825.4330,E,0.659,110.75,101121,,,D*43
$GNVTG,110.75,T,,M,0.659,N,1.222,K,D*2D
+GPSRD:$GNGGA,004851.000,4900.5199,N,00825.4389,E,2,7,1.30,107.6,M,47.9,M,,*46
$GPGSA,A,3,23,05,18,16,29,,,,,,,,1.59,1.30,0.93*06
$BDGSA,A,3,13,08,,,,,,,,,,,1.59,1.30,0.93*1C
$GPGSV,3,1,11,26,70,198,13,18,69,074,20,16,56,299,15,23,31,135,34*7C
$GPGSV,3,2,11,27,31,279,,29,18,085,35,40,18,125,28,05,13,035,28*70
$GPGSV,3,3,11,10,12,162,21,31,10,202,,08,02,276,*47
$BDGSV,3,1,09,26,58,234,,29,40,062,,13,29,043,21,12,24,257,*6C
$BDGSV,3,2,09,08,19,037,22,05,18,121,26,20,11,075,,02,02,100,*6F
$BDGSV,3,3,09,19,01,120,*5B
$GNRMC,004851.000,A,4900.5199,N,00825.4389,E,1.221,101.56,101121,,,D*4C
$GNVTG,101.56,T,,M,1.221,N,2.263,K,D*20
AT+LOCATION=2

49.008665,8.423982

OK
+GPSRD:$GNGGA,004901.000,4900.5197,N,00825.4394,E,2,7,1.30,108.1,M,47.9,M,,*48
$GPGSA,A,3,23,05,18,16,29,,,,,,,,1.59,1.30,0.93*06
$BDGSA,A,3,13,08,,,,,,,,,,,1.59,1.30,0.93*1C
$GPGSV,3,1,11,26,70,198,13,18,69,074,20,16,56,299,17,23,31,135,33*79
$GPGSV,3,2,11,27,31,279,,29,18,085,34,40,18,125,28,05,13,035,28*71
$GPGSV,3,3,11,10,12,162,19,31,09,202,,08,02,276,*44
$BDGSV,3,1,09,26,58,234,,29,40,062,,13,29,043,21,12,24,257,*6C
$BDGSV,3,2,09,08,19,037,21,05,18,121,26,20,11,075,,02,02,100,*6C
$BDGSV,3,3,09,19,01,120,*5B
$GNRMC,004901.000,A,4900.5197,N,00825.4394,E,0.573,201.11,101121,,,D*4B
$GNVTG,201.11,T,,M,0.573,N,1.062,K,D*21
AT+LOCATION=2

49.008668,8.424037

OK
+GPSRD:$GNGGA,004911.000,4900.5198,N,00825.4410,E,2,7,1.30,108.0,M,47.9,M,,*4C
$GPGSA,A,3,23,05,18,16,29,,,,,,,,1.59,1.30,0.93*06
$BDGSA,A,3,13,08,,,,,,,,,,,1.59,1.30,0.93*1C
$GPGSV,3,1,11,26,70,198,,18,69,074,21,16,56,299,17,23,31,135,34*7D
$GPGSV,3,2,11,27,31,279,,29,18,085,32,40,18,125,29,05,13,035,27*79
$GPGSV,3,3,11,10,12,162,20,31,09,202,,08,02,276,*4E
$BDGSV,3,1,09,26,58,234,,29,40,062,,13,28,043,20,12,25,258,*62
$BDGSV,3,2,09,08,19,037,23,05,18,121,26,20,11,075,,02,02,100,*6E
$BDGSV,3,3,09,19,01,120,*5B
$GNRMC,004911.000,A,4900.5198,N,00825.4410,E,0.417,331.70,101121,,,D*48
$GNVTG,331.70,T,,M,0.417,N,0.772,K,D*20
+GPSRD:$GNGGA,004921.000,4900.5201,N,00825.4377,E,2,7,1.30,108.9,M,47.9,M,,*43
$GPGSA,A,3,23,05,18,16,29,,,,,,,,1.59,1.30,0.93*06
$BDGSA,A,3,13,08,,,,,,,,,,,1.59,1.30,0.93*1C
$GPGSV,3,1,11,26,70,198,,18,69,074,22,16,56,299,16,23,31,135,34*7F
$GPGSV,3,2,11,27,31,279,,29,18,085,32,40,18,125,29,05,13,035,26*78
$GPGSV,3,3,11,10,12,162,19,31,09,202,,08,02,276,*44
$BDGSV,3,1,09,26,58,234,,29,40,062,,13,28,043,19,12,25,258,*68
$BDGSV,3,2,09,08,19,037,23,05,18,121,26,20,11,075,,02,02,100,*6E
$BDGSV,3,3,09,19,01,120,*5B
$GNRMC,004921.000,A,4900.5201,N,00825.4377,E,0.386,280.15,101121,,,D*49
$GNVTG,280.15,T,,M,0.386,N,0.716,K,D*25
AT+LOCATION=2

49.008673,8.423950

OK
+GPSRD:$GNGGA,004931.000,4900.5216,N,00825.4358,E,2,7,1.30,108.3,M,47.9,M,,*43
$GPGSA,A,3,23,05,18,16,29,,,,,,,,1.60,1.30,0.93*0C
$BDGSA,A,3,13,08,,,,,,,,,,,1.60,1.30,0.93*16
$GPGSV,3,1,11,26,70,198,,18,69,074,24,16,56,299,17,23,31,135,34*78
$GPGSV,3,2,11,27,31,279,,29,18,085,34,40,18,125,28,05,13,035,26*7F
$GPGSV,3,3,11,10,12,162,19,31,09,202,,08,02,276,*44
$BDGSV,3,1,09,26,58,233,,29,39,062,,13,28,043,18,12,25,258,*60
$BDGSV,3,2,09,08,19,037,22,05,18,121,26,20,11,075,,02,02,100,*6F
$BDGSV,3,3,09,19,01,120,*5B
$GNRMC,004931.000,A,4900.5216,N,00825.4358,E,1.145,17.03,101121,,,D*74
$GNVTG,17.03,T,,M,1.145,N,2.122,K,D*11
AT+LOCATION=2

49.008697,8.423928

OK
+GPSRD:$GNGGA,004941.000,4900.5214,N,00825.4357,E,2,7,1.30,106.9,M,47.9,M,,*4D
$GPGSA,A,3,23,05,18,16,29,,,,,,,,1.60,1.30,0.93*0C
$BDGSA,A,3,13,08,,,,,,,,,,,1.60,1.30,0.93*16
$GPGSV,3,1,11,26,70,198,,18,69,074,24,16,56,299,18,23,31,135,34*77
$GPGSV,3,2,11,27,31,279,,29,18,085,35,40,18,125,29,05,13,035,29*70
$GPGSV,3,3,11,10,12,162,18,31,09,202,,08,02,276,*45
$BDGSV,3,1,09,26,58,233,,29,39,062,,13,28,043,18,12,25,258,*60
$BDGSV,3,2,09,08,19,037,22,05,18,121,26,20,11,075,,02,02,100,*6F
$BDGSV,3,3,09,19,01,120,*5B
$GNRMC,004941.000,A,4900.5214,N,00825.4357,E,0.697,128.00,101121,,,D*49
$GNVTG,128.00,T,,M,0.697,N,1.291,K,D*2E
+GPSRD:$GNGGA,004951.000,4900.5212,N,00825.4383,E,2,7,1.30,106.8,M,47.9,M,,*42
$GPGSA,A,3,23,05,18,16,29,,,,,,,,1.60,1.30,0.93*0C
$BDGSA,A,3,13,08,,,,,,,,,,,1.60,1.30,0.93*16
$GPGSV,3,1,11,26,70,198,,18,69,074,25,16,56,299,14,23,31,135,35*7B
$GPGSV,3,2,11,27,31,279,,29,18,085,34,40,18,125,29,05,13,035,28*70
$GPGSV,3,3,11,10,12,162,18,31,09,202,,08,03,276,*44
$BDGSV,3,1,09,26,58,233,,29,39,062,,13,28,043,18,12,25,258,*60
$BDGSV,3,2,09,08,19,037,22,05,18,121,26,20,11,075,,02,02,100,*6F
$BDGSV,3,3,09,19,01,120,*5B
$GNRMC,004951.000,A,4900.5212,N,00825.4383,E,0.239,54.38,101121,,,D*76
$GNVTG,54.38,T,,M,0.239,N,0.443,K,D*17
AT+LOCATION=2

49.008690,8.423968

OK
+GPSRD:$GNGGA,005001.000,4900.5211,N,00825.4384,E,2,7,1.30,107.2,M,47.9,M,,*40
$GPGSA,A,3,23,05,18,16,29,,,,,,,,1.60,1.30,0.93*0C
$BDGSA,A,3,13,08,,,,,,,,,,,1.60,1.30,0.93*16
$GPGSV,3,1,11,26,70,198,17,18,68,073,24,16,56,298,13,23,31,135,35*7C
$GPGSV,3,2,11,27,31,279,,29,18,085,33,40,18,125,29,05,13,035,28*77
$GPGSV,3,3,11,10,12,162,18,31,09,202,,08,03,276,*44
$BDGSV,3,1,09,26,58,233,,29,39,062,,13,28,043,17,12,25,258,*6F
$BDGSV,3,2,09,08,19,037,22,05,18,121,27,20,11,075,,02,02,100,*6E
$BDGSV,3,3,09,19,01,120,*5B
$GNRMC,005001.000,A,4900.5211,N,00825.4384,E,0.363,227.44,101121,,,D*4C
$GNVTG,227.44,T,,M,0.363,N,0.672,K,D*24
+GPSRD:$GNGGA,005011.000,4900.5206,N,00825.4385,E,2,7,1.69,107.6,M,47.9,M,,*4E
$GPGSA,A,3,23,05,18,16,29,,,,,,,,2.97,1.69,2.45*02
$BDGSA,A,3,13,08,,,,,,,,,,,2.97,1.69,2.45*18
$GPGSV,3,1,11,26,69,197,16,18,68,073,24,16,56,298,13,23,31,135,33*7C
$GPGSV,3,2,11,27,31,280,,40,18,125,29,29,17,085,33,05,13,035,29*7F
$GPGSV,3,3,11,10,12,162,18,31,09,202,,08,03,276,*44
$BDGSV,3,1,09,26,58,233,,29,39,062,,13,28,043,17,12,25,258,*6F
$BDGSV,3,2,09,08,19,037,22,05,18,121,27,20,11,075,,02,02,100,*6E
$BDGSV,3,3,09,19,01,120,*5B
$GNRMC,005011.000,A,4900.5206,N,00825.4385,E,0.844,305.02,101121,,,D*47
$GNVTG,305.02,T,,M,0.844,N,1.564,K,D*2C
AT+LOCATION=2

49.008677,8.423975

OK
+GPSRD:$GNGGA,005021.000,4900.5191,N,00825.4365,E,2,7,1.30,107.3,M,47.9,M,,*47
$GPGSA,A,3,23,05,18,16,29,,,,,,,,1.60,1.30,0.93*0C
$BDGSA,A,3,13,08,,,,,,,,,,,1.60,1.30,0.93*16
$GPGSV,3,1,11,26,69,197,16,18,68,073,23,16,56,298,17,23,31,135,32*7E
$GPGSV,3,2,11,27,31,280,,40,18,125,28,29,17,085,33,05,13,035,30*76
$GPGSV,3,3,11,10,12,162,19,31,09,202,,08,03,276,*45
$BDGSV,3,1,09,26,58,233,,29,39,062,,13,28,043,17,12,25,258,*6F
$BDGSV,3,2,09,08,19,037,22,05,18,121,27,20,11,075,,02,02,100,*6E
$BDGSV,3,3,09,19,01,120,*5B
$GNRMC,005021.000,A,4900.5191,N,00825.4365,E,0.758,260.26,101121,,,D*41
$GNVTG,260.26,T,,M,0.758,N,1.405,K,D*2C
AT+LOCATION=2

49.008638,8.423912

OK
+GPSRD:$GNGGA,005031.000,4900.5184,N,00825.4345,E,2,7,1.30,106.2,M,47.9,M,,*40
$GPGSA,A,3,23,05,18,16,29,,,,,,,,1.60,1.30,0.93*0C
$BDGSA,A,3,13,08,,,,,,,,,,,1.60,1.30,0.93*16
$GPGSV,3,1,11,26,69,197,16,18,68,073,21,16,56,298,14,23,31,135,32*7F
$GPGSV,3,2,11,27,31,280,,40,18,125,28,29,17,085,34,05,13,035,30*71
$GPGSV,3,3,11,10,12,162,20,31,09,202,,08,03,276,*4F
$BDGSV,3,1,09,26,58,233,,29,39,062,,13,28,043,18,12,25,258,*60
$BDGSV,3,2,09,08,19,037,22,05,18,121,27,20,11,075,,02,02,100,*6E
$BDGSV,3,3,09,19,01,120,*5B
$GNRMC,005031.000,A,4900.5184,N,00825.4345,E,0.835,256.91,101121,,,D*4B
$GNVTG,256.91,T,,M,0.835,N,1.546,K,D*27
+GPSRD:$GNGGA,005041.000,4900.5185,N,00825.4357,E,2,7,1.30,105.8,M,47.9,M,,*4C
$GPGSA,A,3,23,05,18,16,29,,,,,,,,1.60,1.30,0.93*0C
$BDGSA,A,3,13,08,,,,,,,,,,,1.60,1.30,0.93*16
$GPGSV,3,1,11,26,69,197,16,18,68,073,19,16,56,298,12,23,31,135,33*73
$GPGSV,3,2,11,27,31,280,,40,18,125,29,29,17,085,34,05,13,035,30*70
$GPGSV,3,3,11,10,12,162,20,31,09,202,,08,03,276,*4F
$BDGSV,3,1,09,26,58,232,,29,39,062,,13,28,043,19,12,25,258,*60
$BDGSV,3,2,09,08,19,037,22,05,18,121,27,20,11,075,,02,02,100,*6E
$BDGSV,3,3,09,19,01,120,*5B
$GNRMC,005041.000,A,4900.5185,N,00825.4357,E,0.442,172.96,101121,,,D*40
$GNVTG,172.96,T,,M,0.442,N,0.819,K,D*2F
AT+LOCATION=2

49.008642,8.423958

OK
+GPSRD:$GNGGA,005051.000,4900.5196,N,00825.4410,E,2,7,1.30,106.8,M,47.9,M,,*48
$GPGSA,A,3,23,05,18,16,29,,,,,,,,1.60,1.30,0.93*0C
$BDGSA,A,3,13,08,,,,,,,,,,,1.60,1.30,0.93*16
$GPGSV,3,1,11,26,69,197,15,18,68,073,18,16,56,298,16,23,31,135,34*72
$GPGSV,3,2,11,27,31,280,,40,18,125,28,29,17,085,33,05,13,035,30*76
$GPGSV,3,3,11,10,12,162,19,31,09,202,,08,03,276,*45
$BDGSV,3,1,09,26,58,232,,29,39,062,,13,28,043,19,12,25,258,*60
$BDGSV,3,2,09,08,19,037,22,05,18,121,26,20,11,075,,02,02,100,*6F
$BDGSV,3,3,09,19,01,120,*5B
$GNRMC,005051.000,A,4900.5196,N,00825.4410,E,0.285,280.00,101121,,,D*4B
$GNVTG,280.00,T,,M,0.285,N,0.527,K,D*23
AT+LOCATION=2

49.008668,8.424065

OK