Init...

+CIEV: "Charging",100%



+CREG: 2


^STN: 37

+CTZV:21/12/09,14:39:50,+01

+CIEV: "Complete the Charge",100%


+CREG: 1

A9/A9G
V02.02.20190915R
Ai_Thinker_Co._Ltd.
READY

A9/A9G Module READY.
AT

OK

AT

OK

A9/A9G Module AT working.
Cmd: AT+GPSRD=0
Get @1006ms AT+GPSRD=0

OK
Cmd: AT+GPS=1
Get @1018ms AT+GPS=1

OK
Cmd: AT+CREG?
Get @1014ms AT+CREG?

+CREG: 1,1

OK
Cmd: AT+CGACT?
Get @1011ms AT+CGACT?

+CGACT: 0,0

OK
Cmd: AT+CGATT=1
Get @1011ms AT+CGATT=1

+CGATT:1

OK
Cmd: AT+CGDCONT?
Get @1007ms AT+CGDCONT?

OK
Cmd: AT+CGDCONT=1,"IP","pinternet.interkom.de"
Get @1139ms AT+CGDCONT=1,"IP","pinternet.interkom.de"

OK
Cmd: AT+CGACT=1,1
Get @1591ms AT+CGACT=1,1

OK
Cmd: AT+CGACT?
Get @1009ms AT+CGACT?

+CGACT: 1, 1

OK
Cmd: AT+CIPSTATUS?
Get @1009ms AT+CIPSTATUS?
+CIPSTATUS:
STATE:IP INITIAL 

OK
Start: 34 End: 44 Res: IP INITIAL
Status: INITIAL
Cmd: AT+CIPSTART="TCP","api.thingspeak.com",80
Get @1932ms AT+CIPSTART="TCP","api.thingspeak.com",80
CONNECT OK

OK
Cmd: AT+CIPSTATUS?
Get @1007ms AT+CIPSTATUS?
+CIPSTATUS:
STATE:CONNECT OK 

OK
Start: 34 End: 44 Res: CONNECT OK
Status: CONNECT
Cmd: AT+GPSRD=5
Get @1008ms AT+GPSRD=5

OK
Getting data from GPS using AT Cmd
-----------
$GNGGA,144027.000,4900.5206,N,00825.4558,E,1,4,3.15,143.0,M,47.9,M,,*46
$GPGSA,A,3,17,14,30,13,,,,,,,,,3.30,3.15,0.98*06
$BDGSA,A,3,,,,,,,,,,,,,3.30,3.15,0.98*15
$GPGSV,3,1,11,15,69,208,15,13,52,143,19,24,49,282,,14,33,054,33*72
$GPGSV,3,2,11,17,33,089,33,39,31,158,,23,30,287,,19,27,120,21*79
$GPGSV,3,3,11,30,04,089,28,21,01,018,,28,,,25*73
$BDGSV,1,1,00*68
$GNRMC,144027.000,A,4900.5206,N,00825.4558,E,2.427,245.81,091221,,,A*4B
$GNVTG,245.81,T,,M,2.427,N,4.498,K,A*2B
-----------
Getting data from GPS using AT done
Cmd: AT+GPSRD=0
Getting data from Sensors
Cmd: AT+CIPSEND
Get @1005ms AT+CIPSEND

> Cmd: 

Get @1838ms 
OK



+CIPRCV,1:1
CLOSED

OK
Cmd: AT+CIPSTATUS?
Get @1008ms AT+CIPSTATUS?
+CIPSTATUS:
STATE:CLOSED 

OK
Start: 34 End: 40 Res: CLOSED
Status: CLOSE
Cmd: AT+CIPSTART="TCP","api.thingspeak.com",80
Get @1940ms AT+CIPSTART="TCP","api.thingspeak.com",80
CONNECT OK

OK
Cmd: AT+CIPSTATUS?
Get @1008ms AT+CIPSTATUS?
+CIPSTATUS:
STATE:CONNECT OK 

OK
Start: 34 End: 44 Res: CONNECT OK
Status: CONNECT
Cmd: AT+GPSRD=5
Get @1009ms AT+GPSRD=5

OK
Getting data from GPS using AT Cmd
-----------
$GNGGA,144050.000,4900.5095,N,00825.4234,E,1,4,3.15,144.6,M,47.9,M,,*42
$GPGSA,A,3,17,14,30,13,,,,,,,,,3.30,3.15,0.98*06
$BDGSA,A,3,,,,,,,,,,,,,3.30,3.15,0.98*15
$GPGSV,3,1,11,15,69,208,15,13,52,143,17,24,49,282,,14,33,054,31*7E
$GPGSV,3,2,11,17,33,089,32,23,30,287,,19,27,120,19,44,12,116,*72
$GPGSV,3,3,11,30,04,089,26,21,01,018,,28,,,22*7A
$BDGSV,1,1,00*68
$GNRMC,144050.000,A,4900.5095,N,00825.4234,E,6.124,242.05,091221,,,A*47
$GNVTG,242.05,T,,M,6.124,N,11.347,K,A*13
-----------
Getting data from GPS using AT done
Cmd: AT+GPSRD=0
Getting data from Sensors
Cmd: AT+CIPSEND
Get @1005ms AT+CIPSEND

> Cmd: 

Get @1833ms 
OK



+CIPRCV,1:2
CLOSED

OK
Cmd: AT+CIPSTATUS?
Get @1008ms AT+CIPSTATUS?
+CIPSTATUS:
STATE:CLOSED 

OK
Start: 34 End: 40 Res: CLOSED
Status: CLOSE
Cmd: AT+CIPSTART="TCP","api.thingspeak.com",80
Get @1665ms AT+CIPSTART="TCP","api.thingspeak.com",80
CONNECT OK

OK
Cmd: AT+CIPSTATUS?
Get @1008ms AT+CIPSTATUS?
+CIPSTATUS:
STATE:CONNECT OK 

OK
Start: 34 End: 44 Res: CONNECT OK
Status: CONNECT
Cmd: AT+GPSRD=5
Get @1009ms AT+GPSRD=5

OK
Getting data from GPS using AT Cmd
-----------
$GNGGA,144113.000,4900.4976,N,00825.3563,E,1,4,3.16,123.8,M,47.9,M,,*4F
$GPGSA,A,3,17,14,30,13,,,,,,,,,3.30,3.16,0.97*0A
$BDGSA,A,3,,,,,,,,,,,,,3.30,3.16,0.97*19
$GPGSV,3,1,11,15,69,208,17,13,52,143,17,24,49,282,,14,33,054,34*79
$GPGSV,3,2,11,17,33,089,38,39,31,158,,23,30,287,,19,27,120,18*78
$GPGSV,3,3,11,30,04,089,31,21,01,018,,28,,,29*77
$BDGSV,1,1,00*68
$GNRMC,144113.000,A,4900.4976,N,00825.3563,E,2.968,243.69,091221,,,A*49
$GNVTG,243.69,T,,M,2.968,N,5.500,K,A*2C
-----------
Getting data from GPS using AT done
Cmd: AT+GPSRD=0
Getting data from Sensors
Cmd: AT+CIPSEND
Get @1005ms AT+CIPSEND

> Cmd: 

Get @1943ms 
OK



+CIPRCV,1:3
CLOSED

OK
Cmd: AT+CIPSTATUS?
Get @1008ms AT+CIPSTATUS?
+CIPSTATUS:
STATE:CLOSED 

OK
Start: 34 End: 40 Res: CLOSED
Status: CLOSE
Cmd: AT+CIPSTART="TCP","api.thingspeak.com",80
Get @1665ms AT+CIPSTART="TCP","api.thingspeak.com",80
CONNECT OK

OK
Cmd: AT+CIPSTATUS?
Get @1007ms AT+CIPSTATUS?
+CIPSTATUS:
STATE:CONNECT OK 

OK
Start: 34 End: 44 Res: CONNECT OK
Status: CONNECT
Cmd: AT+GPSRD=5
Get @1009ms AT+GPSRD=5

OK
Getting data from GPS using AT Cmd
-----------
$GNGGA,144136.000,4900.4993,N,00825.3518,E,1,4,3.16,113.5,M,47.9,M,,*41
$GPGSA,A,3,17,14,30,13,,,,,,,,,3.31,3.16,0.97*0B
$BDGSA,A,3,,,,,,,,,,,,,3.31,3.16,0.97*18
$GPGSV,3,1,11,15,68,206,15,13,51,143,23,24,50,282,,17,34,088,37*7E
$GPGSV,3,2,11,14,33,054,34,23,30,286,,19,27,120,20,44,12,116,*7C
$GPGSV,3,3,11,30,04,089,29,21,01,017,,28,,,28*70
$BDGSV,1,1,00*68
$GNRMC,144136.000,A,4900.4993,N,00825.3518,E,0.908,228.34,091221,,,A*48
$GNVTG,228.34,T,,M,0.908,N,1.683,K,A*21
-----------
Getting data from GPS using AT done
Cmd: AT+GPSRD=0
Getting data from Sensors
Cmd: AT+CIPSEND
Get @1005ms AT+CIPSEND

> Cmd: 

Get @1879ms 
OK



+CIPRCV,1:4
CLOSED

OK
Cmd: AT+CIPSTATUS?
Get @1008ms AT+CIPSTATUS?
+CIPSTATUS:
STATE:CLOSED 

OK
Start: 34 End: 40 Res: CLOSED
Status: CLOSE
Cmd: AT+CIPSTART="TCP","api.thingspeak.com",80
Get @1954ms AT+CIPSTART="TCP","api.thingspeak.com",80
CONNECT OK

OK
Cmd: AT+CIPSTATUS?
Get @1008ms AT+CIPSTATUS?
+CIPSTATUS:
STATE:CONNECT OK 

OK
Start: 34 End: 44 Res: CONNECT OK
Status: CONNECT
Cmd: AT+GPSRD=5
Get @1009ms AT+GPSRD=5

OK
Getting data from GPS using AT Cmd
-----------
$GNGGA,144159.000,4900.5123,N,00825.3968,E,1,4,3.16,119.0,M,47.9,M,,*4E
$GPGSA,A,3,17,14,30,13,,,,,,,,,3.31,3.16,0.97*0B
$BDGSA,A,3,,,,,,,,,,,,,3.31,3.16,0.97*18
$GPGSV,3,1,10,15,68,206,13,13,51,143,18,24,50,282,11,17,34,088,36*70
$GPGSV,3,2,10,14,33,054,34,23,30,286,,19,27,120,22,30,04,089,29*77
$GPGSV,3,3,10,21,01,017,,36,,,*49
$BDGSV,1,1,00*68
$GNRMC,144159.000,A,4900.5123,N,00825.3968,E,1.153,58.37,091221,,,A*79
$GNVTG,58.37,T,,M,1.153,N,2.136,K,A*1A
-----------
Getting data from GPS using AT done
Cmd: AT+GPSRD=0
Getting data from Sensors
Cmd: AT+CIPSEND
Get @1005ms AT+CIPSEND

> Cmd: 

Get @1836ms 
OK



+CIPRCV,1:5
CLOSED

OK
Cmd: AT+CIPSTATUS?
Get @1008ms AT+CIPSTATUS?
+CIPSTATUS:
STATE:CLOSED 

OK
Start: 34 End: 40 Res: CLOSED
Status: CLOSE
Cmd: AT+CIPSTART="TCP","api.thingspeak.com",80
Get @1655ms AT+CIPSTART="TCP","api.thingspeak.com",80
CONNECT OK

OK
Cmd: AT+CIPSTATUS?
Get @1007ms AT+CIPSTATUS?
+CIPSTATUS:
STATE:CONNECT OK 

OK
Start: 34 End: 44 Res: CONNECT OK
Status: CONNECT
Cmd: AT+GPSRD=5
Get @1010ms AT+GPSRD=5

OK
Getting data from GPS using AT Cmd
-----------
$GNGGA,144222.000,4900.5127,N,00825.4232,E,1,4,3.17,125.1,M,47.9,M,,*49
$GPGSA,A,3,17,14,30,13,,,,,,,,,3.31,3.17,0.97*0A
$BDGSA,A,3,,,,,,,,,,,,,3.31,3.17,0.97*19
$GPGSV,3,1,11,15,68,206,14,13,51,143,19,24,50,282,,17,34,088,34*75
$GPGSV,3,2,11,14,33,054,33,23,30,286,,19,27,120,28,10,17,320,*70
$GPGSV,3,3,11,30,04,089,28,21,01,017,,45,,,*70
$BDGSV,1,1,00*68
$GNRMC,144222.000,A,4900.5127,N,00825.4232,E,1.155,110.97,091221,,,A*40
$GNVTG,110.97,T,,M,1.155,N,2.140,K,A*2A
-----------
Getting data from GPS using AT done
Cmd: AT+GPSRD=0
Getting data from Sensors
Cmd: AT+CIPSEND
Get @1005ms AT+CIPSEND

> Cmd: 

Get @1867ms 
OK



+CIPRCV,1:6
CLOSED

OK
Cmd: AT+CIPSTATUS?
Get @1008ms AT+CIPSTATUS?
+CIPSTATUS:
STATE:CLOSED 

OK
Start: 34 End: 40 Res: CLOSED
Status: CLOSE
Cmd: AT+CIPSTART="TCP","api.thingspeak.com",80
Get @1010ms AT+CIPSTART="TCP","api.thingspeak.com",80
Get @2026ms CONNECT OK

OK
Cmd: AT+CIPSTATUS?
Get @1008ms AT+CIPSTATUS?
+CIPSTATUS:
STATE:CONNECT OK 

OK
Start: 34 End: 44 Res: CONNECT OK
Status: CONNECT
Cmd: AT+GPSRD=5
Get @1016ms AT+GPSRD=5

OK
Getting data from GPS using AT Cmd
-----------
$GNGGA,144245.000,4900.5216,N,00825.4537,E,1,4,3.45,131.5,M,47.9,M,,*4D
$GPGSA,A,3,17,19,14,13,,,,,,,,,3.59,3.45,1.00*07
$BDGSA,A,3,,,,,,,,,,,,,3.59,3.45,1.00*1F
$GPGSV,3,1,11,15,68,206,18,13,51,143,27,24,50,282,,17,34,088,35*75
$GPGSV,3,2,11,14,33,054,34,37,32,162,,23,30,286,,19,27,120,28*71
$GPGSV,3,3,11,10,17,320,,30,04,089,29,21,01,017,*46
$BDGSV,1,1,00*68
$GNRMC,144245.000,A,4900.5216,N,00825.4537,E,0.070,25.15,091221,,,A*78
$GNVTG,25.15,T,,M,0.070,N,0.129,K,A*1D
-----------
Getting data from GPS using AT done
Cmd: AT+GPSRD=0
Getting data from Sensors
Cmd: AT+CIPSEND
Get @1005ms AT+CIPSEND

> Cmd: 

Get @1781ms 
OK



+CIPRCV,1:7
CLOSED

OK
Cmd: AT+CIPSTATUS?
Get @1008ms AT+CIPSTATUS?
+CIPSTATUS:
STATE:CLOSED 

OK
Start: 34 End: 40 Res: CLOSED
Status: CLOSE
Cmd: AT+CIPSTART="TCP","api.thingspeak.com",80
Get @1684ms AT+CIPSTART="TCP","api.thingspeak.com",80
CONNECT OK

OK
Cmd: AT+CIPSTATUS?
Get @1008ms AT+CIPSTATUS?
+CIPSTATUS:
STATE:CONNECT OK 

OK
Start: 34 End: 44 Res: CONNECT OK
Status: CONNECT
Cmd: AT+GPSRD=5
Get @1007ms AT+GPSRD=5

OK
Getting data from GPS using AT Cmd
-----------
$GNGGA,144308.000,4900.5216,N,00825.4467,E,1,4,3.46,132.4,M,47.9,M,,*40
$GPGSA,A,3,17,19,14,13,,,,,,,,,3.60,3.46,1.00*0E
$BDGSA,A,3,,,,,,,,,,,,,3.60,3.46,1.00*16
$GPGSV,3,1,11,15,68,205,16,13,51,144,23,24,51,283,,17,34,088,37*79
$GPGSV,3,2,11,14,32,054,33,23,30,286,,33,29,210,,19,28,119,25*77
$GPGSV,3,3,11,10,17,320,,30,03,089,28,21,01,017,*40
$BDGSV,1,1,00*68
$GNRMC,144308.000,A,4900.5216,N,00825.4467,E,0.839,282.30,091221,,,A*49
$GNVTG,282.30,T,,M,0.839,N,1.555,K,A*2E
-----------
Getting data from GPS using AT done
Cmd: AT+GPSRD=0
Getting data from Sensors
Cmd: AT+CIPSEND
Get @1005ms AT+CIPSEND

> Cmd: 

Get @1754ms 
OK

+CIPRCV,1:8


CLOSED

OK
Cmd: AT+CIPSTATUS?
Get @1008ms AT+CIPSTATUS?
+CIPSTATUS:
STATE:CLOSED 

OK
Start: 34 End: 40 Res: CLOSED
Status: CLOSE
Cmd: AT+CIPSTART="TCP","api.thingspeak.com",80
Get @1686ms AT+CIPSTART="TCP","api.thingspeak.com",80
CONNECT OK

OK
Cmd: AT+CIPSTATUS?
Get @1008ms AT+CIPSTATUS?
+CIPSTATUS:
STATE:CONNECT OK 

OK
Start: 34 End: 44 Res: CONNECT OK
Status: CONNECT
Cmd: AT+GPSRD=5
Get @1010ms AT+GPSRD=5

OK
Getting data from GPS using AT Cmd
-----------
$GNGGA,144331.000,4900.5211,N,00825.4409,E,1,4,3.48,131.0,M,47.9,M,,*4C
$GPGSA,A,3,17,19,14,13,,,,,,,,,3.62,3.48,1.00*02
$BDGSA,A,3,,,,,,,,,,,,,3.62,3.48,1.00*1A
$GPGSV,3,1,12,15,68,205,13,13,51,144,23,24,51,283,,17,34,088,38*70
$GPGSV,3,2,12,14,32,054,34,23,30,286,,19,28,119,27,10,17,320,*7F
$GPGSV,3,3,12,12,16,217,,30,03,089,30,21,01,017,,34,,,*4B
$BDGSV,1,1,00*68
$GNRMC,144331.000,A,4900.5211,N,00825.4409,E,0.644,235.03,091221,,,A*44
$GNVTG,235.03,T,,M,0.644,N,1.194,K,A*2F
-----------
Getting data from GPS using AT done
Cmd: AT+GPSRD=0
Getting data from Sensors
Cmd: AT+CIPSEND
Get @1005ms AT+CIPSEND

> Cmd: 

Get @1782ms 
OK



+CIPRCV,1:9
CLOSED

OK
Cmd: AT+CIPSTATUS?
Get @1008ms AT+CIPSTATUS?
+CIPSTATUS:
STATE:CLOSED 

OK
Start: 34 End: 40 Res: CLOSED
Status: CLOSE
Cmd: AT+CIPSTART="TCP","api.thingspeak.com",80
Get @1999ms AT+CIPSTART="TCP","api.thingspeak.com",80
CONNECT OK

OK
Cmd: AT+CIPSTATUS?
Get @1008ms AT+CIPSTATUS?
+CIPSTATUS:
STATE:CONNECT OK 

OK
Start: 34 End: 44 Res: CONNECT OK
Status: CONNECT
Cmd: AT+GPSRD=5
Get @1008ms AT+GPSRD=5

OK
Getting data from GPS using AT Cmd
-----------
$GNGGA,144354.000,4900.5228,N,00825.4503,E,1,4,3.49,131.2,M,47.9,M,,*4D
$GPGSA,A,3,17,19,14,13,,,,,,,,,3.63,3.49,1.00*02
$BDGSA,A,3,,,,,,,,,,,,,3.63,3.49,1.00*1A
$GPGSV,3,1,12,15,68,205,13,13,51,144,22,24,51,283,,17,34,088,37*7E
$GPGSV,3,2,12,14,32,054,34,23,30,286,,19,28,119,30,10,17,320,*79
$GPGSV,3,3,12,12,16,217,,30,03,089,30,21,01,017,,41,,,*49
$BDGSV,1,1,00*68
$GNRMC,144354.000,A,4900.5228,N,00825.4503,E,1.855,273.20,091221,,,A*4A
$GNVTG,273.20,T,,M,1.855,N,3.437,K,A*2D
-----------
Getting data from GPS using AT done
Cmd: AT+GPSRD=0
Getting data from Sensors
Cmd: AT+CIPSEND
Get @1005ms AT+CIPSEND

> Cmd: 

Get @1763ms 
OK



+CIPRCV,2:10
CLOSED

OK
