created_at,entry_id,field1,field2,field3,field4,field5,field6,latitude,longitude,elevation,status
2021-12-21T15:13:40+01:00,1,23.12,45.67,1009.57,9.50,11.30,"$GNGGA,141336.086,4900.4163,N,00825.6314,E,0,0,,129.7,M,47.9,M,,*54",,,,
2021-12-21T15:14:01+01:00,2,23.21,44.41,1009.59,9.70,11.30,"$GNGGA,141357.086,4900.5928,N,00824.9268,E,0,1,,129.7,M,47.9,M,,*50",,,,
2021-12-21T15:14:22+01:00,3,23.50,43.03,1009.61,9.50,14.70,"$GNGGA,141417.086,4900.4164,N,00825.6311,E,0,1,,129.7,M,47.9,M,,*53",,,,
2021-12-21T15:14:42+01:00,4,23.92,41.92,1009.63,9.60,13.70,"$GNGGA,141437.086,4900.3612,N,00832.2645,E,0,2,,109.6,M,48.0,M,,*50",,,,
2021-12-21T15:15:02+01:00,5,24.39,40.81,1009.64,10.40,19.20,"$GNGGA,141457.086,4900.4357,N,00829.5072,E,0,2,,106.5,M,47.9,M,,*50",,,,
2021-12-21T15:15:21+01:00,6,24.87,39.55,1009.65,10.80,16.90,"$GNGGA,141517.086,9000.0000,N,00000.0000,E,0,0,,137.0,M,13.0,M,,*5A",,,,
2021-12-21T15:15:41+01:00,7,25.36,38.51,1009.68,11.00,17.10,"$GNGGA,141537.086,9000.0000,N,00000.0000,E,0,0,,137.0,M,13.0,M,,*58",,,,
2021-12-21T15:16:01+01:00,8,25.82,37.79,1009.68,10.60,12.90,"$GNGGA,141557.086,9000.0000,N,00000.0000,E,0,0,,137.0,M,13.0,M,,*5E",,,,
2021-12-21T15:16:22+01:00,9,26.27,37.16,1009.68,10.40,12.30,"$GNGGA,141617.288,9000.0000,N,00000.0000,E,0,0,,137.0,M,13.0,M,,*55",,,,
2021-12-21T15:16:42+01:00,10,26.70,36.60,1009.67,10.60,18.20,"$GNGGA,141638.086,9000.0000,N,00000.0000,E,0,0,,137.0,M,13.0,M,,*54",,,,
2021-12-21T15:17:02+01:00,11,27.09,35.61,1009.69,10.50,18.70,"$GNGGA,141658.086,9000.0000,N,00000.0000,E,0,0,,137.0,M,13.0,M,,*52",,,,
2021-12-21T15:17:22+01:00,12,27.46,34.83,1009.71,12.00,27.20,"$GNGGA,141718.086,9000.0000,N,00000.0000,E,0,0,,137.0,M,13.0,M,,*57",,,,
2021-12-21T15:17:42+01:00,13,27.80,34.20,1009.71,12.10,22.60,"$GNGGA,141738.086,9000.0000,N,00000.0000,E,0,0,,137.0,M,13.0,M,,*55",,,,
2021-12-21T15:18:02+01:00,14,28.12,33.88,1009.70,11.80,22.20,"$GNGGA,141758.086,9000.0000,N,00000.0000,E,0,0,,137.0,M,13.0,M,,*53",,,,
2021-12-21T15:18:22+01:00,15,28.43,33.95,1009.70,11.10,21.40,"$GNGGA,141818.086,9000.0000,N,00000.0000,E,0,0,,137.0,M,13.0,M,,*58",,,,
2021-12-21T15:18:42+01:00,16,28.71,33.57,1009.69,11.70,25.10,"$GNGGA,141838.086,9000.0000,N,00000.0000,E,0,0,,137.0,M,13.0,M,,*5A",,,,
2021-12-21T15:19:01+01:00,17,28.97,33.30,1009.69,13.10,31.80,"$GNGGA,141857.304,9000.0000,N,00000.0000,E,0,0,,137.0,M,13.0,M,,*5A",,,,
2021-12-21T15:19:21+01:00,18,29.21,33.05,1009.69,12.70,24.80,"$GNGGA,141917.097,9000.0000,N,00000.0000,E,0,0,,137.0,M,13.0,M,,*56",,,,
2021-12-21T15:19:41+01:00,19,29.44,32.72,1009.69,12.20,21.90,"$GNGGA,141937.094,9000.0000,N,00000.0000,E,0,3,,137.0,M,13.0,M,,*54",,,,
2021-12-21T15:20:01+01:00,20,29.66,32.37,1009.70,11.20,15.40,"$GNGGA,141957.094,9000.0000,N,00000.0000,E,0,3,,137.0,M,13.0,M,,*52",,,,
2021-12-21T15:20:21+01:00,21,29.86,32.02,1009.70,10.80,14.50,"$GNGGA,142017.090,9000.0000,N,00000.0000,E,0,3,,137.0,M,13.0,M,,*58",,,,
2021-12-21T15:20:41+01:00,22,30.04,31.80,1009.70,10.10,13.90,"$GNGGA,142037.090,9000.0000,N,00000.0000,E,0,3,,137.0,M,13.0,M,,*5A",,,,
2021-12-21T15:21:02+01:00,23,30.22,31.51,1009.70,9.50,13.30,"$GNGGA,142058.000,4900.5159,N,00825.4728,E,0,2,,101.8,M,47.9,M,,*54",,,,
2021-12-21T15:21:23+01:00,24,30.38,31.40,1009.69,9.60,18.10,"$GNGGA,142118.000,4900.5235,N,00825.4628,E,1,3,2.75,134.9,M,47.9,M,,*40",,,,
2021-12-21T15:21:44+01:00,25,30.54,31.23,1009.70,9.50,18.20,"$GNGGA,142139.000,4900.5196,N,00825.4465,E,1,4,1.77,105.9,M,47.9,M,,*46",,,,
2021-12-21T15:22:04+01:00,26,30.68,30.78,1009.70,9.70,19.50,"$GNGGA,142159.000,4900.5226,N,00825.4509,E,1,4,1.76,103.9,M,47.9,M,,*44",,,,
2021-12-21T15:22:24+01:00,27,30.82,30.71,1009.72,9.40,16.00,"$GNGGA,142219.000,4900.5212,N,00825.4541,E,1,3,7.51,103.3,M,47.9,M,,*46",,,,
2021-12-21T15:22:45+01:00,28,30.94,29.95,1009.72,10.30,16.40,"$GNGGA,142240.000,4900.5235,N,00825.4641,E,1,4,1.76,103.5,M,47.9,M,,*4E",,,,
2021-12-21T15:23:04+01:00,29,31.05,29.52,1009.72,10.30,15.90,"$GNGGA,142300.000,4900.5152,N,00825.4488,E,1,3,7.55,103.8,M,47.9,M,,*43",,,,
2021-12-21T15:23:25+01:00,30,31.16,29.81,1009.73,10.30,13.30,"$GNGGA,142320.000,4900.5140,N,00825.4245,E,1,3,7.58,103.5,M,47.9,M,,*45",,,,
2021-12-21T15:23:45+01:00,31,31.26,29.59,1009.73,8.70,10.40,"$GNGGA,142341.000,4900.5153,N,00825.4365,E,0,2,,103.4,M,47.9,M,,*56",,,,
2021-12-21T15:24:08+01:00,32,31.35,29.46,1009.72,9.10,10.60,"$GNGGA,142403.000,4900.5176,N,00825.4498,E,1,4,1.75,103.0,M,47.9,M,,*4B",,,,
2021-12-21T15:24:28+01:00,33,31.44,29.24,1009.71,9.10,13.70,"$GNGGA,142423.000,4900.5184,N,00825.4537,E,1,4,1.75,102.8,M,47.9,M,,*49",,,,
2021-12-21T15:24:49+01:00,34,31.52,29.00,1009.71,9.70,16.70,"$GNGGA,142444.000,4900.5193,N,00825.4386,E,1,4,1.74,102.9,M,47.9,M,,*42",,,,
2021-12-21T15:25:09+01:00,35,31.60,28.83,1009.71,9.20,17.80,"$GNGGA,142504.000,4900.5290,N,00825.4334,E,1,4,1.74,102.6,M,47.9,M,,*41",,,,
2021-12-21T15:25:29+01:00,36,31.67,28.88,1009.71,9.80,17.50,"$GNGGA,142524.000,4900.5328,N,00825.4356,E,1,4,1.74,103.5,M,47.9,M,,*47",,,,
2021-12-21T15:25:50+01:00,37,31.74,28.92,1009.71,10.00,16.50,"$GNGGA,142545.000,4900.5406,N,00825.4272,E,1,4,1.74,104.4,M,47.9,M,,*4A",,,,
2021-12-21T15:26:10+01:00,38,31.81,28.57,1009.71,9.20,16.10,"$GNGGA,142605.000,4900.5268,N,00825.4000,E,1,3,7.79,104.7,M,47.9,M,,*4B",,,,
2021-12-21T15:26:31+01:00,39,31.87,28.54,1009.70,8.60,17.30,"$GNGGA,142626.000,4900.5233,N,00825.4519,E,1,3,7.82,104.7,M,47.9,M,,*4D",,,,
2021-12-21T15:26:54+01:00,40,31.92,28.30,1009.71,9.40,19.50,"$GNGGA,142647.000,4900.5242,N,00825.4713,E,1,4,1.73,105.8,M,47.9,M,,*45",,,,
2021-12-21T15:27:15+01:00,41,31.97,28.24,1009.71,10.20,14.90,"$GNGGA,142710.000,4900.5245,N,00825.5042,E,1,3,3.20,106.3,M,47.9,M,,*48",,,,
2021-12-21T15:27:35+01:00,42,32.01,28.01,1009.69,11.10,17.80,"$GNGGA,142730.000,4900.5165,N,00825.4847,E,1,4,1.73,106.4,M,47.9,M,,*43",,,,
2021-12-21T15:27:57+01:00,43,32.05,27.83,1009.69,10.30,15.40,"$GNGGA,142751.000,4900.5159,N,00825.4919,E,1,3,7.92,107.7,M,47.9,M,,*4D",,,,
2021-12-21T15:28:18+01:00,44,32.09,27.51,1009.67,10.30,17.40,"$GNGGA,142813.000,4900.5166,N,00825.4955,E,1,3,7.95,107.8,M,47.9,M,,*48",,,,
2021-12-21T15:28:37+01:00,45,32.12,27.51,1009.67,9.80,15.10,"$GNGGA,142833.000,4900.5223,N,00825.4561,E,1,3,7.97,107.7,M,47.9,M,,*4E",,,,
2021-12-21T15:28:59+01:00,46,32.16,27.66,1009.67,11.20,17.70,"$GNGGA,142854.000,4900.5228,N,00825.3894,E,1,3,8.00,107.6,M,47.9,M,,*44",,,,
2021-12-21T15:29:18+01:00,47,32.19,27.84,1009.66,10.80,16.00,"$GNGGA,142914.000,4900.5194,N,00825.3460,E,0,2,,107.5,M,47.9,M,,*57",,,,
2021-12-21T15:29:39+01:00,48,32.22,27.61,1009.66,10.40,16.40,"$GNGGA,142934.000,4900.5197,N,00825.3412,E,1,4,1.72,107.3,M,47.9,M,,*48",,,,
2021-12-21T15:29:59+01:00,49,32.25,27.47,1009.66,9.90,15.50,"$GNGGA,142955.000,4900.5183,N,00825.4277,E,1,3,8.08,106.5,M,47.9,M,,*4C",,,,
2021-12-21T15:30:20+01:00,50,32.28,27.56,1009.67,10.50,14.50,"$GNGGA,143015.000,4900.5162,N,00825.5070,E,1,3,8.10,105.4,M,47.9,M,,*40",,,,
2021-12-21T15:30:39+01:00,51,32.31,27.55,1009.67,10.40,16.50,"$GNGGA,143035.000,4900.5252,N,00825.4702,E,1,4,1.71,104.7,M,47.9,M,,*4A",,,,
2021-12-21T15:31:01+01:00,52,32.34,27.48,1009.68,9.30,15.70,"$GNGGA,143056.000,4900.5226,N,00825.4741,E,1,3,8.16,104.2,M,47.9,M,,*41",,,,
2021-12-21T15:31:21+01:00,53,32.36,27.52,1009.69,8.70,16.00,"$GNGGA,143116.000,4900.5159,N,00825.4664,E,1,3,8.18,104.0,M,47.9,M,,*45",,,,
2021-12-21T15:31:40+01:00,54,32.39,27.46,1009.69,9.10,13.60,"$GNGGA,143136.000,4900.5069,N,00825.5003,E,1,3,8.20,103.7,M,47.9,M,,*48",,,,
2021-12-21T15:32:01+01:00,55,32.41,27.31,1009.70,9.20,13.80,"$GNGGA,143157.000,4900.5140,N,00825.5082,E,1,3,8.23,103.6,M,47.9,M,,*4E",,,,
2021-12-21T15:32:22+01:00,56,32.43,27.23,1009.70,9.20,14.80,"$GNGGA,143217.000,4900.5291,N,00825.4932,E,1,5,1.52,104.0,M,47.9,M,,*4D",,,,
2021-12-21T15:32:42+01:00,57,32.44,27.13,1009.70,10.00,15.50,"$GNGGA,143237.000,4900.5292,N,00825.4535,E,1,4,1.71,104.2,M,47.9,M,,*45",,,,
2021-12-21T15:33:03+01:00,58,32.45,26.72,1009.70,9.90,14.00,"$GNGGA,143258.000,4900.5271,N,00825.4473,E,1,4,1.71,104.5,M,47.9,M,,*45",,,,
2021-12-21T15:33:23+01:00,59,32.45,26.48,1009.70,10.90,15.30,"$GNGGA,143318.000,4900.5293,N,00825.4416,E,1,4,1.71,105.0,M,47.9,M,,*4B",,,,
2021-12-21T15:33:43+01:00,60,32.47,26.78,1009.69,10.00,14.70,"$GNGGA,143338.000,4900.5336,N,00825.4382,E,1,4,3.62,104.6,M,47.9,M,,*4A",,,,
2021-12-21T15:34:04+01:00,61,32.47,26.73,1009.69,10.40,17.20,"$GNGGA,143359.000,4900.5298,N,00825.4466,E,1,4,1.71,104.2,M,47.9,M,,*41",,,,
2021-12-21T15:34:24+01:00,62,32.47,26.67,1009.70,9.20,15.80,"$GNGGA,143419.000,4900.5269,N,00825.4628,E,1,3,8.40,104.4,M,47.9,M,,*4E",,,,
2021-12-21T15:34:44+01:00,63,32.49,27.44,1009.71,10.00,17.50,"$GNGGA,143439.000,4900.5363,N,00825.4254,E,1,3,8.41,104.4,M,47.9,M,,*49",,,,
2021-12-21T15:35:05+01:00,64,32.49,27.20,1009.71,9.60,16.10,"$GNGGA,143500.000,4900.5166,N,00825.4856,E,1,3,8.44,104.4,M,47.9,M,,*48",,,,
2021-12-21T15:35:25+01:00,65,32.49,26.79,1009.71,10.30,17.90,"$GNGGA,143520.000,4900.5182,N,00825.4730,E,1,3,8.46,104.7,M,47.9,M,,*4E",,,,
2021-12-21T15:35:44+01:00,66,32.49,26.85,1009.70,10.00,19.00,"$GNGGA,143540.000,4900.5212,N,00825.4475,E,1,3,8.49,104.4,M,47.9,M,,*4C",,,,
2021-12-21T15:36:05+01:00,67,32.50,26.73,1009.70,9.90,17.00,"$GNGGA,143601.000,4900.5212,N,00825.4469,E,1,3,8.51,104.4,M,47.9,M,,*4E",,,,
2021-12-21T15:36:26+01:00,68,32.50,26.85,1009.69,9.30,14.30,"$GNGGA,143621.000,4900.5256,N,00825.4311,E,1,3,8.54,105.3,M,47.9,M,,*47",,,,
2021-12-21T15:36:46+01:00,69,32.51,26.88,1009.68,8.70,11.50,"$GNGGA,143641.000,4900.5300,N,00825.4359,E,1,5,1.52,106.6,M,47.9,M,,*40",,,,
2021-12-21T15:37:07+01:00,70,32.52,26.79,1009.67,8.60,14.20,"$GNGGA,143702.000,4900.5272,N,00825.4472,E,1,4,1.70,106.7,M,47.9,M,,*4C",,,,
2021-12-21T15:37:28+01:00,71,32.51,26.61,1009.67,9.10,14.40,"$GNGGA,143723.000,4900.5271,N,00825.4423,E,1,4,1.71,107.8,M,47.9,M,,*47",,,,
2021-12-21T15:37:49+01:00,72,32.51,26.54,1009.65,9.40,14.40,"$GNGGA,143744.000,4900.5276,N,00825.4515,E,1,5,1.53,104.0,M,47.9,M,,*4F",,,,
2021-12-21T15:38:10+01:00,73,32.51,26.55,1009.65,10.40,16.60,"$GNGGA,143805.000,4900.5296,N,00825.4386,E,1,5,1.53,102.3,M,47.9,M,,*42",,,,
2021-12-21T15:38:30+01:00,74,32.50,26.49,1009.64,10.40,15.80,"$GNGGA,143825.000,4900.5189,N,00825.4564,E,1,5,1.53,103.2,M,47.9,M,,*47",,,,
2021-12-21T15:38:50+01:00,75,32.50,26.56,1009.63,10.10,14.30,"$GNGGA,143845.000,4900.5308,N,00825.4108,E,1,3,8.70,103.3,M,47.9,M,,*4B",,,,
2021-12-21T15:39:11+01:00,76,32.50,26.48,1009.63,9.20,13.00,"$GNGGA,143906.000,4900.5424,N,00825.3791,E,1,3,8.72,102.9,M,47.9,M,,*4C",,,,
2021-12-21T15:39:31+01:00,77,32.49,26.52,1009.62,8.60,12.30,"$GNGGA,143926.000,4900.4844,N,00825.5627,E,6,2,99.99,102.7,M,47.9,M,,*7A",,,,
2021-12-21T15:39:50+01:00,78,32.49,26.45,1009.62,8.60,14.90,"$GNGGA,143946.000,4900.5102,N,00825.5009,E,0,2,,111.6,M,47.9,M,,*57",,,,
2021-12-21T15:40:11+01:00,79,32.45,26.33,1009.60,9.20,13.90,"$GNGGA,144006.000,4900.5055,N,00825.5106,E,1,4,1.72,111.9,M,47.9,M,,*42",,,,
2021-12-21T15:40:31+01:00,80,32.39,26.40,1009.59,9.20,13.30,"$GNGGA,144026.000,4900.5017,N,00825.5359,E,1,4,1.71,112.4,M,47.9,M,,*43",,,,
2021-12-21T15:40:51+01:00,81,32.35,26.71,1009.59,10.20,14.30,"$GNGGA,144046.000,4900.5134,N,00825.5001,E,1,4,1.71,112.1,M,47.9,M,,*4E",,,,
2021-12-21T15:41:12+01:00,82,32.33,26.76,1009.59,15.90,22.60,"$GNGGA,144107.000,4900.5095,N,00825.5103,E,1,4,1.85,113.3,M,47.9,M,,*4B",,,,
2021-12-21T15:41:32+01:00,83,32.32,26.63,1009.58,25.10,36.00,"$GNGGA,144127.000,4900.5172,N,00825.4825,E,1,4,1.85,114.6,M,47.9,M,,*4F",,,,
2021-12-21T15:41:52+01:00,84,32.33,26.19,1009.58,37.20,53.00,"$GNGGA,144147.000,4900.5239,N,00825.4600,E,1,4,1.85,115.8,M,47.9,M,,*43",,,,
2021-12-21T15:42:13+01:00,85,32.32,25.86,1009.57,45.40,64.60,"$GNGGA,144208.000,4900.5098,N,00825.5015,E,1,5,1.54,116.9,M,47.9,M,,*4E",,,,
2021-12-21T15:42:33+01:00,86,32.30,25.91,1009.57,53.80,72.00,"$GNGGA,144228.000,4900.5155,N,00825.4755,E,1,6,1.45,112.7,M,47.9,M,,*47",,,,
2021-12-21T15:42:54+01:00,87,32.30,25.85,1009.57,55.90,77.40,"$GNGGA,144249.000,4900.5129,N,00825.4859,E,1,4,8.82,106.5,M,47.9,M,,*4F",,,,
2021-12-21T15:43:15+01:00,88,32.30,25.68,1009.55,57.20,82.80,"$GNGGA,144310.000,4900.5029,N,00825.5438,E,1,4,8.85,104.2,M,47.9,M,,*4B",,,,
2021-12-21T15:43:35+01:00,89,32.30,25.29,1009.55,55.30,78.50,"$GNGGA,144330.000,4900.4991,N,00825.5554,E,1,4,8.88,101.3,M,47.9,M,,*40",,,,
2021-12-21T15:43:55+01:00,90,32.31,25.27,1009.56,54.00,74.20,"$GNGGA,144350.000,4900.5018,N,00825.5280,E,1,4,8.92,92.8,M,47.9,M,,*7A",,,,
2021-12-21T15:44:16+01:00,91,32.30,25.33,1009.55,53.50,77.40,"$GNGGA,144411.000,4900.5017,N,00825.5166,E,1,5,1.58,85.9,M,47.9,M,,*75",,,,
2021-12-21T15:44:36+01:00,92,32.29,25.41,1009.54,54.10,87.40,"$GNGGA,144431.000,4900.5097,N,00825.4890,E,1,6,1.25,82.6,M,47.9,M,,*7F",,,,
2021-12-21T15:44:56+01:00,93,32.29,25.31,1009.53,55.90,89.20,"$GNGGA,144451.000,4900.5058,N,00825.5159,E,1,6,1.46,82.6,M,47.9,M,,*72",,,,
2021-12-21T15:45:17+01:00,94,32.29,25.33,1009.52,54.70,80.50,"$GNGGA,144512.000,4900.5144,N,00825.4829,E,1,7,1.18,91.8,M,47.9,M,,*71",,,,
2021-12-21T15:45:38+01:00,95,32.29,25.24,1009.52,54.30,74.90,"$GNGGA,144533.000,4900.5179,N,00825.4721,E,1,6,1.25,101.5,M,47.9,M,,*41",,,,
2021-12-21T15:45:58+01:00,96,32.29,25.22,1009.53,56.10,76.40,"$GNGGA,144553.000,4900.5122,N,00825.5055,E,1,5,1.49,107.4,M,47.9,M,,*42",,,,
2021-12-21T15:46:18+01:00,97,32.29,25.14,1009.52,57.50,79.40,"$GNGGA,144613.000,4900.5115,N,00825.5141,E,1,6,1.25,112.7,M,47.9,M,,*4B",,,,
2021-12-21T15:46:38+01:00,98,32.30,25.06,1009.52,57.70,83.20,"$GNGGA,144633.000,4900.5138,N,00825.4910,E,1,6,1.25,116.2,M,47.9,M,,*4A",,,,
2021-12-21T15:46:58+01:00,99,32.30,24.75,1009.53,53.60,61.60,"$GNGGA,144653.000,4900.5132,N,00825.5028,E,1,6,1.25,116.8,M,47.9,M,,*4F",,,,
2021-12-21T15:47:19+01:00,100,32.31,24.82,1009.52,54.50,66.80,"$GNGGA,144714.000,4900.5094,N,00825.5136,E,1,4,9.23,119.0,M,47.9,M,,*45",,,,
2021-12-21T15:47:39+01:00,101,32.31,24.83,1009.52,55.70,67.90,"$GNGGA,144734.000,4900.5114,N,00825.5117,E,1,4,9.25,118.7,M,47.9,M,,*4D",,,,
2021-12-21T15:47:59+01:00,102,32.31,24.76,1009.52,55.30,70.60,"$GNGGA,144754.000,4900.5195,N,00825.4629,E,1,4,9.27,119.9,M,47.9,M,,*44",,,,
2021-12-21T15:48:20+01:00,103,32.32,24.77,1009.53,53.60,68.70,"$GNGGA,144815.000,4900.5270,N,00825.4203,E,1,4,9.28,119.6,M,47.9,M,,*4A",,,,
2021-12-21T15:48:40+01:00,104,32.31,24.80,1009.53,53.80,73.30,"$GNGGA,144835.000,4900.5319,N,00825.3999,E,1,5,1.62,124.3,M,47.9,M,,*45",,,,
2021-12-21T15:49:00+01:00,105,32.31,24.76,1009.53,52.70,74.50,"$GNGGA,144855.000,4900.5316,N,00825.4009,E,1,5,1.63,127.9,M,47.9,M,,*43",,,,
2021-12-21T15:49:21+01:00,106,32.30,24.68,1009.53,54.00,75.20,"$GNGGA,144916.000,4900.5231,N,00825.4404,E,1,6,1.52,124.5,M,47.9,M,,*46",,,,
2021-12-21T15:49:41+01:00,107,32.29,24.72,1009.53,54.30,73.90,"$GNGGA,144936.000,4900.5086,N,00825.5185,E,1,6,1.52,120.8,M,47.9,M,,*4E",,,,
2021-12-21T15:50:02+01:00,108,32.29,24.73,1009.54,57.20,73.20,"$GNGGA,144957.000,4900.5021,N,00825.5565,E,1,6,1.52,116.8,M,47.9,M,,*4B",,,,
2021-12-21T15:50:23+01:00,109,32.27,24.74,1009.53,55.60,73.20,"$GNGGA,145018.000,4900.5070,N,00825.5343,E,1,6,1.53,116.7,M,47.9,M,,*40",,,,
2021-12-21T15:50:43+01:00,110,32.26,24.62,1009.53,52.60,73.40,"$GNGGA,145038.000,4900.5144,N,00825.4931,E,1,6,1.53,113.9,M,47.9,M,,*41",,,,
2021-12-21T15:51:03+01:00,111,32.25,23.94,1009.53,50.50,72.40,"$GNGGA,145058.000,4900.5190,N,00825.4565,E,1,6,1.54,117.2,M,47.9,M,,*4B",,,,
2021-12-21T15:51:24+01:00,112,32.24,23.98,1009.52,50.60,71.30,"$GNGGA,145119.000,4900.5188,N,00825.4601,E,1,6,1.54,119.6,M,47.9,M,,*4D",,,,
2021-12-21T15:51:44+01:00,113,32.23,24.15,1009.52,53.40,74.90,"$GNGGA,145139.000,4900.5135,N,00825.4927,E,1,6,1.55,122.3,M,47.9,M,,*4E",,,,
2021-12-21T15:52:04+01:00,114,32.22,24.16,1009.51,53.50,75.80,"$GNGGA,145159.000,4900.5148,N,00825.4874,E,1,6,1.99,124.9,M,47.9,M,,*49",,,,
2021-12-21T15:52:25+01:00,115,32.21,24.36,1009.51,53.70,77.80,"$GNGGA,145220.000,4900.5188,N,00825.4657,E,1,5,1.67,125.9,M,47.9,M,,*44",,,,
2021-12-21T15:52:45+01:00,116,32.20,24.47,1009.50,51.40,75.10,"$GNGGA,145240.000,4900.5192,N,00825.4533,E,1,6,1.56,125.9,M,47.9,M,,*49",,,,
2021-12-21T15:53:06+01:00,117,32.19,24.47,1009.50,50.70,74.60,"$GNGGA,145301.000,4900.5148,N,00825.4474,E,1,5,1.68,120.5,M,47.9,M,,*4F",,,,
2021-12-21T15:53:27+01:00,118,32.18,24.46,1009.50,51.70,78.30,"$GNGGA,145322.000,4900.5161,N,00825.4713,E,1,5,1.68,122.9,M,47.9,M,,*49",,,,
2021-12-21T15:53:47+01:00,119,32.17,24.52,1009.50,52.20,75.90,"$GNGGA,145342.000,4900.5128,N,00825.4730,E,1,4,9.26,120.3,M,47.9,M,,*48",,,,
2021-12-21T15:54:08+01:00,120,32.17,24.47,1009.49,52.80,76.20,"$GNGGA,145403.000,4900.5135,N,00825.4754,E,1,5,2.88,116.3,M,47.9,M,,*4F",,,,
2021-12-21T15:54:28+01:00,121,32.16,24.44,1009.48,50.60,72.00,"$GNGGA,145423.000,4900.5257,N,00825.4270,E,1,4,9.22,119.9,M,47.9,M,,*46",,,,
2021-12-21T15:54:48+01:00,122,32.16,24.43,1009.47,47.00,73.10,"$GNGGA,145443.000,4900.5198,N,00825.4699,E,1,5,2.89,127.0,M,47.9,M,,*4C",,,,
2021-12-21T15:55:09+01:00,123,32.16,24.43,1009.48,45.50,67.30,"$GNGGA,145504.000,4900.5185,N,00825.4878,E,1,5,2.90,128.8,M,47.9,M,,*4C",,,,
2021-12-21T15:55:30+01:00,124,32.16,24.38,1009.48,48.50,70.90,"$GNGGA,145525.000,4900.5185,N,00825.4692,E,1,5,1.71,129.0,M,47.9,M,,*40",,,,
2021-12-21T15:55:50+01:00,125,32.16,24.29,1009.49,51.30,71.20,"$GNGGA,145545.000,4900.5220,N,00825.4602,E,1,6,1.60,128.1,M,47.9,M,,*40",,,,
2021-12-21T15:56:11+01:00,126,32.16,24.31,1009.50,54.10,77.40,"$GNGGA,145606.000,4900.5210,N,00825.4500,E,1,6,1.60,121.5,M,47.9,M,,*4B",,,,
2021-12-21T15:56:32+01:00,127,32.15,24.24,1009.50,55.10,79.00,"$GNGGA,145626.000,4900.5172,N,00825.4435,E,1,6,1.61,116.4,M,47.9,M,,*4D",,,,
2021-12-21T15:56:52+01:00,128,32.15,23.95,1009.50,54.60,79.30,"$GNGGA,145647.000,4900.5176,N,00825.4459,E,1,6,1.62,112.6,M,47.9,M,,*41",,,,
2021-12-21T15:57:13+01:00,129,32.14,24.00,1009.49,55.60,86.80,"$GNGGA,145708.000,4900.5141,N,00825.4664,E,1,5,2.93,115.1,M,47.9,M,,*4D",,,,
2021-12-21T15:57:33+01:00,130,32.13,24.03,1009.49,55.00,86.40,"$GNGGA,145728.000,4900.5226,N,00825.4371,E,1,5,2.93,114.1,M,47.9,M,,*4D",,,,
2021-12-21T15:57:53+01:00,131,32.13,24.09,1009.49,56.20,82.90,"$GNGGA,145748.000,4900.5244,N,00825.4514,E,1,5,2.94,115.5,M,47.9,M,,*48",,,,
2021-12-21T15:58:14+01:00,132,32.12,24.03,1009.49,57.30,86.80,"$GNGGA,145809.000,4900.5269,N,00825.4400,E,1,5,2.94,118.1,M,47.9,M,,*40",,,,
2021-12-21T15:58:34+01:00,133,32.10,24.07,1009.50,58.40,94.50,"$GNGGA,145829.000,4900.5258,N,00825.4512,E,1,6,1.64,117.8,M,47.9,M,,*4B",,,,
2021-12-21T15:58:54+01:00,134,32.09,24.08,1009.49,60.00,101.80,"$GNGGA,145849.000,4900.5226,N,00825.4481,E,1,6,1.65,120.0,M,47.9,M,,*42",,,,
2021-12-21T15:59:15+01:00,135,32.09,24.08,1009.48,58.60,88.40,"$GNGGA,145910.000,4900.5153,N,00825.4846,E,1,6,1.65,119.3,M,47.9,M,,*40",,,,
2021-12-21T15:59:35+01:00,136,32.08,24.10,1009.48,60.90,88.00,"$GNGGA,145930.000,4900.5195,N,00825.4665,E,1,6,2.15,118.0,M,47.9,M,,*41",,,,
2021-12-21T15:59:55+01:00,137,32.07,24.09,1009.47,67.60,102.30,"$GNGGA,145950.000,4900.5216,N,00825.4644,E,1,6,2.16,118.2,M,47.9,M,,*4D",,,,
2021-12-21T16:00:16+01:00,138,32.07,24.08,1009.46,75.30,117.60,"$GNGGA,150011.000,4900.5274,N,00825.4382,E,1,6,1.67,122.6,M,47.9,M,,*46",,,,
2021-12-21T16:00:36+01:00,139,32.06,24.09,1009.46,89.50,143.70,"$GNGGA,150031.000,4900.5292,N,00825.4278,E,1,6,1.67,121.7,M,47.9,M,,*4A",,,,
2021-12-21T16:00:56+01:00,140,32.06,24.04,1009.45,108.10,164.90,"$GNGGA,150051.000,4900.5265,N,00825.4311,E,1,6,1.68,117.8,M,47.9,M,,*4F",,,,
2021-12-21T16:01:17+01:00,141,32.05,23.90,1009.45,135.70,203.50,"$GNGGA,150112.000,4900.5288,N,00825.4120,E,1,5,1.80,114.6,M,47.9,M,,*42",,,,
2021-12-21T16:01:37+01:00,142,32.05,23.94,1009.45,154.60,217.00,"$GNGGA,150132.000,4900.5273,N,00825.4232,E,1,5,1.80,110.3,M,47.9,M,,*45",,,,
2021-12-21T16:01:57+01:00,143,32.04,23.96,1009.45,178.20,249.50,"$GNGGA,150152.000,4900.5207,N,00825.4640,E,1,6,1.70,110.2,M,47.9,M,,*4C",,,,
2021-12-21T16:02:18+01:00,144,32.03,23.94,1009.44,203.10,280.20,"$GNGGA,150213.000,4900.5165,N,00825.4744,E,1,6,1.70,109.6,M,47.9,M,,*44",,,,
2021-12-21T16:02:38+01:00,145,32.02,23.93,1009.45,235.60,316.50,"$GNGGA,150233.000,4900.5172,N,00825.4815,E,1,6,1.71,108.3,M,47.9,M,,*4E",,,,
2021-12-21T16:02:58+01:00,146,32.02,23.88,1009.45,261.40,341.00,"$GNGGA,150253.000,4900.5168,N,00825.4745,E,1,6,1.71,106.5,M,47.9,M,,*41",,,,
2021-12-21T16:03:19+01:00,147,32.02,23.88,1009.46,322.20,422.10,"$GNGGA,150314.000,4900.5189,N,00825.4808,E,1,6,1.72,105.8,M,47.9,M,,*47",,,,
2021-12-21T16:03:40+01:00,148,32.01,23.89,1009.46,440.10,597.60,"$GNGGA,150335.000,4900.5201,N,00825.4909,E,1,5,1.78,107.6,M,47.9,M,,*42",,,,
2021-12-21T16:04:01+01:00,149,32.01,23.83,1009.45,587.20,823.80,"$GNGGA,150356.000,4900.5230,N,00825.4887,E,1,5,1.78,104.7,M,47.9,M,,*40",,,,
2021-12-21T16:04:22+01:00,150,32.01,23.77,1009.46,701.30,1007.00,"$GNGGA,150417.000,4900.5250,N,00825.4844,E,1,5,1.79,100.5,M,47.9,M,,*4C",,,,
2021-12-21T16:04:42+01:00,151,32.00,23.80,1009.47,753.60,1095.60,"$GNGGA,150437.000,4900.5234,N,00825.4845,E,1,5,1.79,95.8,M,47.9,M,,*7D",,,,
2021-12-21T16:05:02+01:00,152,32.00,23.70,1009.47,805.90,1189.40,"$GNGGA,150457.000,4900.5250,N,00825.4677,E,1,5,1.80,91.1,M,47.9,M,,*7D",,,,
2021-12-21T16:05:22+01:00,153,31.99,23.56,1009.47,816.10,1211.50,"$GNGGA,150517.000,4900.5268,N,00825.4576,E,1,5,1.81,86.2,M,47.9,M,,*75",,,,
2021-12-21T16:05:42+01:00,154,31.99,23.54,1009.48,827.00,1262.90,"$GNGGA,150537.000,4900.5266,N,00825.4580,E,1,5,1.81,85.5,M,47.9,M,,*74",,,,
2021-12-21T16:06:02+01:00,155,31.99,23.63,1009.49,828.30,1304.10,"$GNGGA,150557.000,4900.5247,N,00825.4827,E,1,5,1.82,90.7,M,47.9,M,,*74",,,,
2021-12-21T16:06:23+01:00,156,31.98,23.65,1009.49,857.70,1367.30,"$GNGGA,150618.000,4900.5257,N,00825.4759,E,1,5,1.83,91.0,M,47.9,M,,*7C",,,,
2021-12-21T16:06:43+01:00,157,31.98,23.62,1009.49,858.30,1343.00,"$GNGGA,150638.000,4900.5081,N,00825.5633,E,1,5,1.83,71.4,M,47.9,M,,*71",,,,
2021-12-21T16:07:03+01:00,158,31.98,23.65,1009.49,846.30,1317.40,"$GNGGA,150658.000,4900.5059,N,00825.5736,E,1,5,1.84,67.1,M,47.9,M,,*73",,,,
2021-12-21T16:07:24+01:00,159,31.98,23.73,1009.48,840.50,1280.70,"$GNGGA,150719.000,4900.5109,N,00825.5887,E,1,5,1.84,72.2,M,47.9,M,,*71",,,,
2021-12-21T16:07:44+01:00,160,31.97,23.49,1009.48,831.90,1258.30,"$GNGGA,150739.000,4900.5143,N,00825.5973,E,1,4,2.00,69.5,M,47.9,M,,*74",,,,
2021-12-21T16:08:04+01:00,161,31.97,23.40,1009.47,796.70,1181.80,"$GNGGA,150759.000,4900.5157,N,00825.5814,E,1,5,1.86,62.8,M,47.9,M,,*7D",,,,
2021-12-21T16:08:25+01:00,162,31.96,23.44,1009.48,753.90,1119.60,"$GNGGA,150820.000,4900.5236,N,00825.5597,E,1,5,1.86,43.7,M,47.9,M,,*72",,,,
2021-12-21T16:08:45+01:00,163,31.94,23.55,1009.47,745.10,1081.60,"$GNGGA,150840.000,4900.5252,N,00825.5702,E,1,4,2.03,37.0,M,47.9,M,,*73",,,,
2021-12-21T16:09:05+01:00,164,31.93,23.63,1009.47,750.30,1093.30,"$GNGGA,150900.000,4900.5236,N,00825.5501,E,1,4,2.03,35.1,M,47.9,M,,*76",,,,
2021-12-21T16:09:26+01:00,165,31.93,23.59,1009.48,751.80,1087.60,"$GNGGA,150921.000,4900.5252,N,00825.5320,E,1,5,1.88,35.1,M,47.9,M,,*73",,,,
2021-12-21T16:09:46+01:00,166,31.92,23.56,1009.47,738.50,1068.50,"$GNGGA,150941.000,4900.5197,N,00825.5268,E,1,4,2.05,42.2,M,47.9,M,,*76",,,,
2021-12-21T16:10:06+01:00,167,31.92,23.51,1009.47,719.30,1022.60,"$GNGGA,151001.000,4900.5310,N,00825.4121,E,1,4,2.05,58.8,M,47.9,M,,*79",,,,
2021-12-21T16:10:27+01:00,168,31.91,23.25,1009.46,687.10,976.10,"$GNGGA,151022.000,4900.5337,N,00825.3723,E,2,4,2.06,89.9,M,47.9,M,,*73",,,,
2021-12-21T16:10:47+01:00,169,31.90,23.27,1009.45,667.40,945.80,"$GNGGA,151042.000,4900.5250,N,00825.4793,E,2,4,2.07,111.8,M,47.9,M,,*49",,,,
2021-12-21T16:11:07+01:00,170,31.90,23.04,1009.45,656.10,922.70,"$GNGGA,151102.000,4900.5139,N,00825.5053,E,2,4,2.08,128.5,M,47.9,M,,*42",,,,
2021-12-21T16:11:28+01:00,171,31.89,23.07,1009.45,655.20,906.60,"$GNGGA,151123.000,4900.5182,N,00825.5087,E,2,4,2.09,132.5,M,47.9,M,,*42",,,,
2021-12-21T16:11:48+01:00,172,31.87,23.19,1009.44,646.50,895.20,"$GNGGA,151143.000,4900.5231,N,00825.4676,E,2,4,2.09,132.6,M,47.9,M,,*45",,,,
2021-12-21T16:12:08+01:00,173,31.86,23.24,1009.44,633.20,879.30,"$GNGGA,151203.000,4900.5236,N,00825.4643,E,2,4,3.39,131.0,M,47.9,M,,*44",,,,
2021-12-21T16:12:29+01:00,174,31.86,23.26,1009.45,628.20,889.70,"$GNGGA,151224.000,4900.5281,N,00825.4584,E,2,3,3.99,125.9,M,47.9,M,,*44",,,,
2021-12-21T16:12:49+01:00,175,31.85,23.25,1009.45,629.40,882.90,"$GNGGA,151244.000,4900.5292,N,00825.4363,E,2,4,3.02,124.1,M,47.9,M,,*43",,,,
2021-12-21T16:13:09+01:00,176,31.84,23.27,1009.46,619.90,875.50,"$GNGGA,151304.000,4900.5242,N,00825.4751,E,2,4,3.16,123.6,M,47.9,M,,*4B",,,,
2021-12-21T16:13:30+01:00,177,31.84,23.07,1009.45,598.80,841.10,"$GNGGA,151325.000,4900.5211,N,00825.4972,E,2,4,3.01,121.5,M,47.9,M,,*46",,,,
2021-12-21T16:13:50+01:00,178,31.84,22.96,1009.44,573.40,818.60,"$GNGGA,151345.000,4900.5249,N,00825.5026,E,2,4,3.50,118.0,M,47.9,M,,*4F",,,,
2021-12-21T16:14:10+01:00,179,31.84,23.02,1009.43,562.90,797.20,"$GNGGA,151405.000,4900.5172,N,00825.5340,E,2,4,3.17,117.1,M,47.9,M,,*49",,,,
2021-12-21T16:14:31+01:00,180,31.83,23.12,1009.43,563.80,801.70,"$GNGGA,151426.000,4900.5212,N,00825.4957,E,2,5,2.00,114.4,M,47.9,M,,*40",,,,
2021-12-21T16:14:51+01:00,181,31.82,23.09,1009.42,567.30,789.90,"$GNGGA,151446.000,4900.5199,N,00825.4777,E,2,5,3.22,112.9,M,47.9,M,,*40",,,,
2021-12-21T16:15:12+01:00,182,31.82,23.08,1009.43,568.70,774.50,"$GNGGA,151507.000,4900.5230,N,00825.4464,E,2,5,2.01,102.5,M,47.9,M,,*48",,,,
2021-12-21T16:15:32+01:00,183,31.82,23.00,1009.43,556.70,752.10,"$GNGGA,151527.000,4900.5258,N,00825.4596,E,2,5,2.02,99.3,M,47.9,M,,*7E",,,,
2021-12-21T16:15:52+01:00,184,31.83,22.97,1009.43,549.00,752.80,"$GNGGA,151547.000,4900.5224,N,00825.4592,E,2,4,2.62,95.5,M,47.9,M,,*7A",,,,
2021-12-21T16:16:13+01:00,185,31.83,22.64,1009.44,536.00,746.00,"$GNGGA,151608.000,4900.5229,N,00825.4634,E,2,4,3.47,91.0,M,47.9,M,,*77",,,,
2021-12-21T16:16:33+01:00,186,31.83,22.62,1009.45,527.80,726.70,"$GNGGA,151628.000,4900.5195,N,00825.4706,E,2,5,2.05,88.1,M,47.9,M,,*7E",,,,
2021-12-21T16:16:53+01:00,187,31.83,22.76,1009.46,526.50,721.30,"$GNGGA,151648.000,4900.5240,N,00825.4717,E,2,4,3.21,87.5,M,47.9,M,,*7E",,,,
2021-12-21T16:17:14+01:00,188,31.83,22.85,1009.46,535.20,725.10,"$GNGGA,151709.000,4900.5121,N,00825.5061,E,2,4,3.21,85.0,M,47.9,M,,*7E",,,,
2021-12-21T16:17:34+01:00,189,31.84,22.94,1009.46,545.80,725.60,"$GNGGA,151729.000,4900.5321,N,00825.4529,E,2,4,2.23,82.1,M,47.9,M,,*73",,,,
2021-12-21T16:17:54+01:00,190,31.84,22.86,1009.46,544.40,727.30,"$GNGGA,151749.000,4900.5411,N,00825.4258,E,1,4,2.23,80.1,M,47.9,M,,*71",,,,
2021-12-21T16:18:15+01:00,191,31.84,22.83,1009.46,537.70,745.20,"$GNGGA,151810.000,4900.5137,N,00825.4764,E,1,4,2.21,78.9,M,47.9,M,,*74",,,,
2021-12-21T16:18:35+01:00,192,31.84,22.79,1009.47,531.20,738.40,"$GNGGA,151830.000,4900.4969,N,00825.5131,E,1,5,2.10,77.4,M,47.9,M,,*72",,,,
2021-12-21T16:18:55+01:00,193,31.83,22.69,1009.49,519.60,721.80,"$GNGGA,151850.000,4900.4953,N,00825.4975,E,1,4,2.22,72.8,M,47.9,M,,*7D",,,,
2021-12-21T16:19:16+01:00,194,31.82,22.71,1009.50,514.10,689.20,"$GNGGA,151911.000,4900.5205,N,00825.4375,E,1,4,3.24,78.8,M,47.9,M,,*77",,,,
2021-12-21T16:19:36+01:00,195,31.82,22.74,1009.50,507.00,688.10,"$GNGGA,151931.000,4900.5145,N,00825.4720,E,1,4,3.25,85.0,M,47.9,M,,*7D",,,,
2021-12-21T16:19:56+01:00,196,31.82,22.73,1009.50,507.60,688.80,"$GNGGA,151951.000,4900.5166,N,00825.4552,E,1,4,3.25,89.8,M,47.9,M,,*79",,,,
2021-12-21T16:20:17+01:00,197,31.81,22.74,1009.51,496.90,692.60,"$GNGGA,152012.000,4900.5092,N,00825.4822,E,1,4,3.26,87.8,M,47.9,M,,*79",,,,
2021-12-21T16:20:37+01:00,198,31.80,22.71,1009.51,480.90,659.50,"$GNGGA,152032.000,4900.5073,N,00825.4984,E,1,4,2.22,82.5,M,47.9,M,,*74",,,,
2021-12-21T16:20:57+01:00,199,31.80,22.67,1009.51,468.90,644.60,"$GNGGA,152052.000,4900.5211,N,00825.4495,E,1,4,3.27,94.5,M,47.9,M,,*7A",,,,
2021-12-21T16:21:18+01:00,200,31.80,22.76,1009.50,454.20,620.80,"$GNGGA,152113.000,4900.5132,N,00825.4929,E,1,4,3.27,96.4,M,47.9,M,,*75",,,,
2021-12-21T16:21:38+01:00,201,31.80,22.79,1009.51,455.60,625.90,"$GNGGA,152133.000,4900.5120,N,00825.5183,E,1,5,2.19,93.7,M,47.9,M,,*76",,,,
2021-12-21T16:21:58+01:00,202,31.79,22.80,1009.51,454.40,627.10,"$GNGGA,152153.000,4900.5090,N,00825.5404,E,1,5,2.20,91.0,M,47.9,M,,*7F",,,,
2021-12-21T16:22:19+01:00,203,31.78,22.82,1009.51,458.50,625.40,"$GNGGA,152214.000,4900.5051,N,00825.5749,E,1,4,2.40,84.9,M,47.9,M,,*72",,,,
2021-12-21T16:22:39+01:00,204,31.76,22.91,1009.51,460.10,634.10,"$GNGGA,152234.000,4900.5126,N,00825.5499,E,1,4,2.42,82.1,M,47.9,M,,*73",,,,
2021-12-21T16:22:59+01:00,205,31.76,23.00,1009.50,462.60,622.20,"$GNGGA,152254.000,4900.5153,N,00825.5161,E,1,4,2.43,81.4,M,47.9,M,,*72",,,,
2021-12-21T16:23:19+01:00,206,31.75,23.05,1009.50,456.60,615.80,"$GNGGA,152314.000,4900.5280,N,00825.4009,E,1,4,2.87,82.6,M,47.9,M,,*7D",,,,
2021-12-21T16:23:40+01:00,207,31.75,23.00,1009.49,447.10,602.20,"$GNGGA,152335.000,4900.5218,N,00825.4278,E,1,4,3.31,85.3,M,47.9,M,,*75",,,,
2021-12-21T16:24:00+01:00,208,31.74,23.00,1009.49,434.30,563.30,"$GNGGA,152355.000,4900.5015,N,00825.5443,E,1,5,2.26,82.1,M,47.9,M,,*70",,,,
2021-12-21T16:24:20+01:00,209,31.73,22.92,1009.49,428.00,550.60,"$GNGGA,152415.000,4900.5129,N,00825.4436,E,1,5,1.91,88.3,M,47.9,M,,*79",,,,
2021-12-21T16:24:41+01:00,210,31.73,22.66,1009.48,414.80,512.10,"$GNGGA,152436.000,4900.5214,N,00825.4517,E,1,6,1.15,100.4,M,47.9,M,,*4E",,,,
2021-12-21T16:25:01+01:00,211,31.72,22.84,1009.47,407.50,515.20,"$GNGGA,152456.000,4900.5191,N,00825.4497,E,1,6,1.15,100.4,M,47.9,M,,*4F",,,,
2021-12-21T16:25:21+01:00,212,31.72,22.76,1009.48,409.50,531.20,"$GNGGA,152516.000,4900.5199,N,00825.4573,E,1,6,1.16,104.4,M,47.9,M,,*4E",,,,
2021-12-21T16:25:42+01:00,213,31.72,22.90,1009.48,419.20,563.40,"$GNGGA,152537.000,4900.5292,N,00825.4516,E,1,4,1.49,106.0,M,47.9,M,,*48",,,,
2021-12-21T16:26:02+01:00,214,31.72,22.96,1009.49,426.60,581.40,"$GNGGA,152557.000,4900.5254,N,00825.4537,E,1,4,1.25,107.1,M,47.9,M,,*4D",,,,
2021-12-21T16:26:22+01:00,215,31.73,23.03,1009.49,429.10,572.90,"$GNGGA,152617.000,4900.5226,N,00825.4519,E,1,7,0.92,108.9,M,47.9,M,,*4A",,,,
2021-12-21T16:26:42+01:00,216,31.73,23.03,1009.50,428.00,568.50,"$GNGGA,152637.000,4900.5238,N,00825.4484,E,1,7,0.92,112.7,M,47.9,M,,*47",,,,
2021-12-21T16:27:02+01:00,217,31.74,22.99,1009.50,426.50,561.50,"$GNGGA,152657.000,4900.5214,N,00825.4511,E,1,6,1.15,115.6,M,47.9,M,,*4B",,,,
2021-12-21T16:27:22+01:00,218,31.75,22.98,1009.50,423.20,554.80,"$GNGGA,152717.000,4900.5201,N,00825.4477,E,1,7,0.98,119.2,M,47.9,M,,*46",,,,
2021-12-21T16:27:43+01:00,219,31.75,22.96,1009.49,420.50,544.40,"$GNGGA,152738.000,4900.5203,N,00825.4498,E,1,7,0.98,117.9,M,47.9,M,,*4D",,,,
2021-12-21T16:28:04+01:00,220,31.74,22.95,1009.50,417.60,538.10,"$GNGGA,152759.000,4900.5213,N,00825.4607,E,1,6,1.14,125.4,M,47.9,M,,*47",,,,
2021-12-21T16:28:25+01:00,221,31.74,22.99,1009.49,410.80,552.30,"$GNGGA,152820.000,4900.5170,N,00825.4531,E,1,6,1.14,131.6,M,47.9,M,,*41",,,,
2021-12-21T16:28:45+01:00,222,31.74,22.96,1009.49,405.80,553.10,"$GNGGA,152840.000,4900.5169,N,00825.4555,E,1,6,1.14,130.1,M,47.9,M,,*4B",,,,
2021-12-21T16:29:05+01:00,223,31.74,22.97,1009.50,400.30,553.50,"$GNGGA,152900.000,4900.5174,N,00825.4538,E,1,7,0.98,129.2,M,47.9,M,,*46",,,,
2021-12-21T16:29:26+01:00,224,31.74,22.92,1009.49,392.90,536.20,"$GNGGA,152921.000,4900.5162,N,00825.4585,E,1,7,0.98,130.9,M,47.9,M,,*47",,,,
2021-12-21T16:29:46+01:00,225,31.73,22.86,1009.49,388.40,523.60,"$GNGGA,152941.000,4900.5197,N,00825.4579,E,1,7,0.93,127.8,M,47.9,M,,*44",,,,
2021-12-21T16:30:06+01:00,226,31.71,22.84,1009.49,379.80,512.20,"$GNGGA,153001.000,4900.5280,N,00825.4689,E,2,7,0.98,132.1,M,47.9,M,,*44",,,,
2021-12-21T16:30:27+01:00,227,31.69,22.85,1009.49,376.80,499.20,"$GNGGA,153022.000,4900.5266,N,00825.4577,E,2,7,0.98,128.0,M,47.9,M,,*45",,,,
2021-12-21T16:30:47+01:00,228,31.66,22.85,1009.49,369.50,487.80,"$GNGGA,153042.000,4900.5289,N,00825.4529,E,2,8,0.84,124.3,M,47.9,M,,*44",,,,
2021-12-21T16:31:07+01:00,229,31.64,22.85,1009.49,366.30,473.60,"$GNGGA,153102.000,4900.5302,N,00825.4559,E,2,8,0.84,119.8,M,47.9,M,,*41",,,,
2021-12-21T16:31:28+01:00,230,31.61,22.84,1009.48,360.30,469.80,"$GNGGA,153123.000,4900.5276,N,00825.4407,E,2,7,1.11,120.4,M,47.9,M,,*4E",,,,
2021-12-21T16:31:48+01:00,231,31.58,22.86,1009.49,351.90,469.50,"$GNGGA,153143.000,4900.5293,N,00825.4718,E,2,8,0.84,140.3,M,47.9,M,,*4D",,,,
2021-12-21T16:32:08+01:00,232,31.56,22.88,1009.49,347.50,471.40,"$GNGGA,153203.000,4900.5256,N,00825.4613,E,2,7,1.11,146.4,M,47.9,M,,*4A",,,,
2021-12-21T16:32:29+01:00,233,31.53,22.87,1009.49,340.20,453.10,"$GNGGA,153224.000,4900.5314,N,00825.4548,E,2,6,1.79,141.1,M,47.9,M,,*48",,,,
2021-12-21T16:32:49+01:00,234,31.51,22.79,1009.49,336.40,442.80,"$GNGGA,153244.000,4900.5303,N,00825.4484,E,2,7,0.98,139.8,M,47.9,M,,*40",,,,
2021-12-21T16:33:09+01:00,235,31.50,22.76,1009.51,331.90,434.70,"$GNGGA,153304.000,4900.5307,N,00825.4586,E,2,7,0.98,142.7,M,47.9,M,,*41",,,,
2021-12-21T16:33:29+01:00,236,31.48,22.78,1009.51,334.40,459.20,"$GNGGA,153324.000,4900.5324,N,00825.4761,E,2,7,0.98,155.7,M,47.9,M,,*4F",,,,
2021-12-21T16:33:50+01:00,237,31.46,22.72,1009.52,337.20,474.20,"$GNGGA,153345.000,4900.5344,N,00825.4772,E,2,7,0.98,158.1,M,47.9,M,,*47",,,,
2021-12-21T16:34:10+01:00,238,31.45,22.79,1009.53,343.00,480.10,"$GNGGA,153405.000,4900.5316,N,00825.4707,E,2,7,0.98,156.5,M,47.9,M,,*4B",,,,
2021-12-21T16:34:31+01:00,239,31.43,22.77,1009.52,344.00,479.30,"$GNGGA,153426.000,4900.5267,N,00825.4621,E,2,7,0.98,149.7,M,47.9,M,,*44",,,,
2021-12-21T16:34:51+01:00,240,31.41,22.83,1009.52,347.00,470.20,"$GNGGA,153446.000,4900.5248,N,00825.4551,E,2,7,0.98,144.5,M,47.9,M,,*44",,,,
2021-12-21T16:35:11+01:00,241,31.40,22.89,1009.52,348.60,458.50,"$GNGGA,153506.000,4900.5246,N,00825.4547,E,2,7,0.98,141.2,M,47.9,M,,*4A",,,,
2021-12-21T16:35:32+01:00,242,31.39,22.96,1009.51,345.60,453.20,"$GNGGA,153527.000,4900.5245,N,00825.4549,E,2,7,0.98,141.0,M,47.9,M,,*46",,,,
2021-12-21T16:35:52+01:00,243,31.38,23.02,1009.52,344.00,447.50,"$GNGGA,153547.000,4900.5222,N,00825.4535,E,2,7,0.98,138.2,M,47.9,M,,*46",,,,
2021-12-21T16:36:13+01:00,244,31.37,23.03,1009.53,332.90,443.50,"$GNGGA,153608.000,4900.5243,N,00825.4482,E,2,7,0.98,136.7,M,47.9,M,,*4F",,,,
2021-12-21T16:36:34+01:00,245,31.36,23.01,1009.54,332.00,426.70,"$GNGGA,153629.000,4900.5230,N,00825.4525,E,2,7,0.98,135.4,M,47.9,M,,*44",,,,
2021-12-21T16:36:54+01:00,246,31.36,23.02,1009.54,333.80,425.00,"$GNGGA,153649.000,4900.5227,N,00825.4465,E,2,7,0.98,134.8,M,47.9,M,,*4C",,,,
2021-12-21T16:37:14+01:00,247,31.35,23.08,1009.54,342.20,438.90,"$GNGGA,153709.000,4900.5261,N,00825.4583,E,2,6,1.06,134.8,M,47.9,M,,*45",,,,
2021-12-21T16:37:34+01:00,248,31.34,23.15,1009.54,344.60,450.20,"$GNGGA,153729.000,4900.5308,N,00825.4654,E,2,6,1.05,136.3,M,47.9,M,,*4A",,,,
2021-12-21T16:37:54+01:00,249,31.32,23.21,1009.54,341.50,446.10,"$GNGGA,153749.000,4900.5291,N,00825.4589,E,2,6,1.05,137.4,M,47.9,M,,*48",,,,
2021-12-21T16:38:14+01:00,250,31.31,23.24,1009.54,339.00,443.00,"$GNGGA,153809.000,4900.5308,N,00825.4587,E,2,6,1.05,136.0,M,47.9,M,,*49",,,,
2021-12-21T16:38:35+01:00,251,31.30,23.22,1009.55,334.60,453.70,"$GNGGA,153830.000,4900.5298,N,00825.4528,E,2,6,1.05,135.9,M,47.9,M,,*44",,,,
2021-12-21T16:38:55+01:00,252,31.29,23.20,1009.56,340.80,457.80,"$GNGGA,153850.000,4900.5253,N,00825.4504,E,2,5,1.71,136.5,M,47.9,M,,*44",,,,
2021-12-21T16:39:15+01:00,253,31.28,23.24,1009.56,334.70,437.00,"$GNGGA,153910.000,4900.5199,N,00825.4460,E,2,5,1.71,135.8,M,47.9,M,,*49",,,,
2021-12-21T16:39:36+01:00,254,31.27,23.29,1009.57,324.60,419.70,"$GNGGA,153931.000,4900.5239,N,00825.4538,E,2,5,1.71,134.2,M,47.9,M,,*44",,,,
2021-12-21T16:39:56+01:00,255,31.26,23.19,1009.58,316.20,412.00,"$GNGGA,153951.000,4900.5369,N,00825.4665,E,2,5,1.71,133.3,M,47.9,M,,*4B",,,,
2021-12-21T16:40:17+01:00,256,31.25,23.18,1009.58,320.90,417.00,"$GNGGA,154012.000,4900.5343,N,00825.4603,E,2,4,1.32,132.4,M,47.9,M,,*4A",,,,
2021-12-21T16:40:38+01:00,257,31.24,23.21,1009.58,326.90,425.10,"$GNGGA,154033.000,4900.5328,N,00825.4617,E,2,6,1.05,132.3,M,47.9,M,,*40",,,,
2021-12-21T16:40:59+01:00,258,31.22,23.25,1009.58,326.40,417.00,"$GNGGA,154053.000,4900.5252,N,00825.4600,E,2,5,1.70,133.6,M,47.9,M,,*49",,,,
2021-12-21T16:41:20+01:00,259,31.21,23.30,1009.58,319.60,425.00,"$GNGGA,154115.000,4900.5145,N,00825.4484,E,2,5,1.70,132.7,M,47.9,M,,*41",,,,
2021-12-21T16:41:42+01:00,260,31.20,23.33,1009.59,318.10,406.00,"$GNGGA,154137.000,4900.5201,N,00825.4477,E,2,5,1.70,134.7,M,47.9,M,,*48",,,,
2021-12-21T16:42:02+01:00,261,31.20,23.32,1009.60,320.20,428.70,"$GNGGA,154157.000,4900.5218,N,00825.4523,E,2,5,1.70,137.4,M,47.9,M,,*46",,,,
2021-12-21T16:42:27+01:00,262,31.22,23.28,1009.61,323.80,425.20,"$GNGGA,154221.336,4900.5271,N,00825.4580,E,0,3,,136.7,M,47.9,M,,*5A",,,,
2021-12-21T16:42:49+01:00,263,31.34,22.97,1009.61,326.80,433.60,"$GNGGA,154243.977,4900.5027,N,00825.4823,E,0,3,,136.8,M,47.9,M,,*5B",,,,
2021-12-21T16:43:10+01:00,264,31.55,22.73,1009.60,317.20,412.60,"$GNGGA,154305.251,4900.5274,N,00825.4576,E,0,3,,136.8,M,47.9,M,,*5E",,,,
2021-12-21T16:44:50+01:00,265,32.10,22.04,1009.64,322.70,423.60,"$GNGGA,154442.982,4900.5465,N,00825.5288,E,0,1,,139.1,M,47.9,M,,*5A",,,,
