™!3¬ëJR™!±À¼!{¦ëÙáùé@!è$3d!12úStart...
Resp:

+CREG: 2
----
Resp:
^STN: 37
+CTZV:21/12/15,16:33:59,+01

+CREG: 1

A9/A9G
V02.02.20190915R
Ai_Thinker_Co._Ltd.
READY
----
Init Ready Done!
Resp:

----
Resp:
AT

OK
----
Could not find a valid BME680 sensor, check wiring!

*****Error No.0
Resp:
AT+CREG=1

OK
----
Msg: Netwoek Set!
Resp:
AT+CREG?

+CREG: 1
----
Msg: Network Registered!
Resp:
AT+GPS=1

OK
----
Msg: GPS Set!
Resp:
AT+CGATT=1

+CGATT:1

OK
----
Msg: PS Attached!
Resp:
AT+CGDCONT?

OK
----
Msg: Context Set!
Resp:
AT+CGDCONT=1,"IP","pinternet.interkom.de"

OK
----
Msg: Context Changed!
Resp:
AT+CGACT=1,1

OK
----
Msg: Context Selected!
Resp:
AT+CGACT?

+CGACT: 1, 1
----
Msg: Context is Correct!
Resp:
AT+CIPSTATUS
+CIPSTATUS:
STATE:IP INITIAL
----
Msg: Status INITIAL!
Resp:
AT+CIPSTART="TCP","api.thingspeak.com",80
CONNECT OK
----
Msg: Connected!
Resp:
AT+GPSRD=5

OK
----
Msg: GPS Read Set!
Msg: Getting data from GPS using AT Cmd
Resp:
$GNGGA,163422.000,4900.5211,N,00825.4519,E,1,4,2.71,139.1,M,47.9,M,,*4E
$GPGSA,A,3,19,24,06,17,,,,,,,,,2.89,2.71,0.98*0A
$BDGSA,A,3,,,,,,,,,,,,,2.89,2.71,0.98*15
$GPGSV,2,1,08,24,67,130,23,25,39,255,,39,31,158,,19,30,049,28*71
$GPGSV,2,2,08,06,17,084,23,17,11,036,26,02,10,127,18,15,08,178,*77
$BDGSV,1,1,00*68
$GNRMC,163422.000,A,4900.5211,N,00825.4519,E,1.339,216.29,151221,,,A*4E
$GNVTG,216.29,T,,M,1.339,N,2.481,K,A*2A
---
Msg: Getting data from GPS using AT done
Resp:
AT+GPSRD=0

OK
----
Msg: GPS Read Off!
Msg: Getting data from Sensors
Msg: Failed to perform reading!
Resp:
AT+CIPSEND

>
----
Msg: Send Started!
Resp:
GET https://api.thingspeak.com/update?api_key=AYKVFH212TKGNW2B&field1=6.00&field2=13.00&field3=0.00&field4=20.00&field5=31.00&field6=$GNGGA,163422.000,4900.5211,N,00825.4519,E,1,4,2.71,139.1,M,47.9,M,,*4E

----
Resp:

OK



+CIPRCV,1:3
CLOSED
----
Msg: Send Completed!
Resp:
AT+CIPSTATUS
+CIPSTATUS:
STATE:CLOSED
----
Resp:
AT+CIPSTART="TCP","api.thingspeak.com",80
CONNECT OK
----
Msg: Connected!
Resp:
AT+GPSRD=5

OK
----
Msg: GPS Read Set!
Msg: Getting data from GPS using AT Cmd
Resp:
$GNGGA,163448.000,4900.5237,N,00825.4413,E,1,4,2.72,137.6,M,47.9,M,,*47
$GPGSA,A,3,19,24,06,17,,,,,,,,,2.89,2.72,0.98*09
$BDGSA,A,3,,,,,,,,,,,,,2.89,2.72,0.98*16
$GPGSV,2,1,08,24,67,130,22,25,39,255,,19,30,049,28,06,17,084,24*7E
$GPGSV,2,2,08,44,12,116,,17,11,036,27,02,10,127,19,15,08,178,*7F
$BDGSV,1,1,00*68
$GNRMC,163448.000,A,4900.5237,N,00825.4413,E,0.979,242.64,151221,,,A*4A
$GNVTG,242.64,T,,M,0.979,N,1.814,K,A*2E
---
Msg: Getting data from GPS using AT done
Resp:
AT+GPSRD=0

OK
----
Msg: GPS Read Off!
Msg: Getting data from Sensors
Msg: Failed to perform reading!
Resp:
AT+CIPSEND

>
----
Msg: Send Started!
Resp:
GET https://api.thingspeak.com/update?api_key=AYKVFH212TKGNW2B&field1=4.00&field2=18.00&field3=1.00&field4=23.00&field5=30.00&field6=$GNGGA,163448.000,4900.5237,N,00825.4413,E,1,4,2.72,137.6,M,47.9,M,,*47

----
Resp:

OK



+CIPRCV,1:4
CLOSED
----
Msg: Send Completed!
Resp:
AT+CIPSTATUS
+CIPSTATUS:
STATE:CLOSED
----
Resp:
AT+CIPSTART="TCP","api.thingspeak.com",80
CONNECT OK
----
Msg: Connected!
Resp:
AT+GPSRD=5

OK
----
Msg: GPS Read Set!
Msg: Getting data from GPS using AT Cmd
Resp:
$GNGGA,163515.000,4900.5243,N,00825.4381,E,1,4,2.73,139.8,M,47.9,M,,*40
$GPGSA,A,3,19,24,06,17,,,,,,,,,2.90,2.73,0.98*00
$BDGSA,A,3,,,,,,,,,,,,,2.90,2.73,0.98*1F
$GPGSV,2,1,08,24,67,130,18,25,39,255,,19,30,049,19,33,29,210,*77
$GPGSV,2,2,08,06,17,084,29,17,11,036,27,02,10,127,19,15,08,178,*7D
$BDGSV,1,1,00*68
$GNRMC,163515.000,A,4900.5243,N,00825.4381,E,1.086,205.87,151221,,,A*4A
$GNVTG,205.87,T,,M,1.086,N,2.012,K,A*25
---
Msg: Getting data from GPS using AT done
Resp:
AT+GPSRD=0

OK
----
Msg: GPS Read Off!
Msg: Getting data from Sensors
Msg: Failed to perform reading!
Resp:
AT+CIPSEND

>
----
Msg: Send Started!
Resp:
GET https://api.thingspeak.com/update?api_key=AYKVFH212TKGNW2B&field1=6.00&field2=18.00&field3=2.00&field4=22.00&field5=34.00&field6=$GNGGA,163515.000,4900.5243,N,00825.4381,E,1,4,2.73,139.8,M,47.9,M,,*40

----
Resp:

OK



+CIPRCV,1:5
CLOSED
----
Msg: Send Completed!
Resp:
AT+CIPSTATUS
+CIPSTATUS:
STATE:CLOSED
----
Resp:
AT+CIPSTART="TCP","api.thingspeak.com",80
STATE:IP PROCESSING

CONNECT FAIL
----
Msg: Connection in Process!
Resp:
AT+CIPSTART="TCP","api.thingspeak.com",80
STATE:IP PROCESSING

CONNECT FAIL
----
Msg: Connection in Process!
Resp:
AT+CIPSTART="TCP","api.thingspeak.com",80
STATE:IP PROCESSING

CONNECT FAIL
----
Msg: Connection in Process!
Resp:
AT+CIPSTART="TCP","api.thingspeak.com",80
STATE:IP PROCESSING

CONNECT FAIL
----
Msg: Connection in Process!
Resp:
AT+CIPSTART="TCP","api.thingspeak.com",80
CONNECT OK
----
Msg: Connected!
Resp:
AT+GPSRD=5

OK
----
Msg: GPS Read Set!
Msg: Getting data from GPS using AT Cmd
Resp:
$GNGGA,163651.000,4900.5227,N,00825.4425,E,1,4,2.75,147.1,M,47.9,M,,*4E
$GPGSA,A,3,19,24,06,17,,,,,,,,,2.92,2.75,0.98*04
$BDGSA,A,3,,,,,,,,,,,,,2.92,2.75,0.98*1B
$GPGSV,2,1,08,24,66,130,19,25,40,256,,39,31,158,,19,30,048,25*78
$GPGSV,2,2,08,06,18,083,27,02,11,126,16,17,10,036,26,15,08,178,*74
$BDGSV,1,1,00*68
$GNRMC,163651.000,A,4900.5227,N,00825.4425,E,0.349,289.74,151221,,,A*4B
$GNVTG,289.74,T,,M,0.349,N,0.647,K,A*28
---
Msg: Getting data from GPS using AT done
Resp:
AT+GPSRD=0

OK
----
Msg: GPS Read Off!
Msg: Getting data from Sensors
Msg: Failed to perform reading!
Resp:
AT+CIPSEND

>
----
Msg: Send Started!
Resp:
GET https://api.thingspeak.com/update?api_key=AYKVFH212TKGNW2B&field1=4.00&field2=17.00&field3=3.00&field4=20.00&field5=30.00&field6=$GNGGA,163651.000,4900.5227,N,00825.4425,E,1,4,2.75,147.1,M,47.9,M,,*4E

----
Resp:

OK



+CIPRCV,1:6
CLOSED
----
Msg: Send Completed!
Resp:
AT+CIPSTATUS
+CIPSTATUS:
STATE:CLOSED
----
Resp:
AT+CIPSTART="TCP","api.thingspeak.com",80
CONNECT OK
----
Msg: Connected!
Resp:
AT+GPSRD=5

OK
----
Msg: GPS Read Set!
Msg: Getting data from GPS using AT Cmd
Resp:
$GNGGA,163716.000,4900.5261,N,00825.4565,E,1,4,2.76,146.4,M,47.9,M,,*4C
$GPGSA,A,3,19,24,06,17,,,,,,,,,2.93,2.76,0.98*06
$BDGSA,A,3,,,,,,,,,,,,,2.93,2.76,0.98*19
$GPGSV,3,1,10,24,65,131,19,25,40,256,,32,31,307,,19,30,048,24*70
$GPGSV,3,2,10,06,18,083,28,44,12,116,,02,11,126,16,17,10,036,25*77
$GPGSV,3,3,10,15,07,178,,10,04,264,*70
$BDGSV,1,1,00*68
$GNRMC,163716.000,A,4900.5261,N,00825.4565,E,1.338,39.58,151221,,,A*7E
$GNVTG,39.58,T,,M,1.338,N,2.480,K,A*13
---
Msg: Getting data from GPS using AT done
Resp:
AT+GPSRD=0

OK
----
Msg: GPS Read Off!
Msg: Getting data from Sensors
Msg: Failed to perform reading!
Resp:
AT+CIPSEND

>
----
Msg: Send Started!
Resp:
GET https://api.thingspeak.com/update?api_key=AYKVFH212TKGNW2B&field1=9.00&field2=17.00&field3=4.00&field4=23.00&field5=30.00&field6=$GNGGA,163716.000,4900.5261,N,00825.4565,E,1,4,2.76,146.4,M,47.9,M,,*4C

----
Resp:

----
