Init...

+CIEV: "Charging",97%


+CREG: 2

^STN: 37
+CTZV:21/12/04,12:36:24,+01

+CREG: 1

A9/A9G
V02.02.20190915R
Ai_Thinker_Co._Ltd.
READY
AT

OK
AT+GPS=1

OK
AT+GPSRD=10

OK
+GPSRD:$GNGGA,000009.264,4900.7001,N,00825.8116,E,0,0,,630.0,M,47.9,M,,*51
$GPGSA,A,1,,,,,,,,,,,,,,,*1E
$BDGSA,A,1,,,,,,,,,,,,,,,*0F
$GPGSV,1,1,02,07,,,37,30,,,35*7D
$BDGSV,1,1,00*68
$GNRMC,000009.264,V,4900.7001,N,00825.8116,E,0.000,0.00,060180,,,N*54
$GNVTG,0.00,T,,M,0.000,N,0.000,K,N*2C
+GPSRD:$GNGGA,123701.100,4900.7990,N,00825.9037,E,0,2,,629.7,M,47.9,M,,*50
$GPGSA,A,1,07,30,,,,,,,,,,,,,*1A
$BDGSA,A,1,,,,,,,,,,,,,,,*0F
$GPGSV,2,1,08,30,61,064,35,05,58,243,,14,48,138,28,20,41,200,*73
$GPGSV,2,2,08,07,30,062,37,15,29,295,,08,09,042,,27,03,014,*70
$BDGSV,1,1,01,07,,,30*6D
$GNRMC,123701.100,V,4900.7990,N,00825.9037,E,0.288,40.78,041221,,,N*6A
$GNVTG,40.78,T,,M,0.288,N,0.534,K,N*17
+GPSRD:$GNGGA,123711.100,4901.6441,N,00825.0816,E,0,2,,547.1,M,47.9,M,,*5F
$GPGSA,A,1,07,30,,,,,,,,,,,,,*1A
$BDGSA,A,1,,,,,,,,,,,,,,,*0F
$GPGSV,2,1,08,30,61,064,36,05,58,243,,14,48,138,27,20,41,200,19*77
$GPGSV,2,2,08,07,30,062,36,15,29,295,17,08,09,042,21,27,03,014,*74
$BDGSV,1,1,01,07,,,30*6D
$GNRMC,123711.100,V,4901.6441,N,00825.0816,E,0.100,26.72,041221,,,N*61
$GNVTG,26.72,T,,M,0.100,N,0.186,K,N*13
+GPSRD:$GNGGA,123721.100,4900.7414,N,00825.8603,E,0,3,,511.7,M,47.9,M,,*5A
$GPGSA,A,1,07,14,30,,,,,,,,,,,,*1F
$BDGSA,A,1,,,,,,,,,,,,,,,*0F
$GPGSV,2,1,08,30,61,064,36,05,58,243,,14,48,138,27,20,40,200,13*7C
$GPGSV,2,2,08,07,30,062,36,15,29,295,19,08,09,042,22,27,03,014,*79
$BDGSV,1,1,01,07,,,31*6C
$GNRMC,123721.100,V,4900.7414,N,00825.8603,E,0.675,37.72,041221,,,N*65
$GNVTG,37.72,T,,M,0.675,N,1.252,K,N*1D
+GPSRD:$GNGGA,123731.100,4900.7425,N,00825.8503,E,0,3,,499.6,M,47.9,M,,*5A
$GPGSA,A,1,07,14,30,,,,,,,,,,,,*1F
$BDGSA,A,1,,,,,,,,,,,,,,,*0F
$GPGSV,2,1,08,30,61,064,37,05,58,243,,14,48,138,27,20,40,200,16*78
$GPGSV,2,2,08,07,30,062,36,15,29,295,18,08,09,042,25,27,03,014,*7F
$BDGSV,1,1,02,27,01,004,,07,,,31*5F
$GNRMC,123731.100,V,4900.7425,N,00825.8503,E,0.211,145.85,041221,,,N*5F
$GNVTG,145.85,T,,M,0.211,N,0.390,K,N*29
+GPSRD:$GNGGA,123741.100,4900.7532,N,00825.7231,E,0,4,,370.8,M,47.9,M,,*5A
$GPGSA,A,1,07,14,30,,,,,,,,,,,,*1F
$BDGSA,A,1,07,,,,,,,,,,,,,,*08
$GPGSV,3,1,09,30,61,064,38,05,58,243,,14,48,138,25,20,40,200,12*71
$GPGSV,3,2,09,37,32,162,,07,30,062,36,15,29,295,14,08,09,042,25*70
$GPGSV,3,3,09,27,03,014,*43
$BDGSV,1,1,02,07,26,052,31,27,01,004,*6C
$GNRMC,123741.100,V,4900.7532,N,00825.7231,E,0.429,289.92,041221,,,N*5E
$GNVTG,289.92,T,,M,0.429,N,0.796,K,N*23
AT+LOCATION=2
+LOCATION: GPS NOT FIX NOW
+CME ERROR: 52
+GPSRD:$GNGGA,123751.100,4900.7631,N,00825.6098,E,0,4,,253.8,M,47.9,M,,*5B
$GPGSA,A,1,07,14,30,,,,,,,,,,,,*1F
$BDGSA,A,1,07,,,,,,,,,,,,,,*08
$GPGSV,3,1,09,30,61,064,38,05,58,243,17,14,48,138,20,20,40,200,*71
$GPGSV,3,2,09,39,31,158,,07,30,062,35,15,29,295,13,08,09,042,26*73
$GPGSV,3,3,09,27,03,014,*43
$BDGSV,1,1,02,07,26,052,31,27,01,004,*6C
$GNRMC,123751.100,V,4900.7631,N,00825.6098,E,0.511,260.81,041221,,,N*50
$GNVTG,260.81,T,,M,0.511,N,0.946,K,N*2F
+GPSRD:$GNGGA,123802.000,4900.7604,N,00825.4744,E,1,5,5.00,102.1,M,47.9,M,,*44
$GPGSA,A,3,07,14,30,08,,,,,,,,,5.09,5.00,0.95*0E
$BDGSA,A,3,07,,,,,,,,,,,,5.09,5.00,0.95*11
$GPGSV,3,1,10,30,61,064,38,05,58,243,15,14,48,138,12,20,40,200,*7A
$GPGSV,3,2,10,07,30,062,36,15,29,295,,40,13,117,,08,09,042,25*7C
$GPGSV,3,3,10,27,03,014,,28,,,25*46
$BDGSV,1,1,02,07,26,052,32,27,01,004,*6F
$GNRMC,123802.000,A,4900.7604,N,00825.4744,E,1.371,164.74,041221,,,A*4E
$GNVTG,164.74,T,,M,1.371,N,2.541,K,A*25
+GPSRD:$GNGGA,123812.000,4900.7693,N,00825.4711,E,1,5,4.99,107.5,M,47.9,M,,*4B
$GPGSA,A,3,07,14,30,08,,,,,,,,,5.08,4.99,0.95*0E
$BDGSA,A,3,07,,,,,,,,,,,,5.08,4.99,0.95*11
$GPGSV,3,1,10,30,61,064,38,05,58,243,17,14,48,138,20,20,40,200,*79
$GPGSV,3,2,10,07,30,062,36,15,29,295,,44,12,116,,08,09,042,24*79
$GPGSV,3,3,10,27,03,014,,28,,,25*46
$BDGSV,1,1,02,07,26,052,32,27,01,004,*6F
$GNRMC,123812.000,A,4900.7693,N,00825.4711,E,1.648,329.75,041221,,,A*44
$GNVTG,329.75,T,,M,1.648,N,3.054,K,A*20
+GPSRD:$GNGGA,123822.000,4900.7742,N,00825.4692,E,1,5,5.49,112.9,M,47.9,M,,*4B
$GPGSA,A,3,07,14,30,08,,,,,,,,,6.24,5.49,2.96*0E
$BDGSA,A,3,07,,,,,,,,,,,,6.24,5.49,2.96*11
$GPGSV,3,1,10,30,61,064,38,05,58,243,19,14,48,138,24,20,40,200,*73
$GPGSV,3,2,10,37,32,162,,07,30,062,37,15,29,295,,08,09,042,23*7A
$GPGSV,3,3,10,27,03,014,,28,,,25*46
$BDGSV,1,1,03,07,26,052,31,05,15,123,,27,01,004,*5C
$GNRMC,123822.000,A,4900.7742,N,00825.4692,E,0.446,254.53,041221,,,A*42
$GNVTG,254.53,T,,M,0.446,N,0.826,K,A*2C
+GPSRD:$GNGGA,123832.000,4900.7739,N,00825.4714,E,1,5,4.99,115.0,M,47.9,M,,*4B
$GPGSA,A,3,07,14,30,08,,,,,,,,,5.08,4.99,0.95*0E
$BDGSA,A,3,07,,,,,,,,,,,,5.08,4.99,0.95*11
$GPGSV,3,1,09,30,61,064,38,05,58,242,21,14,48,138,24,20,40,200,*71
$GPGSV,3,2,09,39,31,158,,07,30,062,37,15,29,295,,08,09,042,22*77
$GPGSV,3,3,09,27,03,014,*43
$BDGSV,1,1,04,07,26,052,31,05,15,123,,27,01,004,,08,,,31*51
$GNRMC,123832.000,A,4900.7739,N,00825.4714,E,1.588,135.45,041221,,,A*41
$GNVTG,135.45,T,,M,1.588,N,2.943,K,A*2D
+GPSRD:$GNGGA,123842.000,4900.7800,N,00825.4730,E,1,5,4.99,121.7,M,47.9,M,,*4F
$GPGSA,A,3,07,14,30,08,,,,,,,,,5.08,4.99,0.95*0E
$BDGSA,A,3,07,,,,,,,,,,,,5.08,4.99,0.95*11
$GPGSV,3,1,09,30,61,064,38,05,58,242,18,14,48,138,23,20,40,200,13*7E
$GPGSV,3,2,09,07,30,062,38,15,30,295,,33,29,210,,08,09,042,22*7C
$GPGSV,3,3,09,27,03,014,*43
$BDGSV,1,1,03,07,26,052,30,05,15,123,,27,01,004,*5D
$GNRMC,123842.000,A,4900.7800,N,00825.4730,E,1.075,137.09,041221,,,A*48
$GNVTG,137.09,T,,M,1.075,N,1.993,K,A*2E
