Started 21:15 End 22:17 Total Sent Values 186 about 20sec


Start...
Resp:

+CREG: 2
----
Resp:
^STN: 37
+CTZV:21/12/13,20:15:09,+01

+CREG: 1

A9/A9G
V02.02.20190915R
Ai_Thinker_Co._Ltd.
READY
----
Init Ready Done!
Resp:

----
Resp:
AT

OK
----
Could not find a valid BME680 sensor, check wiring!
Msg: Could not find a valid BME680 sensor, check wiring!

*****Error No.0
Resp:
AT+CREG=1

OK
----
Msg: Netwoek Set!
Resp:
AT+CREG?

+CREG: 1,1
----
Msg: Network Registered!
Resp:
AT+GPS=1

OK
----
Msg: GPS Set!
Resp:
AT+CGATT=1

+CGATT:1

OK
----
Msg: PS Attached!
Resp:
AT+CGDCONT?

OK
----
Msg: Context Set!
Resp:
AT+CGDCONT=1,"IP","pinternet.interkom.de"

OK
----
Msg: Context Changed!
Resp:
AT+CGACT=1,1

OK
----
Msg: Context Selected!
Resp:
AT+CGACT?

+CGACT: 1, 1
----
Msg: Context is Correct!
Resp:
AT+CIPSTATUS
+CIPSTATUS:
STATE:IP INITIAL
----
Msg: Status INITIAL!
Resp:
AT+CIPSTART="TCP","api.thingspeak.com",80
CONNECT OK
----
Msg: Connected!
Resp:
AT+GPSRD=5

OK
----
Msg: GPS Read Set!
Msg: Getting data from GPS using AT Cmd
Resp:
$GNGGA,201530.093,4900.4595,N,00852.6267,E,0,1,,169.3,M,48.0,M,,*58

$GPGSA,A,1,05,,,,,,,,,,,,,,*1B

$BDGSA,A,1,,,,,,,,,,,,,,,*0F

$GPGSV,2,1,08,25,46,111,33,26,37,296,,18,32,175,,02,18,042,27*78

$GPGSV,2,2,08,20,16,061,,05,13,090,33,12,13,109,37,16,01,291,*7C

$BDGSV,1,1,00*68

$GNRMC,201530.093,V,4900.4595,N,00852.6267,E,0.028,270.37,131221,,,N*54

$GNVTG,270.37,T,,M,0.028,N,0.051,K,N*23
---
Msg: Getting data from GPS using AT done
Resp:
AT+GPSRD=0

OK
----
Msg: GPS Read Off!
Msg: Getting data from Sensors
Msg: Failed to perform reading!
Resp:
AT+CIPSEND

>
----
Msg: Send Started!
Resp:
GET https://api.thingspeak.com/update?api_key=AYKVFH212TKGNW2B&field1=4.00&field2=12.00&field3=0.00&field4=21.00&field5=32.00&field6=$GNGGA,201530.093,4900.4595,N,00852.6267,E,0,1,,169.3,M,48.0,M,,*58

----
Resp:

OK



+CIPRCV,1:8
CLOSED
----
Msg: Send Completed!
Resp:
AT+CIPSTATUS
+CIPSTATUS:
STATE:CLOSED
----
Resp:
AT+CIPSTART="TCP","api.thingspeak.com",80
CONNECT OK
----
Msg: Connected!
Resp:
AT+GPSRD=5

OK
----
Msg: GPS Read Set!
Msg: Getting data from GPS using AT Cmd
Resp:
$GNGGA,201551.093,4900.5216,N,00825.4482,E,0,1,,78.7,M,47.9,M,,*6E

$GPGSA,A,1,05,,,,,,,,,,,,,,*1B

$BDGSA,A,1,,,,,,,,,,,,,,,*0F

$GPGSV,2,1,08,25,46,112,34,26,37,296,,18,32,175,,02,18,042,28*73

$GPGSV,2,2,08,20,16,061,,05,13,090,33,12,13,109,37,16,01,291,*7C

$BDGSV,1,1,00*68

$GNRMC,201551.093,V,4900.5216,N,00825.4482,E,0.001,89.90,131221,,,N*63

$GNVTG,89.90,T,,M,0.001,N,0.002,K,N*17
---
Msg: Getting data from GPS using AT done
Resp:
AT+GPSRD=0

OK
----
Msg: GPS Read Off!
Msg: Getting data from Sensors
Msg: Failed to perform reading!
Resp:
AT+CIPSEND

>
----
Msg: Send Started!
Resp:
GET https://api.thingspeak.com/update?api_key=AYKVFH212TKGNW2B&field1=6.00&field2=11.00&field3=1.00&field4=21.00&field5=32.00&field6=$GNGGA,201551.093,4900.5216,N,00825.4482,E,0,1,,78.7,M,47.9,M,,*6E

----
Resp:

OK



+CIPRCV,1:9
CLOSED
----
Msg: Send Completed!
Resp:
AT+CIPSTATUS
+CIPSTATUS:
STATE:CLOSED
----
Resp:
AT+CIPSTART="TCP","api.thingspeak.com",80
CONNECT OK
----
Msg: Connected!
Resp:
AT+GPSRD=5

OK
----
Msg: GPS Read Set!
Msg: Getting data from GPS using AT Cmd
Resp:
$GNGGA,201612.093,4900.5233,N,00825.4622,E,0,4,,143.3,M,47.9,M,,*5D

$GPGSA,A,1,05,12,25,02,,,,,,,,,,,*1D

$BDGSA,A,1,,,,,,,,,,,,,,,*0F

$GPGSV,3,1,09,25,46,112,34,26,37,296,,18,32,175,,39,31,158,*70

$GPGSV,3,2,09,02,18,042,29,20,16,061,,05,13,090,33,12,13,109,37*76

$GPGSV,3,3,09,16,01,291,*4C

$BDGSV,1,1,00*68

$GNRMC,201612.093,V,4900.5233,N,00825.4622,E,1.280,283.69,131221,,,N*5C

$GNVTG,283.69,T,,M,1.280,N,2.371,K,N*26
---
Msg: Getting data from GPS using AT done
Resp:
AT+GPSRD=0

OK
----
Msg: GPS Read Off!
Msg: Getting data from Sensors
Msg: Failed to perform reading!
Resp:
AT+CIPSEND

>
----
Msg: Send Started!
Resp:
GET https://api.thingspeak.com/update?api_key=AYKVFH212TKGNW2B&field1=8.00&field2=16.00&field3=2.00&field4=22.00&field5=34.00&field6=$GNGGA,201612.093,4900.5233,N,00825.4622,E,0,4,,143.3,M,47.9,M,,*5D

----
Resp:

OK



+CIPRCV,2:10
CLOSED
----
Msg: Send Completed!
Resp:
AT+CIPSTATUS
+CIPSTATUS:
STATE:CLOSED
----
Resp:
AT+CIPSTART="TCP","api.thingspeak.com",80
CONNECT OK
----
Msg: Connected!
Resp:
AT+GPSRD=5

OK
----
Msg: GPS Read Set!
Msg: Getting data from GPS using AT Cmd
Resp:
$GNGGA,201633.000,4900.5225,N,00825.4569,E,1,4,4.11,133.0,M,47.9,M,,*40

$GPGSA,A,3,05,12,25,02,,,,,,,,,4.23,4.11,0.99*00

$BDGSA,A,3,,,,,,,,,,,,,4.23,4.11,0.99*12

$GPGSV,3,1,09,25,46,112,35,26,37,296,,18,32,175,18,02,18,042,29*7A

$GPGSV,3,2,09,20,16,061,,05,13,090,33,12,13,109,38,40,13,117,*7E

$GPGSV,3,3,09,16,01,291,*4C

$BDGSV,1,1,00*68

$GNRMC,201633.000,A,4900.5225,N,00825.4569,E,0.131,357.00,131221,,,A*49

$GNVTG,357.00,T,,M,0.131,N,0.242,K,A*25
---
Msg: Getting data from GPS using AT done
Resp:
AT+GPSRD=0

OK
----
Msg: GPS Read Off!
Msg: Getting data from Sensors
Msg: Failed to perform reading!
Resp:
AT+CIPSEND

>
----
Msg: Send Started!
Resp:
GET https://api.thingspeak.com/update?api_key=AYKVFH212TKGNW2B&field1=3.00&field2=10.00&field3=3.00&field4=23.00&field5=33.00&field6=$GNGGA,201633.000,4900.5225,N,00825.4569,E,1,4,4.11,133.0,M,47.9,M,,*40

----
Resp:

OK



+CIPRCV,2:11
CLOSED
----
Msg: Send Completed!
Resp:
AT+CIPSTATUS
+CIPSTATUS:
STATE:CLOSED
----
Resp:
AT+CIPSTART="TCP","api.thingspeak.com",80
CONNECT OK
----
Msg: Connected!
Resp:
AT+GPSRD=5

OK
----
Msg: GPS Read Set!
Msg: Getting data from GPS using AT Cmd
Resp:
$GNGGA,201653.000,4900.5224,N,00825.4583,E,1,3,8.97,129.6,M,47.9,M,,*4B

$GPGSA,A,2,05,12,02,,,,,,,,,,9.03,8.97,1.00*0A

$BDGSA,A,2,,,,,,,,,,,,,9.03,8.97,1.00*1F

$GPGSV,3,1,09,25,46,112,35,26,37,296,,18,33,175,19,37,32,162,*7C

$GPGSV,3,2,09,02,18,042,29,20,16,060,20,05,13,090,31,12,12,110,37*7E

$GPGSV,3,3,09,16,02,292,*4C

$BDGSV,1,1,00*68

$GNRMC,201653.000,A,4900.5224,N,00825.4583,E,1.312,69.06,131221,,,A*70

$GNVTG,69.06,T,,M,1.312,N,2.430,K,A*1E
---
Msg: Getting data from GPS using AT done
Resp:
AT+GPSRD=0

OK
----
Msg: GPS Read Off!
Msg: Getting data from Sensors
Msg: Failed to perform reading!
Resp:
AT+CIPSEND

>
----
Msg: Send Started!
Resp:
GET https://api.thingspeak.com/update?api_key=AYKVFH212TKGNW2B&field1=6.00&field2=19.00&field3=4.00&field4=23.00&field5=32.00&field6=$GNGGA,201653.000,4900.5224,N,00825.4583,E,1,3,8.97,129.6,M,47.9,M,,*4B

----
Resp:

OK



+CIPRCV,2:12
CLOSED
----
Msg: Send Completed!
Resp:
AT+CIPSTATUS
+CIPSTATUS:
STATE:CLOSED
----
Resp:
AT+CIPSTART="TCP","api.thingspeak.com",80
CONNECT OK
----
Msg: Connected!
Resp:
AT+GPSRD=5

OK
----
Msg: GPS Read Set!
Msg: Getting data from GPS using AT Cmd
Resp:
$GNGGA,201713.000,4900.5224,N,00825.4538,E,1,4,4.12,133.1,M,47.9,M,,*44

$GPGSA,A,3,05,12,25,02,,,,,,,,,4.23,4.12,0.99*03

$BDGSA,A,3,,,,,,,,,,,,,4.23,4.12,0.99*11

$GPGSV,3,1,09,25,46,112,34,26,38,296,,18,33,175,19,33,29,210,*7A

$GPGSV,3,2,09,02,18,042,29,20,16,060,21,05,13,090,32,12,12,110,37*7C

$GPGSV,3,3,09,16,02,292,*4C

$BDGSV,1,1,00*68

$GNRMC,201713.000,A,4900.5224,N,00825.4538,E,0.909,263.04,131221,,,A*4E

$GNVTG,263.04,T,,M,0.909,N,1.684,K,A*2B
---
Msg: Getting data from GPS using AT done
Resp:
AT+GPSRD=0

OK
----
Msg: GPS Read Off!
Msg: Getting data from Sensors
Msg: Failed to perform reading!
Resp:
AT+CIPSEND

>
----
Msg: Send Started!
Resp:
GET https://api.thingspeak.com/update?api_key=AYKVFH212TKGNW2B&field1=5.00&field2=15.00&field3=5.00&field4=22.00&field5=32.00&field6=$GNGGA,201713.000,4900.5224,N,00825.4538,E,1,4,4.12,133.1,M,47.9,M,,*44

----
Resp:

OK



+CIPRCV,2:13
CLOSED
----
Msg: Send Completed!
Resp:
AT+CIPSTATUS
+CIPSTATUS:
STATE:CLOSED
----
Resp:
AT+CIPSTART="TCP","api.thingspeak.com",80
CONNECT OK
----
Msg: Connected!
Resp:
AT+GPSRD=5

OK
----
Msg: GPS Read Set!
Msg: Getting data from GPS using AT Cmd
Resp:
$GNGGA,201733.000,4900.5226,N,00825.4554,E,1,4,4.12,133.9,M,47.9,M,,*46

$GPGSA,A,3,05,12,25,02,,,,,,,,,4.24,4.12,0.99*04

$BDGSA,A,3,,,,,,,,,,,,,4.24,4.12,0.99*16

$GPGSV,3,1,09,25,46,112,36,26,38,296,,18,33,175,20,02,18,042,30*74

$GPGSV,3,2,09,20,16,060,24,05,13,090,32,12,12,110,36,16,02,292,*72

$GPGSV,3,3,09,34,,,*77

$BDGSV,1,1,00*68

$GNRMC,201733.000,A,4900.5226,N,00825.4554,E,0.738,337.59,131221,,,A*40

$GNVTG,337.59,T,,M,0.738,N,1.367,K,A*27
---
Msg: Getting data from GPS using AT done
Resp:
AT+GPSRD=0

OK
----
Msg: GPS Read Off!
Msg: Getting data from Sensors
Msg: Failed to perform reading!
Resp:
AT+CIPSEND

>
----
Msg: Send Started!
Resp:
GET https://api.thingspeak.com/update?api_key=AYKVFH212TKGNW2B&field1=6.00&field2=18.00&field3=6.00&field4=24.00&field5=32.00&field6=$GNGGA,201733.000,4900.5226,N,00825.4554,E,1,4,4.12,133.9,M,47.9,M,,*46

----
Resp:

OK



+CIPRCV,2:14
CLOSED
----
Msg: Send Completed!
Resp:
AT+CIPSTATUS
+CIPSTATUS:
STATE:CLOSED
----
Resp:
AT+CIPSTART="TCP","api.thingspeak.com",80
CONNECT OK
----
Msg: Connected!
Resp:
AT+GPSRD=5

OK
----
Msg: GPS Read Set!
Msg: Getting data from GPS using AT Cmd
Resp:
$GNGGA,201753.000,4900.5234,N,00825.4579,E,1,4,4.12,131.1,M,47.9,M,,*46

$GPGSA,A,3,05,12,25,02,,,,,,,,,4.24,4.12,0.99*04

$BDGSA,A,3,,,,,,,,,,,,,4.24,4.12,0.99*16

$GPGSV,3,1,09,25,46,112,36,26,38,296,,18,33,175,17,02,17,042,29*77

$GPGSV,3,2,09,20,16,060,24,05,13,089,30,12,12,110,36,16,02,292,*78

$GPGSV,3,3,09,38,,,*7B

$BDGSV,1,1,00*68

$GNRMC,201753.000,A,4900.5234,N,00825.4579,E,0.143,160.97,131221,,,A*42

$GNVTG,160.97,T,,M,0.143,N,0.266,K,A*2E
---
Msg: Getting data from GPS using AT done
Resp:
AT+GPSRD=0

OK
----
Msg: GPS Read Off!
Msg: Getting data from Sensors
Msg: Failed to perform reading!
Resp:
AT+CIPSEND

>
----
Msg: Send Started!
Resp:
GET https://api.thingspeak.com/update?api_key=AYKVFH212TKGNW2B&field1=9.00&field2=19.00&field3=7.00&field4=22.00&field5=30.00&field6=$GNGGA,201753.000,4900.5234,N,00825.4579,E,1,4,4.12,131.1,M,47.9,M,,*46

----
Resp:

OK



+CIPRCV,2:15
CLOSED
----
Msg: Send Completed!
Resp:
AT+CIPSTATUS
+CIPSTATUS:
STATE:CLOSED
----
Resp:
AT+CIPSTART="TCP","api.thingspeak.com",80
CONNECT OK
----
Msg: Connected!
Resp:
AT+GPSRD=5

OK
----
Msg: GPS Read Set!
Msg: Getting data from GPS using AT Cmd
Resp:
$GNGGA,201813.000,4900.5218,N,00825.4493,E,1,5,7.41,128.7,M,47.9,M,,*4C

$GPGSA,A,3,05,12,25,02,20,,,,,,,,9.05,7.41,5.20*0A

$BDGSA,A,3,,,,,,,,,,,,,9.05,7.41,5.20*1A

$GPGSV,3,1,09,25,45,112,34,26,39,296,,18,33,175,19,02,17,042,29*79

$GPGSV,3,2,09,20,16,060,24,05,13,089,31,12,12,110,36,16,02,292,*79

$GPGSV,3,3,09,45,,,*71

$BDGSV,1,1,00*68

$GNRMC,201813.000,A,4900.5218,N,00825.4493,E,0.447,302.05,131221,,,A*4E

$GNVTG,302.05,T,,M,0.447,N,0.829,K,A*23
---
Msg: Getting data from GPS using AT done
Resp:
AT+GPSRD=0

OK
----
Msg: GPS Read Off!
Msg: Getting data from Sensors
Msg: Failed to perform reading!
Resp:
AT+CIPSEND

>
----
Msg: Send Started!
Resp:
GET https://api.thingspeak.com/update?api_key=AYKVFH212TKGNW2B&field1=9.00&field2=16.00&field3=8.00&field4=21.00&field5=33.00&field6=$GNGGA,201813.000,4900.5218,N,00825.4493,E,1,5,7.41,128.7,M,47.9,M,,*4C

----
Resp:

OK



+CIPRCV,2:16
CLOSED
----
Msg: Send Completed!
Resp:
AT+CIPSTATUS
+CIPSTATUS:
STATE:CLOSED
----
Resp:
AT+CIPSTART="TCP","api.thingspeak.com",80
CONNECT OK
----
Msg: Connected!
Resp:
AT+GPSRD=5

OK
----
Msg: GPS Read Set!
Msg: Getting data from GPS using AT Cmd
Resp:
$GNGGA,201833.000,4900.5211,N,00825.4393,E,1,5,3.88,129.3,M,47.9,M,,*44

$GPGSA,A,3,05,12,25,02,20,,,,,,,,4.00,3.88,0.98*05

$BDGSA,A,3,,,,,,,,,,,,,4.00,3.88,0.98*15

$GPGSV,3,1,09,25,45,112,34,26,39,296,,18,33,175,18,37,32,162,*71

$GPGSV,3,2,09,02,17,042,30,20,16,060,24,05,13,089,32,12,12,110,37*76

$GPGSV,3,3,09,16,02,292,*4C

$BDGSV,1,1,00*68

$GNRMC,201833.000,A,4900.5211,N,00825.4393,E,1.161,302.96,131221,,,A*48

$GNVTG,302.96,T,,M,1.161,N,2.152,K,A*2E
---
Msg: Getting data from GPS using AT done
Resp:
AT+GPSRD=0

OK
----
Msg: GPS Read Off!
Msg: Getting data from Sensors
Msg: Failed to perform reading!
Resp:
AT+CIPSEND

>
----
Msg: Send Started!
Resp:
GET https://api.thingspeak.com/update?api_key=AYKVFH212TKGNW2B&field1=9.00&field2=14.00&field3=9.00&field4=21.00&field5=30.00&field6=$GNGGA,201833.000,4900.5211,N,00825.4393,E,1,5,3.88,129.3,M,47.9,M,,*44

----
Resp:

OK



+CIPRCV,2:17
CLOSED
----
Msg: Send Completed!
Resp:
AT+CIPSTATUS
+CIPSTATUS:
STATE:CLOSED
----
Resp:
AT+CIPSTART="TCP","api.thingspeak.com",80
CONNECT OK
----
Msg: Connected!
Resp:
AT+GPSRD=5

OK
----
Msg: GPS Read Set!
Msg: Getting data from GPS using AT Cmd
Resp:
$GNGGA,201853.000,4900.5231,N,00825.4498,E,1,5,3.88,130.7,M,47.9,M,,*40

$GPGSA,A,3,05,12,25,02,20,,,,,,,,4.01,3.88,0.98*04

$BDGSA,A,3,,,,,,,,,,,,,4.01,3.88,0.98*14

$GPGSV,3,1,09,25,45,112,35,26,39,296,,18,33,175,20,33,29,210,*73

$GPGSV,3,2,09,02,17,042,29,20,16,060,21,05,13,089,31,12,12,110,36*79

$GPGSV,3,3,09,16,02,292,*4C

$BDGSV,1,1,00*68

$GNRMC,201853.000,A,4900.5231,N,00825.4498,E,0.683,85.79,131221,,,A*77

$GNVTG,85.79,T,,M,0.683,N,1.266,K,A*1E
---
Msg: Getting data from GPS using AT done
Resp:
AT+GPSRD=0

OK
----
Msg: GPS Read Off!
Msg: Getting data from Sensors
Msg: Failed to perform reading!
Resp:
AT+CIPSEND

>
----
Msg: Send Started!
Resp:
GET https://api.thingspeak.com/update?api_key=AYKVFH212TKGNW2B&field1=3.00&field2=18.00&field3=10.00&field4=21.00&field5=33.00&field6=$GNGGA,201853.000,4900.5231,N,00825.4498,E,1,5,3.88,130.7,M,47.9,M,,*40

----
Resp:

OK



+CIPRCV,2:18
CLOSED
----
Msg: Send Completed!
Resp:
AT+CIPSTATUS
+CIPSTATUS:
STATE:CLOSED
----
Resp:
AT+CIPSTART="TCP","api.thingspeak.com",80
CONNECT OK
----
Msg: Connected!
Resp:
AT+GPSRD=5

OK
----
Msg: GPS Read Set!
Msg: Getting data from GPS using AT Cmd
Resp:
$GNGGA,201913.000,4900.5226,N,00825.4547,E,1,5,3.89,132.4,M,47.9,M,,*40

$GPGSA,A,3,05,12,25,02,20,,,,,,,,4.01,3.89,0.98*05

$BDGSA,A,3,,,,,,,,,,,,,4.01,3.89,0.98*15

$GPGSV,3,1,09,25,45,112,33,26,39,296,,18,33,175,21,02,17,041,29*76

$GPGSV,3,2,09,20,16,060,19,05,13,089,30,12,12,110,36,44,12,116,*7F

$GPGSV,3,3,09,16,02,292,*4C

$BDGSV,1,1,00*68

$GNRMC,201913.000,A,4900.5226,N,00825.4547,E,0.746,95.37,131221,,,A*74

$GNVTG,95.37,T,,M,0.746,N,1.382,K,A*16
---
Msg: Getting data from GPS using AT done
Resp:
AT+GPSRD=0

OK
----
Msg: GPS Read Off!
Msg: Getting data from Sensors
Msg: Failed to perform reading!
Resp:
AT+CIPSEND

>
----
Msg: Send Started!
Resp:
GET https://api.thingspeak.com/update?api_key=AYKVFH212TKGNW2B&field1=5.00&field2=11.00&field3=11.00&field4=21.00&field5=31.00&field6=$GNGGA,201913.000,4900.5226,N,00825.4547,E,1,5,3.89,132.4,M,47.9,M,,*40

----
Resp:

OK



+CIPRCV,2:19
CLOSED
----
Msg: Send Completed!
Resp:
AT+CIPSTATUS
+CIPSTATUS:
STATE:CLOSED
----
Resp:
AT+CIPSTART="TCP","api.thingspeak.com",80
CONNECT OK
----
Msg: Connected!
Resp:
AT+GPSRD=5

OK
----
Msg: GPS Read Set!
Msg: Getting data from GPS using AT Cmd
Resp:
$GNGGA,201933.000,4900.5234,N,00825.4630,E,1,5,3.90,135.5,M,47.9,M,,*4C

$GPGSA,A,3,05,12,25,02,20,,,,,,,,4.02,3.90,0.98*0E

$BDGSA,A,3,,,,,,,,,,,,,4.02,3.90,0.98*1E

$GPGSV,3,1,09,25,45,113,35,26,39,296,,18,34,175,20,02,17,041,31*7E

$GPGSV,3,2,09,20,16,059,18,05,13,089,29,12,11,110,36,16,03,292,*77

$GPGSV,3,3,09,36,,,*75

$BDGSV,1,1,00*68

$GNRMC,201933.000,A,4900.5234,N,00825.4630,E,0.517,96.19,131221,,,A*7F

$GNVTG,96.19,T,,M,0.517,N,0.958,K,A*13
---
Msg: Getting data from GPS using AT done
Resp:
AT+GPSRD=0

OK
----
Msg: GPS Read Off!
Msg: Getting data from Sensors
Msg: Failed to perform reading!
Resp:
AT+CIPSEND

>
----
Msg: Send Started!
Resp:
GET https://api.thingspeak.com/update?api_key=AYKVFH212TKGNW2B&field1=6.00&field2=17.00&field3=12.00&field4=22.00&field5=30.00&field6=$GNGGA,201933.000,4900.5234,N,00825.4630,E,1,5,3.90,135.5,M,47.9,M,,*4C

----
Resp:

OK



+CIPRCV,2:20
CLOSED
----
Msg: Send Completed!
Resp:
AT+CIPSTATUS
+CIPSTATUS:
STATE:CLOSED
----
Resp:
AT+CIPSTART="TCP","api.thingspeak.com",80
CONNECT OK
----
Msg: Connected!
Resp:
AT+GPSRD=5

OK
----
Msg: GPS Read Set!
Msg: Getting data from GPS using AT Cmd
Resp:
$GNGGA,201953.000,4900.5234,N,00825.4687,E,1,5,3.91,134.5,M,47.9,M,,*46

$GPGSA,A,3,05,12,25,02,20,,,,,,,,4.03,3.91,0.98*0E

$BDGSA,A,3,,,,,,,,,,,,,4.03,3.91,0.98*1E

$GPGSV,3,1,09,25,45,113,35,26,39,296,,18,34,175,19,02,17,041,30*75

$GPGSV,3,2,09,20,16,059,20,05,13,089,29,12,11,110,35,16,03,292,*7F

$GPGSV,3,3,09,43,,,*77

$BDGSV,1,1,00*68

$GNRMC,201953.000,A,4900.5234,N,00825.4687,E,0.715,161.55,131221,,,A*44

$GNVTG,161.55,T,,M,0.715,N,1.325,K,A*23
---
Msg: Getting data from GPS using AT done
Resp:
AT+GPSRD=0

OK
----
Msg: GPS Read Off!
Msg: Getting data from Sensors
Msg: Failed to perform reading!
Resp:
AT+CIPSEND

>
----
Msg: Send Started!
Resp:
GET https://api.thingspeak.com/update?api_key=AYKVFH212TKGNW2B&field1=7.00&field2=17.00&field3=13.00&field4=23.00&field5=34.00&field6=$GNGGA,201953.000,4900.5234,N,00825.4687,E,1,5,3.91,134.5,M,47.9,M,,*46

----
Resp:

OK



+CIPRCV,2:21
CLOSED
----
Msg: Send Completed!
Resp:
AT+CIPSTATUS
+CIPSTATUS:
STATE:CLOSED
----
Resp:
AT+CIPSTART="TCP","api.thingspeak.com",80
CONNECT OK
----
Msg: Connected!
Resp:
AT+GPSRD=5

OK
----
Msg: GPS Read Set!
Msg: Getting data from GPS using AT Cmd
Resp:
$GNGGA,202013.000,4900.5223,N,00825.4597,E,1,5,3.92,133.9,M,47.9,M,,*44

$GPGSA,A,3,05,12,25,02,20,,,,,,,,4.04,3.92,0.98*0A

$BDGSA,A,3,,,,,,,,,,,,,4.04,3.92,0.98*1A

$GPGSV,3,1,09,25,45,113,34,26,39,296,,18,34,175,19,02,17,041,30*74

$GPGSV,3,2,09,20,16,059,19,05,13,089,30,12,11,110,36,16,03,292,*7E

$GPGSV,3,3,09,49,,,*7D

$BDGSV,1,1,00*68

$GNRMC,202013.000,A,4900.5223,N,00825.4597,E,1.001,234.97,131221,,,A*40

$GNVTG,234.97,T,,M,1.001,N,1.854,K,A*20
---
Msg: Getting data from GPS using AT done
Resp:
AT+GPSRD=0

OK
----
Msg: GPS Read Off!
Msg: Getting data from Sensors
Msg: Failed to perform reading!
Resp:
AT+CIPSEND

>
----
Msg: Send Started!
Resp:
GET https://api.thingspeak.com/update?api_key=AYKVFH212TKGNW2B&field1=8.00&field2=18.00&field3=14.00&field4=22.00&field5=31.00&field6=$GNGGA,202013.000,4900.5223,N,00825.4597,E,1,5,3.92,133.9,M,47.9,M,,*44

----
Resp:

OK



+CIPRCV,2:22
CLOSED
----
Msg: Send Completed!
Resp:
AT+CIPSTATUS
+CIPSTATUS:
STATE:CLOSED
----
Resp:
AT+CIPSTART="TCP","api.thingspeak.com",80
CONNECT OK
----
Msg: Connected!
Resp:
AT+GPSRD=5

OK
----
Msg: GPS Read Set!
Msg: Getting data from GPS using AT Cmd
Resp:
$GNGGA,202033.000,4900.5242,N,00825.4668,E,1,5,3.93,129.8,M,47.9,M,,*49

$GPGSA,A,3,05,12,25,02,20,,,,,,,,4.05,3.93,0.98*0A

$BDGSA,A,3,,,,,,,,,,,,,4.05,3.93,0.98*1A

$GPGSV,3,1,09,25,45,113,36,26,39,296,,18,34,175,20,02,17,041,30*7C

$GPGSV,3,2,09,20,16,059,18,05,14,088,29,12,11,110,35,16,03,292,*72

$GPGSV,3,3,09,50,,,*75

$BDGSV,1,1,00*68

$GNRMC,202033.000,A,4900.5242,N,00825.4668,E,0.898,68.68,131221,,,A*74

$GNVTG,68.68,T,,M,0.898,N,1.663,K,A*18
---
Msg: Getting data from GPS using AT done
Resp:
AT+GPSRD=0

OK
----
Msg: GPS Read Off!
Msg: Getting data from Sensors
Msg: Failed to perform reading!
Resp:
AT+CIPSEND

>
----
Msg: Send Started!
Resp:
GET https://api.thingspeak.com/update?api_key=AYKVFH212TKGNW2B&field1=5.00&field2=13.00&field3=15.00&field4=23.00&field5=32.00&field6=$GNGGA,202033.000,4900.5242,N,00825.4668,E,1,5,3.93,129.8,M,47.9,M,,*49

----
Resp:

OK



+CIPRCV,2:23
CLOSED
----
Msg: Send Completed!
Resp:
AT+CIPSTATUS
+CIPSTATUS:
STATE:CLOSED
----
Resp:
AT+CIPSTART="TCP","api.thingspeak.com",80
CONNECT OK
----
Msg: Connected!
Resp:
AT+GPSRD=5

OK
----
Msg: GPS Read Set!
Msg: Getting data from GPS using AT Cmd
Resp:
$GNGGA,202053.000,4900.5250,N,00825.4720,E,1,5,3.93,127.8,M,47.9,M,,*4F

$GPGSA,A,3,05,12,25,02,20,,,,,,,,4.05,3.93,0.98*0A

$BDGSA,A,3,,,,,,,,,,,,,4.05,3.93,0.98*1A

$GPGSV,3,1,09,25,44,113,35,26,40,296,,18,34,175,18,37,32,162,*79

$GPGSV,3,2,09,02,17,041,30,20,16,059,18,05,14,088,28,12,11,110,35*7C

$GPGSV,3,3,09,16,03,292,*4D

$BDGSV,1,1,00*68

$GNRMC,202053.000,A,4900.5250,N,00825.4720,E,0.623,64.29,131221,,,A*7B

$GNVTG,64.29,T,,M,0.623,N,1.154,K,A*1C
---
Msg: Getting data from GPS using AT done
Resp:
AT+GPSRD=0

OK
----
Msg: GPS Read Off!
Msg: Getting data from Sensors
Msg: Failed to perform reading!
Resp:
AT+CIPSEND

>
----
Msg: Send Started!
Resp:
GET https://api.thingspeak.com/update?api_key=AYKVFH212TKGNW2B&field1=6.00&field2=16.00&field3=16.00&field4=21.00&field5=31.00&field6=$GNGGA,202053.000,4900.5250,N,00825.4720,E,1,5,3.93,127.8,M,47.9,M,,*4F

----
Resp:

OK



+CIPRCV,2:24
CLOSED
----
Msg: Send Completed!
Resp:
AT+CIPSTATUS
+CIPSTATUS:
STATE:CLOSED
----
Resp:
AT+CIPSTART="TCP","api.thingspeak.com",80
CONNECT OK
----
Msg: Connected!
Resp:
AT+GPSRD=5

OK
----
Msg: GPS Read Set!
Msg: Getting data from GPS using AT Cmd
Resp:
$GNGGA,202113.000,4900.5236,N,00825.4665,E,1,5,3.95,127.6,M,47.9,M,,*42

$GPGSA,A,3,05,12,25,02,20,,,,,,,,4.07,3.95,0.98*0E

$BDGSA,A,3,,,,,,,,,,,,,4.07,3.95,0.98*1E

$GPGSV,3,1,09,25,44,113,34,26,40,296,,18,34,175,17,02,17,041,29*7D

$GPGSV,3,2,09,20,16,059,19,05,14,088,26,40,13,117,,12,11,110,34*71

$GPGSV,3,3,09,16,03,292,*4D

$BDGSV,1,1,00*68

$GNRMC,202113.000,A,4900.5236,N,00825.4665,E,2.188,88.30,131221,,,A*70

$GNVTG,88.30,T,,M,2.188,N,4.054,K,A*16
---
Msg: Getting data from GPS using AT done
Resp:
AT+GPSRD=0

OK
----
Msg: GPS Read Off!
Msg: Getting data from Sensors
Msg: Failed to perform reading!
Resp:
AT+CIPSEND

>
----
Msg: Send Started!
Resp:
GET https://api.thingspeak.com/update?api_key=AYKVFH212TKGNW2B&field1=9.00&field2=16.00&field3=17.00&field4=24.00&field5=30.00&field6=$GNGGA,202113.000,4900.5236,N,00825.4665,E,1,5,3.95,127.6,M,47.9,M,,*42

----
Resp:

OK



+CIPRCV,2:25
CLOSED
----
Msg: Send Completed!
Resp:
AT+CIPSTATUS
+CIPSTATUS:
STATE:CLOSED
----
Resp:
AT+CIPSTART="TCP","api.thingspeak.com",80
CONNECT OK
----
Msg: Connected!
Resp:
AT+GPSRD=5

OK
----
Msg: GPS Read Set!
Msg: Getting data from GPS using AT Cmd
Resp:
$GNGGA,202133.000,4900.5240,N,00825.4679,E,1,5,3.95,127.7,M,47.9,M,,*4D

$GPGSA,A,3,05,12,25,02,20,,,,,,,,4.07,3.95,0.98*0E

$BDGSA,A,3,,,,,,,,,,,,,4.07,3.95,0.98*1E

$GPGSV,3,1,09,25,44,113,36,26,40,296,,18,34,175,18,37,32,162,*7A

$GPGSV,3,2,09,02,17,041,30,20,16,059,18,05,14,088,26,12,11,110,35*72

$GPGSV,3,3,09,16,03,292,*4D

$BDGSV,1,1,00*68

$GNRMC,202133.000,A,4900.5240,N,00825.4679,E,0.762,190.18,131221,,,A*4C

$GNVTG,190.18,T,,M,0.762,N,1.413,K,A*26
---
Msg: Getting data from GPS using AT done
Resp:
AT+GPSRD=0

OK
----
Msg: GPS Read Off!
Msg: Getting data from Sensors
Msg: Failed to perform reading!
Resp:
AT+CIPSEND

>
----
Msg: Send Started!
Resp:
GET https://api.thingspeak.com/update?api_key=AYKVFH212TKGNW2B&field1=2.00&field2=12.00&field3=18.00&field4=22.00&field5=32.00&field6=$GNGGA,202133.000,4900.5240,N,00825.4679,E,1,5,3.95,127.7,M,47.9,M,,*4D

----
Resp:

OK



+CIPRCV,2:26
CLOSED
----
Msg: Send Completed!
Resp:
AT+CIPSTATUS
+CIPSTATUS:
STATE:CLOSED
----
Resp:
AT+CIPSTART="TCP","api.thingspeak.com",80
CONNECT OK
----
Msg: Connected!
Resp:
AT+GPSRD=5

OK
----
Msg: GPS Read Set!
Msg: Getting data from GPS using AT Cmd
Resp:
$GNGGA,202153.000,4900.5243,N,00825.4739,E,1,5,3.96,129.8,M,47.9,M,,*4F

$GPGSA,A,3,05,12,25,02,20,,,,,,,,4.08,3.96,0.98*02

$BDGSA,A,3,,,,,,,,,,,,,4.08,3.96,0.98*12

$GPGSV,3,1,09,25,44,113,34,26,40,296,,18,34,175,18,33,29,210,*70

$GPGSV,3,2,09,02,16,041,29,20,16,059,18,05,14,088,26,12,10,111,34*7A

$GPGSV,3,3,09,16,03,292,*4D

$BDGSV,1,1,00*68

$GNRMC,202153.000,A,4900.5243,N,00825.4739,E,0.269,260.33,131221,,,A*47

$GNVTG,260.33,T,,M,0.269,N,0.499,K,A*2E
---
Msg: Getting data from GPS using AT done
Resp:
AT+GPSRD=0

OK
----
Msg: GPS Read Off!
Msg: Getting data from Sensors
Msg: Failed to perform reading!
Resp:
AT+CIPSEND

>
----
Msg: Send Started!
Resp:
GET https://api.thingspeak.com/update?api_key=AYKVFH212TKGNW2B&field1=6.00&field2=19.00&field3=19.00&field4=23.00&field5=31.00&field6=$GNGGA,202153.000,4900.5243,N,00825.4739,E,1,5,3.96,129.8,M,47.9,M,,*4F

----
Resp:

OK



+CIPRCV,2:27
CLOSED
----
Msg: Send Completed!
Resp:
AT+CIPSTATUS
+CIPSTATUS:
STATE:CLOSED
----
Resp:
AT+CIPSTART="TCP","api.thingspeak.com",80
CONNECT OK
----
Msg: Connected!
Resp:
AT+GPSRD=5

OK
----
Msg: GPS Read Set!
Msg: Getting data from GPS using AT Cmd
Resp:
$GNGGA,202213.000,4900.5221,N,00825.4595,E,1,5,3.97,130.9,M,47.9,M,,*40

$GPGSA,A,3,05,12,25,02,20,,,,,,,,4.09,3.97,0.98*02

$BDGSA,A,3,,,,,,,,,,,,,4.09,3.97,0.98*12

$GPGSV,3,1,09,25,43,114,35,26,40,297,,18,35,175,18,02,16,041,27*7C

$GPGSV,3,2,09,20,16,058,15,05,14,088,24,44,12,116,,12,10,111,34*7A

$GPGSV,3,3,09,16,04,293,*4B

$BDGSV,1,1,00*68

$GNRMC,202213.000,A,4900.5221,N,00825.4595,E,0.461,121.14,131221,,,A*4D

$GNVTG,121.14,T,,M,0.461,N,0.854,K,A*2E
---
Msg: Getting data from GPS using AT done
Resp:
AT+GPSRD=0

OK
----
Msg: GPS Read Off!
Msg: Getting data from Sensors
Msg: Failed to perform reading!
Resp:
AT+CIPSEND

>
----
Msg: Send Started!
Resp:
GET https://api.thingspeak.com/update?api_key=AYKVFH212TKGNW2B&field1=5.00&field2=11.00&field3=20.00&field4=21.00&field5=32.00&field6=$GNGGA,202213.000,4900.5221,N,00825.4595,E,1,5,3.97,130.9,M,47.9,M,,*40

----
Resp:

OK



+CIPRCV,2:28
CLOSED
----
Msg: Send Completed!
Resp:
AT+CIPSTATUS
+CIPSTATUS:
STATE:CLOSED
----
Resp:
AT+CIPSTART="TCP","api.thingspeak.com",80
CONNECT OK
----
Msg: Connected!
Resp:
AT+GPSRD=5

OK
----
Msg: GPS Read Set!
Msg: Getting data from GPS using AT Cmd
Resp:
$GNGGA,202233.000,4900.5261,N,00825.4732,E,1,5,3.98,130.3,M,47.9,M,,*4C

$GPGSA,A,3,05,12,25,02,20,,,,,,,,4.10,3.98,0.98*05

$BDGSA,A,3,,,,,,,,,,,,,4.10,3.98,0.98*15

$GPGSV,3,1,09,25,43,114,36,26,40,297,,18,35,175,17,02,16,041,26*71

$GPGSV,3,2,09,20,16,058,16,05,14,088,23,12,10,111,34,16,04,293,*70

$GPGSV,3,3,09,36,,,*75

$BDGSV,1,1,00*68

$GNRMC,202233.000,A,4900.5261,N,00825.4732,E,0.418,89.13,131221,,,A*7E

$GNVTG,89.13,T,,M,0.418,N,0.775,K,A*18
---
Msg: Getting data from GPS using AT done
Resp:
AT+GPSRD=0

OK
----
Msg: GPS Read Off!
Msg: Getting data from Sensors
Msg: Failed to perform reading!
Resp:
AT+CIPSEND

>
----
Msg: Send Started!
Resp:
GET https://api.thingspeak.com/update?api_key=AYKVFH212TKGNW2B&field1=2.00&field2=12.00&field3=21.00&field4=20.00&field5=31.00&field6=$GNGGA,202233.000,4900.5261,N,00825.4732,E,1,5,3.98,130.3,M,47.9,M,,*4C

----
Resp:

OK



+CIPRCV,2:29
CLOSED
----
Msg: Send Completed!
Resp:
AT+CIPSTATUS
+CIPSTATUS:
STATE:CLOSED
----
Resp:
AT+CIPSTART="TCP","api.thingspeak.com",80
CONNECT OK
----
Msg: Connected!
Resp:
AT+GPSRD=5

OK
----
Msg: GPS Read Set!
Msg: Getting data from GPS using AT Cmd
Resp:
$GNGGA,202253.000,4900.5272,N,00825.4818,E,1,4,4.19,131.5,M,47.9,M,,*47

$GPGSA,A,3,05,12,25,02,,,,,,,,,4.30,4.19,0.98*0B

$BDGSA,A,3,,,,,,,,,,,,,4.30,4.19,0.98*19

$GPGSV,3,1,09,25,43,114,34,26,40,297,,18,35,175,16,02,16,041,28*7C

$GPGSV,3,2,09,20,16,058,,05,14,088,23,12,10,111,34,16,04,293,*77

$GPGSV,3,3,09,43,,,*77

$BDGSV,1,1,00*68

$GNRMC,202253.000,A,4900.5272,N,00825.4818,E,1.024,96.07,131221,,,A*7C

$GNVTG,96.07,T,,M,1.024,N,1.897,K,A*1B
---
Msg: Getting data from GPS using AT done
Resp:
AT+GPSRD=0

OK
----
Msg: GPS Read Off!
Msg: Getting data from Sensors
Msg: Failed to perform reading!
Resp:
AT+CIPSEND

>
----
Msg: Send Started!
Resp:
GET https://api.thingspeak.com/update?api_key=AYKVFH212TKGNW2B&field1=6.00&field2=14.00&field3=22.00&field4=20.00&field5=33.00&field6=$GNGGA,202253.000,4900.5272,N,00825.4818,E,1,4,4.19,131.5,M,47.9,M,,*47

----
Resp:

OK



+CIPRCV,2:30
CLOSED
----
Msg: Send Completed!
Resp:
AT+CIPSTATUS
+CIPSTATUS:
STATE:CLOSED
----
Resp:
AT+CIPSTART="TCP","api.thingspeak.com",80
CONNECT OK
----
Msg: Connected!
Resp:
AT+GPSRD=5

OK
----
Msg: GPS Read Set!
Msg: Getting data from GPS using AT Cmd
Resp:
$GNGGA,202313.000,4900.5242,N,00825.4670,E,1,4,4.19,134.8,M,47.9,M,,*49

$GPGSA,A,3,05,12,25,02,,,,,,,,,4.31,4.19,0.98*0A

$BDGSA,A,3,,,,,,,,,,,,,4.31,4.19,0.98*18

$GPGSV,3,1,09,25,43,114,33,26,40,297,,18,35,175,18,02,16,041,29*74

$GPGSV,3,2,09,20,16,058,,05,14,087,24,12,10,111,34,16,04,293,*7F

$GPGSV,3,3,09,47,,,*73

$BDGSV,1,1,00*68

$GNRMC,202313.000,A,4900.5242,N,00825.4670,E,1.173,276.84,131221,,,A*4E

$GNVTG,276.84,T,,M,1.173,N,2.174,K,A*28
---
Msg: Getting data from GPS using AT done
Resp:
AT+GPSRD=0

OK
----
Msg: GPS Read Off!
Msg: Getting data from Sensors
Msg: Failed to perform reading!
Resp:
AT+CIPSEND

>
----
Msg: Send Started!
Resp:
GET https://api.thingspeak.com/update?api_key=AYKVFH212TKGNW2B&field1=7.00&field2=14.00&field3=23.00&field4=20.00&field5=30.00&field6=$GNGGA,202313.000,4900.5242,N,00825.4670,E,1,4,4.19,134.8,M,47.9,M,,*49

----
Resp:

OK



+CIPRCV,2:31
CLOSED
----
Msg: Send Completed!
Resp:
AT+CIPSTATUS
+CIPSTATUS:
STATE:CLOSED
----
Resp:
AT+CIPSTART="TCP","api.thingspeak.com",80
CONNECT OK
----
Msg: Connected!
Resp:
AT+GPSRD=5

OK
----
Msg: GPS Read Set!
Msg: Getting data from GPS using AT Cmd
Resp:
$GNGGA,202333.000,4900.5248,N,00825.4754,E,1,5,4.00,137.0,M,47.9,M,,*44

$GPGSA,A,3,05,12,25,02,20,,,,,,,,4.12,4.00,0.97*0E

$BDGSA,A,3,,,,,,,,,,,,,4.12,4.00,0.97*1E

$GPGSV,3,1,09,25,43,114,35,26,41,297,,18,36,175,18,39,31,158,*7F

$GPGSV,3,2,09,02,16,041,27,20,16,057,17,05,14,087,23,12,10,111,34*7F

$GPGSV,3,3,09,16,04,293,*4B

$BDGSV,1,1,00*68

$GNRMC,202333.000,A,4900.5248,N,00825.4754,E,0.712,279.92,131221,,,A*49

$GNVTG,279.92,T,,M,0.712,N,1.318,K,A*2B
---
Msg: Getting data from GPS using AT done
Resp:
AT+GPSRD=0

OK
----
Msg: GPS Read Off!
Msg: Getting data from Sensors
Msg: Failed to perform reading!
Resp:
AT+CIPSEND

>
----
Msg: Send Started!
Resp:
GET https://api.thingspeak.com/update?api_key=AYKVFH212TKGNW2B&field1=2.00&field2=15.00&field3=24.00&field4=21.00&field5=34.00&field6=$GNGGA,202333.000,4900.5248,N,00825.4754,E,1,5,4.00,137.0,M,47.9,M,,*44

----
Resp:

OK



+CIPRCV,2:32
CLOSED
----
Msg: Send Completed!
Resp:
AT+CIPSTATUS
+CIPSTATUS:
STATE:CLOSED
----
Resp:
AT+CIPSTART="TCP","api.thingspeak.com",80
CONNECT OK
----
Msg: Connected!
Resp:
AT+GPSRD=5

OK
----
Msg: GPS Read Set!
Msg: Getting data from GPS using AT Cmd
Resp:
$GNGGA,202353.000,4900.5255,N,00825.4764,E,1,5,4.01,137.7,M,47.9,M,,*4B

$GPGSA,A,3,05,12,25,02,20,,,,,,,,4.13,4.01,0.97*0E

$BDGSA,A,3,,,,,,,,,,,,,4.13,4.01,0.97*1E

$GPGSV,3,1,09,25,43,114,35,26,41,297,,18,36,175,18,02,16,041,28*71

$GPGSV,3,2,09,20,16,057,14,05,14,087,22,40,13,117,,12,10,111,34*79

$GPGSV,3,3,09,16,04,293,*4B

$BDGSV,1,1,00*68

$GNRMC,202353.000,A,4900.5255,N,00825.4764,E,0.823,68.05,131221,,,A*71

$GNVTG,68.05,T,,M,0.823,N,1.525,K,A*12
---
Msg: Getting data from GPS using AT done
Resp:
AT+GPSRD=0

OK
----
Msg: GPS Read Off!
Msg: Getting data from Sensors
Msg: Failed to perform reading!
Resp:
AT+CIPSEND

>
----
Msg: Send Started!
Resp:
GET https://api.thingspeak.com/update?api_key=AYKVFH212TKGNW2B&field1=3.00&field2=14.00&field3=25.00&field4=22.00&field5=31.00&field6=$GNGGA,202353.000,4900.5255,N,00825.4764,E,1,5,4.01,137.7,M,47.9,M,,*4B

----
Resp:

OK



+CIPRCV,2:33
CLOSED
----
Msg: Send Completed!
Resp:
AT+CIPSTATUS
+CIPSTATUS:
STATE:CLOSED
----
Resp:
AT+CIPSTART="TCP","api.thingspeak.com",80
CONNECT OK
----
Msg: Connected!
Resp:
AT+GPSRD=5

OK
----
Msg: GPS Read Set!
Msg: Getting data from GPS using AT Cmd
Resp:
$GNGGA,202413.000,4900.5282,N,00825.4828,E,1,5,4.02,139.6,M,47.9,M,,*49

$GPGSA,A,3,05,12,25,02,20,,,,,,,,4.13,4.02,0.97*0D

$BDGSA,A,3,,,,,,,,,,,,,4.13,4.02,0.97*1D

$GPGSV,3,1,10,25,43,114,36,26,41,297,,18,36,175,18,02,16,041,26*74

$GPGSV,3,2,10,20,16,057,16,05,14,087,23,12,10,111,35,04,08,327,*78

$GPGSV,3,3,10,16,04,293,,35,,,*45

$BDGSV,1,1,00*68

$GNRMC,202413.000,A,4900.5282,N,00825.4828,E,0.838,50.22,131221,,,A*7B

$GNVTG,50.22,T,,M,0.838,N,1.553,K,A*17
---
Msg: Getting data from GPS using AT done
Resp:
AT+GPSRD=0

OK
----
Msg: GPS Read Off!
Msg: Getting data from Sensors
Msg: Failed to perform reading!
Resp:
AT+CIPSEND

>
----
Msg: Send Started!
Resp:
GET https://api.thingspeak.com/update?api_key=AYKVFH212TKGNW2B&field1=2.00&field2=14.00&field3=26.00&field4=24.00&field5=32.00&field6=$GNGGA,202413.000,4900.5282,N,00825.4828,E,1,5,4.02,139.6,M,47.9,M,,*49

----
Resp:

OK



+CIPRCV,2:34
CLOSED
----
Msg: Send Completed!
Resp:
AT+CIPSTATUS
+CIPSTATUS:
STATE:CLOSED
----
Resp:
AT+CIPSTART="TCP","api.thingspeak.com",80
CONNECT OK
----
Msg: Connected!
Resp:
AT+GPSRD=5

OK
----
Msg: GPS Read Set!
Msg: Getting data from GPS using AT Cmd
Resp:
$GNGGA,202433.000,4900.5268,N,00825.4798,E,1,5,4.04,139.2,M,47.9,M,,*49

$GPGSA,A,3,05,12,25,02,20,,,,,,,,4.15,4.04,0.97*0D

$BDGSA,A,3,,,,,,,,,,,,,4.15,4.04,0.97*1D

$GPGSV,3,1,10,25,43,114,36,26,41,297,,18,36,175,19,20,16,057,16*71

$GPGSV,3,2,10,02,15,041,27,05,15,087,24,12,09,111,35,04,08,327,*70

$GPGSV,3,3,10,16,04,293,,41,,,*46

$BDGSV,1,1,00*68

$GNRMC,202433.000,A,4900.5268,N,00825.4798,E,0.465,173.09,131221,,,A*44

$GNVTG,173.09,T,,M,0.465,N,0.862,K,A*24
---
Msg: Getting data from GPS using AT done
Resp:
AT+GPSRD=0

OK
----
Msg: GPS Read Off!
Msg: Getting data from Sensors
Msg: Failed to perform reading!
Resp:
AT+CIPSEND

>
----
Msg: Send Started!
Resp:
GET https://api.thingspeak.com/update?api_key=AYKVFH212TKGNW2B&field1=3.00&field2=16.00&field3=27.00&field4=22.00&field5=31.00&field6=$GNGGA,202433.000,4900.5268,N,00825.4798,E,1,5,4.04,139.2,M,47.9,M,,*49

----
Resp:

OK



+CIPRCV,2:35
CLOSED
----
Msg: Send Completed!
Resp:
AT+CIPSTATUS
+CIPSTATUS:
STATE:CLOSED
----
Resp:
AT+CIPSTART="TCP","api.thingspeak.com",80
CONNECT OK
----
Msg: Connected!
Resp:
AT+GPSRD=5

OK
----
Msg: GPS Read Set!
Msg: Getting data from GPS using AT Cmd
Resp:
$GNGGA,202453.000,4900.5265,N,00825.4773,E,1,5,4.04,136.9,M,47.9,M,,*43

$GPGSA,A,3,05,12,25,02,20,,,,,,,,4.15,4.04,0.97*0D

$BDGSA,A,3,,,,,,,,,,,,,4.15,4.04,0.97*1D

$GPGSV,3,1,10,25,42,114,36,26,41,297,,18,36,175,17,20,17,057,16*7F

$GPGSV,3,2,10,02,15,041,26,05,15,087,26,12,09,111,35,04,08,327,*73

$GPGSV,3,3,10,16,04,293,,46,,,*41

$BDGSV,1,1,00*68

$GNRMC,202453.000,A,4900.5265,N,00825.4773,E,1.826,253.78,131221,,,A*47

$GNVTG,253.78,T,,M,1.826,N,3.383,K,A*2E
---
Msg: Getting data from GPS using AT done
Resp:
AT+GPSRD=0

OK
----
Msg: GPS Read Off!
Msg: Getting data from Sensors
Msg: Failed to perform reading!
Resp:
AT+CIPSEND

>
----
Msg: Send Started!
Resp:
GET https://api.thingspeak.com/update?api_key=AYKVFH212TKGNW2B&field1=7.00&field2=13.00&field3=28.00&field4=20.00&field5=34.00&field6=$GNGGA,202453.000,4900.5265,N,00825.4773,E,1,5,4.04,136.9,M,47.9,M,,*43

----
Resp:

OK



+CIPRCV,2:36
CLOSED
----
Msg: Send Completed!
Resp:
AT+CIPSTATUS
+CIPSTATUS:
STATE:CLOSED
----
Resp:
AT+CIPSTART="TCP","api.thingspeak.com",80
CONNECT OK
----
Msg: Connected!
Resp:
AT+GPSRD=5

OK
----
Msg: GPS Read Set!
Msg: Getting data from GPS using AT Cmd
Resp:
$GNGGA,202513.000,4900.5243,N,00825.4678,E,1,4,4.23,134.7,M,47.9,M,,*40

$GPGSA,A,3,05,12,25,02,,,,,,,,,4.34,4.23,0.98*06

$BDGSA,A,3,,,,,,,,,,,,,4.34,4.23,0.98*14

$GPGSV,3,1,10,25,42,114,36,26,41,297,,18,36,175,17,20,17,057,13*7A

$GPGSV,3,2,10,02,15,041,28,05,15,087,26,12,09,111,34,04,08,327,*7C

$GPGSV,3,3,10,16,04,293,,51,,,*47

$BDGSV,1,1,00*68

$GNRMC,202513.000,A,4900.5243,N,00825.4678,E,0.486,55.45,131221,,,A*71

$GNVTG,55.45,T,,M,0.486,N,0.901,K,A*10
---
Msg: Getting data from GPS using AT done
Resp:
AT+GPSRD=0

OK
----
Msg: GPS Read Off!
Msg: Getting data from Sensors
Msg: Failed to perform reading!
Resp:
AT+CIPSEND

>
----
Msg: Send Started!
Resp:
GET https://api.thingspeak.com/update?api_key=AYKVFH212TKGNW2B&field1=4.00&field2=11.00&field3=29.00&field4=21.00&field5=33.00&field6=$GNGGA,202513.000,4900.5243,N,00825.4678,E,1,4,4.23,134.7,M,47.9,M,,*40

----
Resp:

OK



+CIPRCV,2:37
CLOSED
----
Msg: Send Completed!
Resp:
AT+CIPSTATUS
+CIPSTATUS:
STATE:CLOSED
----
Resp:
AT+CIPSTART="TCP","api.thingspeak.com",80
CONNECT OK
----
Msg: Connected!
Resp:
AT+GPSRD=5

OK
----
Msg: GPS Read Set!
Msg: Getting data from GPS using AT Cmd
Resp:
$GNGGA,202533.000,4900.5221,N,00825.4663,E,1,5,4.06,131.2,M,47.9,M,,*4A

$GPGSA,A,3,05,12,25,02,20,,,,,,,,4.17,4.06,0.97*0D

$BDGSA,A,3,,,,,,,,,,,,,4.17,4.06,0.97*1D

$GPGSV,3,1,10,25,42,114,37,26,41,297,,18,36,175,18,20,17,057,15*72

$GPGSV,3,2,10,02,15,041,27,05,15,087,25,12,09,111,33,04,08,327,*77

$GPGSV,3,3,10,16,04,293,,48,,,*4F

$BDGSV,1,1,00*68

$GNRMC,202533.000,A,4900.5221,N,00825.4663,E,0.510,76.89,131221,,,A*72

$GNVTG,76.89,T,,M,0.510,N,0.945,K,A*1F
---
Msg: Getting data from GPS using AT done
Resp:
AT+GPSRD=0

OK
----
Msg: GPS Read Off!
Msg: Getting data from Sensors
Msg: Failed to perform reading!
Resp:
AT+CIPSEND

>
----
Msg: Send Started!
Resp:
GET https://api.thingspeak.com/update?api_key=AYKVFH212TKGNW2B&field1=2.00&field2=10.00&field3=30.00&field4=24.00&field5=32.00&field6=$GNGGA,202533.000,4900.5221,N,00825.4663,E,1,5,4.06,131.2,M,47.9,M,,*4A

----
Resp:

OK



+CIPRCV,2:38
CLOSED
----
Msg: Send Completed!
Resp:
AT+CIPSTATUS
+CIPSTATUS:
STATE:CLOSED
----
Resp:
AT+CIPSTART="TCP","api.thingspeak.com",80
CONNECT OK
----
Msg: Connected!
Resp:
AT+GPSRD=5

OK
----
Msg: GPS Read Set!
Msg: Getting data from GPS using AT Cmd
Resp:
$GNGGA,202553.000,4900.5240,N,00825.4753,E,1,4,4.24,129.7,M,47.9,M,,*44

$GPGSA,A,3,05,12,25,02,,,,,,,,,4.35,4.24,0.97*0F

$BDGSA,A,3,,,,,,,,,,,,,4.35,4.24,0.97*1D

$GPGSV,3,1,11,29,68,055,26,25,42,114,37,26,41,297,,18,36,175,21*7A

$GPGSV,3,2,11,39,31,158,,20,17,057,14,02,15,041,30,05,15,086,23*71

$GPGSV,3,3,11,12,09,112,32,04,08,326,,16,05,293,*41

$BDGSV,1,1,00*68

$GNRMC,202553.000,A,4900.5240,N,00825.4753,E,1.452,83.20,131221,,,A*7E

$GNVTG,83.20,T,,M,1.452,N,2.690,K,A*15
---
Msg: Getting data from GPS using AT done
Resp:
AT+GPSRD=0

OK
----
Msg: GPS Read Off!
Msg: Getting data from Sensors
Msg: Failed to perform reading!
Resp:
AT+CIPSEND

>
----
Msg: Send Started!
Resp:
GET https://api.thingspeak.com/update?api_key=AYKVFH212TKGNW2B&field1=7.00&field2=11.00&field3=31.00&field4=24.00&field5=34.00&field6=$GNGGA,202553.000,4900.5240,N,00825.4753,E,1,4,4.24,129.7,M,47.9,M,,*44

----
Resp:

OK



+CIPRCV,2:39
CLOSED
----
Msg: Send Completed!
Resp:
AT+CIPSTATUS
+CIPSTATUS:
STATE:CLOSED
----
Resp:
AT+CIPSTART="TCP","api.thingspeak.com",80
CONNECT OK
----
Msg: Connected!
Resp:
AT+GPSRD=5

OK
----
Msg: GPS Read Set!
Msg: Getting data from GPS using AT Cmd
Resp:
$GNGGA,202613.000,4900.5223,N,00825.4610,E,1,5,4.07,130.8,M,47.9,M,,*47

$GPGSA,A,3,05,12,25,02,20,,,,,,,,4.19,4.07,0.97*02

$BDGSA,A,3,,,,,,,,,,,,,4.19,4.07,0.97*12

$GPGSV,3,1,11,29,68,055,27,25,42,115,34,26,42,297,,18,37,175,19*70

$GPGSV,3,2,11,20,17,056,16,02,15,041,27,05,15,086,21,44,12,116,*77

$GPGSV,3,3,11,12,09,112,31,04,08,326,,16,05,293,*42

$BDGSV,1,1,00*68

$GNRMC,202613.000,A,4900.5223,N,00825.4610,E,0.089,118.15,131221,,,A*4C

$GNVTG,118.15,T,,M,0.089,N,0.164,K,A*2D
---
Msg: Getting data from GPS using AT done
Resp:
AT+GPSRD=0

OK
----
Msg: GPS Read Off!
Msg: Getting data from Sensors
Msg: Failed to perform reading!
Resp:
AT+CIPSEND

>
----
Msg: Send Started!
Resp:
GET https://api.thingspeak.com/update?api_key=AYKVFH212TKGNW2B&field1=4.00&field2=19.00&field3=32.00&field4=20.00&field5=34.00&field6=$GNGGA,202613.000,4900.5223,N,00825.4610,E,1,5,4.07,130.8,M,47.9,M,,*47

----
Resp:

OK



+CIPRCV,2:40
CLOSED
----
Msg: Send Completed!
Resp:
AT+CIPSTATUS
+CIPSTATUS:
STATE:CLOSED
----
Resp:
AT+CIPSTART="TCP","api.thingspeak.com",80
CONNECT OK
----
Msg: Connected!
Resp:
AT+GPSRD=5

OK
----
Msg: GPS Read Set!
Msg: Getting data from GPS using AT Cmd
Resp:
$GNGGA,202633.000,4900.5229,N,00825.4754,E,1,6,2.55,133.8,M,47.9,M,,*4F

$GPGSA,A,3,05,12,25,02,20,29,,,,,,,2.73,2.55,0.97*02

$BDGSA,A,3,,,,,,,,,,,,,2.73,2.55,0.97*19

$GPGSV,3,1,11,29,68,055,24,25,42,115,34,26,42,297,,18,37,175,19*73

$GPGSV,3,2,11,39,31,158,,20,17,056,18,02,15,041,27,05,15,086,23*7A

$GPGSV,3,3,11,12,09,112,32,04,08,326,,16,05,293,*41

$BDGSV,1,1,00*68

$GNRMC,202633.000,A,4900.5229,N,00825.4754,E,0.883,94.55,131221,,,A*76

$GNVTG,94.55,T,,M,0.883,N,1.635,K,A*1C
---
Msg: Getting data from GPS using AT done
Resp:
AT+GPSRD=0

OK
----
Msg: GPS Read Off!
Msg: Getting data from Sensors
Msg: Failed to perform reading!
Resp:
AT+CIPSEND

>
----
Msg: Send Started!
Resp:
GET https://api.thingspeak.com/update?api_key=AYKVFH212TKGNW2B&field1=8.00&field2=12.00&field3=33.00&field4=21.00&field5=31.00&field6=$GNGGA,202633.000,4900.5229,N,00825.4754,E,1,6,2.55,133.8,M,47.9,M,,*4F

----
Resp:

OK



+CIPRCV,2:41
CLOSED
----
Msg: Send Completed!
Resp:
AT+CIPSTATUS
+CIPSTATUS:
STATE:CLOSED
----
Resp:
AT+CIPSTART="TCP","api.thingspeak.com",80
CONNECT OK
----
Msg: Connected!
Resp:
AT+GPSRD=5

OK
----
Msg: GPS Read Set!
Msg: Getting data from GPS using AT Cmd
Resp:
$GNGGA,202653.000,4900.5232,N,00825.4696,E,1,6,2.56,131.4,M,47.9,M,,*41

$GPGSA,A,3,05,12,25,02,20,29,,,,,,,2.74,2.56,0.97*06

$BDGSA,A,3,,,,,,,,,,,,,2.74,2.56,0.97*1D

$GPGSV,3,1,12,29,68,055,19,31,56,243,,25,42,115,35,26,42,297,*7D

$GPGSV,3,2,12,18,37,175,18,20,17,056,22,02,15,041,28,05,15,086,23*7C

$GPGSV,3,3,12,40,13,117,,12,09,112,33,04,08,326,,16,05,293,*72

$BDGSV,1,1,00*68

$GNRMC,202653.000,A,4900.5232,N,00825.4696,E,1.190,107.94,131221,,,A*49

$GNVTG,107.94,T,,M,1.190,N,2.206,K,A*27
---
Msg: Getting data from GPS using AT done
Resp:
AT+GPSRD=0

OK
----
Msg: GPS Read Off!
Msg: Getting data from Sensors
Msg: Failed to perform reading!
Resp:
AT+CIPSEND

>
----
Msg: Send Started!
Resp:
GET https://api.thingspeak.com/update?api_key=AYKVFH212TKGNW2B&field1=5.00&field2=12.00&field3=34.00&field4=24.00&field5=34.00&field6=$GNGGA,202653.000,4900.5232,N,00825.4696,E,1,6,2.56,131.4,M,47.9,M,,*41

----
Resp:

OK



+CIPRCV,2:42
CLOSED
----
Msg: Send Completed!
Resp:
AT+CIPSTATUS
+CIPSTATUS:
STATE:CLOSED
----
Resp:
AT+CIPSTART="TCP","api.thingspeak.com",80
CONNECT OK
----
Msg: Connected!
Resp:
AT+GPSRD=5

OK
----
Msg: GPS Read Set!
Msg: Getting data from GPS using AT Cmd
Resp:
$GNGGA,202713.000,4900.5238,N,00825.4640,E,1,6,2.57,131.1,M,47.9,M,,*41

$GPGSA,A,3,05,12,25,02,20,29,,,,,,,2.75,2.57,0.97*06

$BDGSA,A,3,,,,,,,,,,,,,2.75,2.57,0.97*1D

$GPGSV,3,1,12,29,68,055,15,31,56,243,,25,42,115,36,26,42,297,*72

$GPGSV,3,2,12,18,37,175,20,20,17,056,24,05,15,086,21,02,14,041,28*72

$GPGSV,3,3,12,12,09,112,32,04,08,326,,16,05,294,,34,,,*42

$BDGSV,1,1,00*68

$GNRMC,202713.000,A,4900.5238,N,00825.4640,E,0.374,78.48,131221,,,A*7C

$GNVTG,78.48,T,,M,0.374,N,0.693,K,A*1C
---
Msg: Getting data from GPS using AT done
Resp:
AT+GPSRD=0

OK
----
Msg: GPS Read Off!
Msg: Getting data from Sensors
Msg: Failed to perform reading!
Resp:
AT+CIPSEND

>
----
Msg: Send Started!
Resp:
GET https://api.thingspeak.com/update?api_key=AYKVFH212TKGNW2B&field1=5.00&field2=14.00&field3=35.00&field4=21.00&field5=31.00&field6=$GNGGA,202713.000,4900.5238,N,00825.4640,E,1,6,2.57,131.1,M,47.9,M,,*41

----
Resp:

OK



+CIPRCV,2:43
CLOSED
----
Msg: Send Completed!
Resp:
AT+CIPSTATUS
+CIPSTATUS:
STATE:CLOSED
----
Resp:
AT+CIPSTART="TCP","api.thingspeak.com",80
CONNECT OK
----
Msg: Connected!
Resp:
AT+GPSRD=5

OK
----
Msg: GPS Read Set!
Msg: Getting data from GPS using AT Cmd
Resp:
$GNGGA,202733.000,4900.5236,N,00825.4671,E,1,6,2.58,131.6,M,47.9,M,,*47

$GPGSA,A,3,05,12,25,02,20,29,,,,,,,2.75,2.58,0.97*09

$BDGSA,A,3,,,,,,,,,,,,,2.75,2.58,0.97*12

$GPGSV,3,1,12,29,67,056,21,31,56,242,,26,42,297,,25,41,115,35*78

$GPGSV,3,2,12,18,38,174,19,20,17,056,23,05,15,086,18,02,14,041,28*7B

$GPGSV,3,3,12,12,09,112,32,04,08,326,,16,05,294,,41,,,*40

$BDGSV,1,1,00*68

$GNRMC,202733.000,A,4900.5236,N,00825.4671,E,1.018,70.09,131221,,,A*77

$GNVTG,70.09,T,,M,1.018,N,1.886,K,A*12
---
Msg: Getting data from GPS using AT done
Resp:
AT+GPSRD=0

OK
----
Msg: GPS Read Off!
Msg: Getting data from Sensors
Msg: Failed to perform reading!
Resp:
AT+CIPSEND

>
----
Msg: Send Started!
Resp:
GET https://api.thingspeak.com/update?api_key=AYKVFH212TKGNW2B&field1=7.00&field2=11.00&field3=36.00&field4=23.00&field5=30.00&field6=$GNGGA,202733.000,4900.5236,N,00825.4671,E,1,6,2.58,131.6,M,47.9,M,,*47

----
Resp:

OK



+CIPRCV,2:44
CLOSED
----
Msg: Send Completed!
Resp:
AT+CIPSTATUS
+CIPSTATUS:
STATE:CLOSED
----
Resp:
AT+CIPSTART="TCP","api.thingspeak.com",80
CONNECT OK
----
Msg: Connected!
Resp:
AT+GPSRD=5

OK
----
Msg: GPS Read Set!
Msg: Getting data from GPS using AT Cmd
Resp:
$GNGGA,202753.000,4900.5226,N,00825.4706,E,1,6,2.59,134.4,M,47.9,M,,*47

$GPGSA,A,3,05,12,25,02,20,29,,,,,,,2.76,2.59,0.97*0B

$BDGSA,A,3,,,,,,,,,,,,,2.76,2.59,0.97*10

$GPGSV,3,1,12,29,67,056,24,31,56,242,,26,42,297,,25,41,115,33*7B

$GPGSV,3,2,12,18,38,174,17,20,17,056,26,05,15,086,19,02,14,041,27*7E

$GPGSV,3,3,12,12,09,112,33,04,08,326,,16,05,294,,46,,,*46

$BDGSV,1,1,00*68

$GNRMC,202753.000,A,4900.5226,N,00825.4706,E,0.990,81.19,131221,,,A*76

$GNVTG,81.19,T,,M,0.990,N,1.835,K,A*1D
---
Msg: Getting data from GPS using AT done
Resp:
AT+GPSRD=0

OK
----
Msg: GPS Read Off!
Msg: Getting data from Sensors
Msg: Failed to perform reading!
Resp:
AT+CIPSEND

>
----
Msg: Send Started!
Resp:
GET https://api.thingspeak.com/update?api_key=AYKVFH212TKGNW2B&field1=7.00&field2=19.00&field3=37.00&field4=23.00&field5=31.00&field6=$GNGGA,202753.000,4900.5226,N,00825.4706,E,1,6,2.59,134.4,M,47.9,M,,*47

----
Resp:

OK



+CIPRCV,2:45
CLOSED
----
Msg: Send Completed!
Resp:
AT+CIPSTATUS
+CIPSTATUS:
STATE:CLOSED
----
Resp:
AT+CIPSTART="TCP","api.thingspeak.com",80
CONNECT OK
----
Msg: Connected!
Resp:
AT+GPSRD=5

OK
----
Msg: GPS Read Set!
Msg: Getting data from GPS using AT Cmd
Resp:
$GNGGA,202813.000,4900.5205,N,00825.4645,E,1,6,2.59,135.3,M,47.9,M,,*4D

$GPGSA,A,3,05,12,25,02,20,29,,,,,,,2.77,2.59,0.97*0A

$BDGSA,A,3,,,,,,,,,,,,,2.77,2.59,0.97*11

$GPGSV,3,1,12,29,67,056,25,31,56,242,,26,42,297,,25,41,115,34*7D

$GPGSV,3,2,12,18,38,174,16,37,32,162,,20,17,056,27,05,15,086,22*71

$GPGSV,3,3,12,02,14,041,29,12,09,112,33,04,08,326,,16,05,294,*7D

$BDGSV,1,1,00*68

$GNRMC,202813.000,A,4900.5205,N,00825.4645,E,0.253,195.24,131221,,,A*44

$GNVTG,195.24,T,,M,0.253,N,0.468,K,A*26
---
Msg: Getting data from GPS using AT done
Resp:
AT+GPSRD=0

OK
----
Msg: GPS Read Off!
Msg: Getting data from Sensors
Msg: Failed to perform reading!
Resp:
AT+CIPSEND

>
----
Msg: Send Started!
Resp:
GET https://api.thingspeak.com/update?api_key=AYKVFH212TKGNW2B&field1=2.00&field2=15.00&field3=38.00&field4=20.00&field5=33.00&field6=$GNGGA,202813.000,4900.5205,N,00825.4645,E,1,6,2.59,135.3,M,47.9,M,,*4D

----
Resp:

OK



+CIPRCV,2:46
CLOSED
----
Msg: Send Completed!
Resp:
AT+CIPSTATUS
+CIPSTATUS:
STATE:CLOSED
----
Resp:
AT+CIPSTART="TCP","api.thingspeak.com",80
CONNECT OK
----
Msg: Connected!
Resp:
AT+GPSRD=5

OK
----
Msg: GPS Read Set!
Msg: Getting data from GPS using AT Cmd
Resp:
$GNGGA,202833.000,4900.5211,N,00825.4705,E,1,6,2.60,131.6,M,47.9,M,,*44

$GPGSA,A,3,05,12,25,02,20,29,,,,,,,2.77,2.60,0.96*01

$BDGSA,A,3,,,,,,,,,,,,,2.77,2.60,0.96*1A

$GPGSV,3,1,12,29,67,056,23,31,56,242,,26,42,297,16,25,41,115,35*7D

$GPGSV,3,2,12,18,38,174,16,33,29,210,,20,17,056,27,05,15,085,20*78

$GPGSV,3,3,12,02,14,040,25,12,08,112,33,04,08,325,,16,06,294,*71

$BDGSV,1,1,00*68

$GNRMC,202833.000,A,4900.5211,N,00825.4705,E,1.057,65.54,131221,,,A*78

$GNVTG,65.54,T,,M,1.057,N,1.959,K,A*16
---
Msg: Getting data from GPS using AT done
Resp:
AT+GPSRD=0

OK
----
Msg: GPS Read Off!
Msg: Getting data from Sensors
Msg: Failed to perform reading!
Resp:
AT+CIPSEND

>
----
Msg: Send Started!
Resp:
GET https://api.thingspeak.com/update?api_key=AYKVFH212TKGNW2B&field1=9.00&field2=16.00&field3=39.00&field4=20.00&field5=30.00&field6=$GNGGA,202833.000,4900.5211,N,00825.4705,E,1,6,2.60,131.6,M,47.9,M,,*44

----
Resp:

OK



+CIPRCV,2:47
CLOSED
----
Msg: Send Completed!
Resp:
AT+CIPSTATUS
+CIPSTATUS:
STATE:CLOSED
----
Resp:
AT+CIPSTART="TCP","api.thingspeak.com",80
CONNECT OK
----
Msg: Connected!
Resp:
AT+GPSRD=5

OK
----
Msg: GPS Read Set!
Msg: Getting data from GPS using AT Cmd
Resp:
$GNGGA,202853.000,4900.5202,N,00825.4564,E,1,6,2.61,131.0,M,47.9,M,,*42

$GPGSA,A,3,05,12,25,02,20,29,,,,,,,2.78,2.61,0.96*0F

$BDGSA,A,3,,,,,,,,,,,,,2.78,2.61,0.96*14

$GPGSV,3,1,12,29,67,056,14,31,55,241,,26,43,297,14,25,41,116,35*79

$GPGSV,3,2,12,18,38,174,17,20,17,055,27,05,15,085,14,02,14,040,26*72

$GPGSV,3,3,12,44,12,116,,12,08,112,31,04,08,325,,16,06,294,*72

$BDGSV,1,1,00*68

$GNRMC,202853.000,A,4900.5202,N,00825.4564,E,0.829,93.55,131221,,,A*71

$GNVTG,93.55,T,,M,0.829,N,1.537,K,A*1A
---
Msg: Getting data from GPS using AT done
Resp:
AT+GPSRD=0

OK
----
Msg: GPS Read Off!
Msg: Getting data from Sensors
Msg: Failed to perform reading!
Resp:
AT+CIPSEND

>
----
Msg: Send Started!
Resp:
GET https://api.thingspeak.com/update?api_key=AYKVFH212TKGNW2B&field1=7.00&field2=14.00&field3=40.00&field4=24.00&field5=30.00&field6=$GNGGA,202853.000,4900.5202,N,00825.4564,E,1,6,2.61,131.0,M,47.9,M,,*42

----
Resp:

OK



+CIPRCV,2:48
CLOSED
----
Msg: Send Completed!
Resp:
AT+CIPSTATUS
+CIPSTATUS:
STATE:CLOSED
----
Resp:
AT+CIPSTART="TCP","api.thingspeak.com",80
CONNECT OK
----
Msg: Connected!
Resp:
AT+GPSRD=5

OK
----
Msg: GPS Read Set!
Msg: Getting data from GPS using AT Cmd
Resp:
$GNGGA,202913.000,4900.5200,N,00825.4581,E,1,6,2.62,128.7,M,47.9,M,,*42

$GPGSA,A,3,05,12,25,02,20,29,,,,,,,2.79,2.62,0.96*0D

$BDGSA,A,3,,,,,,,,,,,,,2.79,2.62,0.96*16

$GPGSV,3,1,12,29,67,056,18,31,55,241,,26,43,297,15,25,41,116,36*77

$GPGSV,3,2,12,18,38,174,16,20,17,055,26,05,15,085,17,02,14,040,25*72

$GPGSV,3,3,12,12,08,112,30,04,08,325,,16,06,294,,36,,,*43

$BDGSV,1,1,00*68

$GNRMC,202913.000,A,4900.5200,N,00825.4581,E,0.590,170.39,131221,,,A*44

$GNVTG,170.39,T,,M,0.590,N,1.094,K,A*2F
---
Msg: Getting data from GPS using AT done
Resp:
AT+GPSRD=0

OK
----
Msg: GPS Read Off!
Msg: Getting data from Sensors
Msg: Failed to perform reading!
Resp:
AT+CIPSEND

>
----
Msg: Send Started!
Resp:
GET https://api.thingspeak.com/update?api_key=AYKVFH212TKGNW2B&field1=9.00&field2=10.00&field3=41.00&field4=21.00&field5=31.00&field6=$GNGGA,202913.000,4900.5200,N,00825.4581,E,1,6,2.62,128.7,M,47.9,M,,*42

----
Resp:

OK



+CIPRCV,2:49
CLOSED
----
Msg: Send Completed!
Resp:
AT+CIPSTATUS
+CIPSTATUS:
STATE:CLOSED
----
Resp:
AT+CIPSTART="TCP","api.thingspeak.com",80
CONNECT OK
----
Msg: Connected!
Resp:
AT+GPSRD=5

OK
----
Msg: GPS Read Set!
Msg: Getting data from GPS using AT Cmd
Resp:
$GNGGA,202933.000,4900.5225,N,00825.4636,E,1,6,2.63,126.7,M,47.9,M,,*47

$GPGSA,A,3,05,12,25,02,20,29,,,,,,,2.80,2.63,0.96*0A

$BDGSA,A,3,,,,,,,,,,,,,2.80,2.63,0.96*11

$GPGSV,3,1,12,29,67,056,23,31,55,241,,26,43,297,14,25,41,116,34*7C

$GPGSV,3,2,12,18,38,174,15,20,17,055,25,05,15,085,17,02,13,040,26*76

$GPGSV,3,3,12,12,08,112,29,04,08,325,,16,06,294,,43,,,*49

$BDGSV,1,1,00*68

$GNRMC,202933.000,A,4900.5225,N,00825.4636,E,0.953,116.55,131221,,,A*47

$GNVTG,116.55,T,,M,0.953,N,1.766,K,A*2C
---
Msg: Getting data from GPS using AT done
Resp:
AT+GPSRD=0

OK
----
Msg: GPS Read Off!
Msg: Getting data from Sensors
Msg: Failed to perform reading!
Resp:
AT+CIPSEND

>
----
Msg: Send Started!
Resp:
GET https://api.thingspeak.com/update?api_key=AYKVFH212TKGNW2B&field1=3.00&field2=16.00&field3=42.00&field4=20.00&field5=32.00&field6=$GNGGA,202933.000,4900.5225,N,00825.4636,E,1,6,2.63,126.7,M,47.9,M,,*47

----
Resp:

OK



+CIPRCV,2:50
CLOSED
----
Msg: Send Completed!
Resp:
AT+CIPSTATUS
+CIPSTATUS:
STATE:CLOSED
----
Resp:
AT+CIPSTART="TCP","api.thingspeak.com",80
CONNECT OK
----
Msg: Connected!
Resp:
AT+GPSRD=5

OK
----
Msg: GPS Read Set!
Msg: Getting data from GPS using AT Cmd
Resp:
$GNGGA,202953.000,4900.5218,N,00825.4647,E,1,6,2.64,127.7,M,47.9,M,,*4F

$GPGSA,A,3,05,12,25,02,20,29,,,,,,,2.81,2.64,0.96*0C

$BDGSA,A,3,,,,,,,,,,,,,2.81,2.64,0.96*17

$GPGSV,3,1,12,29,67,056,23,31,55,241,,26,43,297,14,25,41,116,35*7D

$GPGSV,3,2,12,18,39,174,16,20,17,055,24,05,16,085,18,02,13,040,26*79

$GPGSV,3,3,12,12,08,113,30,04,08,325,,16,06,294,,49,,,*4A

$BDGSV,1,1,00*68

$GNRMC,202953.000,A,4900.5218,N,00825.4647,E,0.615,58.35,131221,,,A*79

$GNVTG,58.35,T,,M,0.615,N,1.140,K,A*1E
---
Msg: Getting data from GPS using AT done
Resp:
AT+GPSRD=0

OK
----
Msg: GPS Read Off!
Msg: Getting data from Sensors
Msg: Failed to perform reading!
Resp:
AT+CIPSEND

>
----
Msg: Send Started!
Resp:
GET https://api.thingspeak.com/update?api_key=AYKVFH212TKGNW2B&field1=4.00&field2=11.00&field3=43.00&field4=20.00&field5=33.00&field6=$GNGGA,202953.000,4900.5218,N,00825.4647,E,1,6,2.64,127.7,M,47.9,M,,*4F

----
Resp:

OK



+CIPRCV,2:51
CLOSED
----
Msg: Send Completed!
Resp:
AT+CIPSTATUS
+CIPSTATUS:
STATE:CLOSED
----
Resp:
AT+CIPSTART="TCP","api.thingspeak.com",80
CONNECT OK
----
Msg: Connected!
Resp:
AT+GPSRD=5

OK
----
Msg: GPS Read Set!
Msg: Getting data from GPS using AT Cmd
Resp:
$GNGGA,203013.000,4900.5231,N,00825.4691,E,1,6,2.64,128.7,M,47.9,M,,*4C

$GPGSA,A,3,05,12,25,02,20,29,,,,,,,2.81,2.64,0.96*0C

$BDGSA,A,3,,,,,,,,,,,,,2.81,2.64,0.96*17

$GPGSV,3,1,12,29,66,056,16,31,55,240,,26,44,297,15,25,40,116,36*7F

$GPGSV,3,2,12,18,39,174,17,20,17,055,24,05,16,085,18,02,13,040,25*7B

$GPGSV,3,3,12,12,08,113,30,04,08,325,,16,06,294,,50,,,*42

$BDGSV,1,1,00*68

$GNRMC,203013.000,A,4900.5231,N,00825.4691,E,0.494,84.70,131221,,,A*7E

$GNVTG,84.70,T,,M,0.494,N,0.915,K,A*1C
---
Msg: Getting data from GPS using AT done
Resp:
AT+GPSRD=0

OK
----
Msg: GPS Read Off!
Msg: Getting data from Sensors
Msg: Failed to perform reading!
Resp:
AT+CIPSEND

>
----
Msg: Send Started!
Resp:
GET https://api.thingspeak.com/update?api_key=AYKVFH212TKGNW2B&field1=7.00&field2=13.00&field3=44.00&field4=23.00&field5=32.00&field6=$GNGGA,203013.000,4900.5231,N,00825.4691,E,1,6,2.64,128.7,M,47.9,M,,*4C

----
Resp:

OK



+CIPRCV,2:52
CLOSED
----
Msg: Send Completed!
Resp:
AT+CIPSTATUS
+CIPSTATUS:
STATE:CLOSED
----
Resp:
AT+CIPSTART="TCP","api.thingspeak.com",80
CONNECT OK
----
Msg: Connected!
Resp:
AT+GPSRD=5

OK
----
Msg: GPS Read Set!
Msg: Getting data from GPS using AT Cmd
Resp:
$GNGGA,203033.000,4900.5240,N,00825.4774,E,1,6,2.65,129.0,M,47.9,M,,*45

$GPGSA,A,3,05,12,25,02,20,29,,,,,,,2.82,2.65,0.96*0E

$BDGSA,A,3,,,,,,,,,,,,,2.82,2.65,0.96*15

$GPGSV,3,1,12,29,66,056,16,31,55,240,,26,44,297,16,25,40,116,35*7F

$GPGSV,3,2,12,18,39,174,18,39,31,158,,20,17,055,23,05,16,085,17*7B

$GPGSV,3,3,12,02,13,040,25,12,08,113,30,04,08,325,,16,06,294,*74

$BDGSV,1,1,00*68

$GNRMC,203033.000,A,4900.5240,N,00825.4774,E,0.327,244.98,131221,,,A*47

$GNVTG,244.98,T,,M,0.327,N,0.605,K,A*25
---
Msg: Getting data from GPS using AT done
Resp:
AT+GPSRD=0

OK
----
Msg: GPS Read Off!
Msg: Getting data from Sensors
Msg: Failed to perform reading!
Resp:
AT+CIPSEND

>
----
Msg: Send Started!
Resp:
GET https://api.thingspeak.com/update?api_key=AYKVFH212TKGNW2B&field1=9.00&field2=10.00&field3=45.00&field4=22.00&field5=32.00&field6=$GNGGA,203033.000,4900.5240,N,00825.4774,E,1,6,2.65,129.0,M,47.9,M,,*45

----
Resp:

OK



+CIPRCV,2:53
CLOSED
----
Msg: Send Completed!
Resp:
AT+CIPSTATUS
+CIPSTATUS:
STATE:CLOSED
----
Resp:
AT+CIPSTART="TCP","api.thingspeak.com",80
CONNECT OK
----
Msg: Connected!
Resp:
AT+GPSRD=5

OK
----
Msg: GPS Read Set!
Msg: Getting data from GPS using AT Cmd
Resp:
$GNGGA,203053.000,4900.5233,N,00825.4715,E,1,6,2.66,131.0,M,47.9,M,,*4A

$GPGSA,A,3,05,12,25,02,20,29,,,,,,,2.83,2.66,0.96*0C

$BDGSA,A,3,,,,,,,,,,,,,2.83,2.66,0.96*17

$GPGSV,3,1,12,29,66,056,20,31,55,240,,26,44,297,16,25,40,116,36*79

$GPGSV,3,2,12,18,39,174,18,33,29,210,,20,17,055,22,05,16,084,19*79

$GPGSV,3,3,12,02,13,040,24,12,08,113,31,04,08,324,,16,06,294,*75

$BDGSV,1,1,00*68

$GNRMC,203053.000,A,4900.5233,N,00825.4715,E,1.089,227.82,131221,,,A*4A

$GNVTG,227.82,T,,M,1.089,N,2.018,K,A*25
---
Msg: Getting data from GPS using AT done
Resp:
AT+GPSRD=0

OK
----
Msg: GPS Read Off!
Msg: Getting data from Sensors
Msg: Failed to perform reading!
Resp:
AT+CIPSEND

>
----
Msg: Send Started!
Resp:
GET https://api.thingspeak.com/update?api_key=AYKVFH212TKGNW2B&field1=2.00&field2=18.00&field3=46.00&field4=21.00&field5=34.00&field6=$GNGGA,203053.000,4900.5233,N,00825.4715,E,1,6,2.66,131.0,M,47.9,M,,*4A

----
Resp:

OK



+CIPRCV,2:54
CLOSED
----
Msg: Send Completed!
Resp:
AT+CIPSTATUS
+CIPSTATUS:
STATE:CLOSED
----
Resp:
AT+CIPSTART="TCP","api.thingspeak.com",80
CONNECT OK
----
Msg: Connected!
Resp:
AT+GPSRD=5

OK
----
Msg: GPS Read Set!
Msg: Getting data from GPS using AT Cmd
Resp:
$GNGGA,203113.000,4900.5256,N,00825.4854,E,1,6,2.67,128.9,M,47.9,M,,*46

$GPGSA,A,3,05,12,25,02,20,29,,,,,,,2.84,2.67,0.96*0A

$BDGSA,A,3,,,,,,,,,,,,,2.84,2.67,0.96*11

$GPGSV,3,1,12,29,66,056,21,31,55,240,,26,44,297,15,25,40,116,37*7A

$GPGSV,3,2,12,18,39,174,17,20,17,054,19,05,16,084,21,02,13,040,25*7F

$GPGSV,3,3,12,44,12,116,,04,08,324,,12,07,113,30,16,07,294,*7D

$BDGSV,1,1,00*68

$GNRMC,203113.000,A,4900.5256,N,00825.4854,E,0.251,283.98,131221,,,A*45

$GNVTG,283.98,T,,M,0.251,N,0.465,K,A*2A
---
Msg: Getting data from GPS using AT done
Resp:
AT+GPSRD=0

OK
----
Msg: GPS Read Off!
Msg: Getting data from Sensors
Msg: Failed to perform reading!
Resp:
AT+CIPSEND

>
----
Msg: Send Started!
Resp:
GET https://api.thingspeak.com/update?api_key=AYKVFH212TKGNW2B&field1=2.00&field2=12.00&field3=47.00&field4=21.00&field5=33.00&field6=$GNGGA,203113.000,4900.5256,N,00825.4854,E,1,6,2.67,128.9,M,47.9,M,,*46

----
Resp:

OK



+CIPRCV,2:55
CLOSED
----
Msg: Send Completed!
Resp:
AT+CIPSTATUS
+CIPSTATUS:
STATE:CLOSED
----
Resp:
AT+CIPSTART="TCP","api.thingspeak.com",80
CONNECT OK
----
Msg: Connected!
Resp:
AT+GPSRD=5

OK
----
Msg: GPS Read Set!
Msg: Getting data from GPS using AT Cmd
Resp:
$GNGGA,203133.000,4900.5244,N,00825.4829,E,1,6,2.68,129.0,M,47.9,M,,*4A

$GPGSA,A,3,05,12,25,02,20,29,,,,,,,2.85,2.68,0.96*04

$BDGSA,A,3,,,,,,,,,,,,,2.85,2.68,0.96*1F

$GPGSV,3,1,12,29,65,056,21,31,55,239,,26,44,297,14,25,40,116,35*74

$GPGSV,3,2,12,18,39,174,16,39,31,158,,20,17,054,16,05,16,084,18*7C

$GPGSV,3,3,12,02,13,040,24,04,08,324,,12,07,113,29,16,07,294,*72

$BDGSV,1,1,00*68

$GNRMC,203133.000,A,4900.5244,N,00825.4829,E,1.008,289.16,131221,,,A*4D

$GNVTG,289.16,T,,M,1.008,N,1.868,K,A*29
---
Msg: Getting data from GPS using AT done
Resp:
AT+GPSRD=0

OK
----
Msg: GPS Read Off!
Msg: Getting data from Sensors
Msg: Failed to perform reading!
Resp:
AT+CIPSEND

>
----
Msg: Send Started!
Resp:
GET https://api.thingspeak.com/update?api_key=AYKVFH212TKGNW2B&field1=3.00&field2=19.00&field3=48.00&field4=23.00&field5=34.00&field6=$GNGGA,203133.000,4900.5244,N,00825.4829,E,1,6,2.68,129.0,M,47.9,M,,*4A

----
Resp:

OK



+CIPRCV,2:56
CLOSED
----
Msg: Send Completed!
Resp:
AT+CIPSTATUS
+CIPSTATUS:
STATE:CLOSED
----
Resp:
AT+CIPSTART="TCP","api.thingspeak.com",80
CONNECT OK
----
Msg: Connected!
Resp:
AT+GPSRD=5

OK
----
Msg: GPS Read Set!
Msg: Getting data from GPS using AT Cmd
Resp:
$GNGGA,203153.000,4900.5240,N,00825.4896,E,1,6,2.69,129.9,M,47.9,M,,*44

$GPGSA,A,3,05,12,25,02,20,29,,,,,,,2.85,2.69,0.96*05

$BDGSA,A,3,,,,,,,,,,,,,2.85,2.69,0.96*1E

$GPGSV,3,1,12,29,65,056,18,31,55,239,,26,44,297,13,25,40,116,36*7A

$GPGSV,3,2,12,18,39,174,17,20,17,054,17,05,16,084,12,02,13,040,23*77

$GPGSV,3,3,12,40,13,117,,04,08,324,,12,07,113,28,16,07,294,*70

$BDGSV,1,1,00*68

$GNRMC,203153.000,A,4900.5240,N,00825.4896,E,2.202,84.53,131221,,,A*7E

$GNVTG,84.53,T,,M,2.202,N,4.081,K,A*16
---
Msg: Getting data from GPS using AT done
Resp:
AT+GPSRD=0

OK
----
Msg: GPS Read Off!
Msg: Getting data from Sensors
Msg: Failed to perform reading!
Resp:
AT+CIPSEND

>
----
Msg: Send Started!
Resp:
GET https://api.thingspeak.com/update?api_key=AYKVFH212TKGNW2B&field1=6.00&field2=14.00&field3=49.00&field4=20.00&field5=31.00&field6=$GNGGA,203153.000,4900.5240,N,00825.4896,E,1,6,2.69,129.9,M,47.9,M,,*44

----
Resp:

OK



+CIPRCV,2:57
CLOSED
----
Msg: Send Completed!
Resp:
AT+CIPSTATUS
+CIPSTATUS:
STATE:CLOSED
----
Resp:
AT+CIPSTART="TCP","api.thingspeak.com",80
CONNECT OK
----
Msg: Connected!
Resp:
AT+GPSRD=5

OK
----
Msg: GPS Read Set!
Msg: Getting data from GPS using AT Cmd
Resp:
$GNGGA,203213.000,4900.5246,N,00825.5027,E,1,6,2.70,131.4,M,47.9,M,,*4A

$GPGSA,A,3,05,12,25,02,20,29,,,,,,,2.86,2.70,0.96*0E

$BDGSA,A,3,,,,,,,,,,,,,2.86,2.70,0.96*15

$GPGSV,3,1,12,29,65,056,17,31,55,239,,26,44,297,15,25,40,116,36*73

$GPGSV,3,2,12,18,39,174,16,20,17,054,16,05,16,084,16,02,12,040,22*73

$GPGSV,3,3,12,04,08,324,,12,07,113,27,16,07,294,,35,,,*48

$BDGSV,1,1,00*68

$GNRMC,203213.000,A,4900.5246,N,00825.5027,E,1.829,96.35,131221,,,A*7F

$GNVTG,96.35,T,,M,1.829,N,3.389,K,A*19
---
Msg: Getting data from GPS using AT done
Resp:
AT+GPSRD=0

OK
----
Msg: GPS Read Off!
Msg: Getting data from Sensors
Msg: Failed to perform reading!
Resp:
AT+CIPSEND

>
----
Msg: Send Started!
