id,pm25,pm10,temp,hum,atm,loc,m1,m2,m3,m4,m5,m6,m7,m8,m9,m10.m11,m12,m13,m14,m15,m16
SSH-2.0-Renci.SshNet.SshClient.0.0.1
SSH-2.0-Renci.SshNet.SshClient.0.0.1
SSH-2.0-Renci.SshNet.SshClient.0.0.1
'A1',23.00,30.00,8.00,19.00,0.00,$GNGGA,193129.098,4900.5245,N,00825.4319,E,0,0,,118.7,M,47.9,M,,*53
'A1',20.00,31.00,7.00,14.00,1.00,$GNGGA,193140.101,4900.4655,N,00825.7862,E,0,1,,118.7,M,47.9,M,,*5C
'A1',24.00,34.00,5.00,10.00,2.00,$GNGGA,193151.102,4900.5236,N,00825.4371,E,0,1,,118.7,M,47.9,M,,*55
'A1',24.00,30.00,7.00,19.00,3.00,$GNGGA,193202.102,4900.5245,N,00825.4318,E,0,1,,118.7,M,47.9,M,,*5B
'A1',23.00,31.00,3.00,16.00,4.00,$GNGGA,193213.102,4900.5245,N,00825.4318,E,0,1,,118.7,M,47.9,M,,*5B
'A1',24.00,30.00,4.00,15.00,5.00,$GNGGA,193224.102,4900.5245,N,00825.4319,E,0,1,,118.7,M,47.9,M,,*5E
SSH-2.0-ssh2js1.4.0
'A1',22.00,30.00,7.00,19.00,6.00,$GNGGA,193235.102,4900.5245,N,00825.4319,E,0,1,,118.7,M,47.9,M,,*5E
'A1',22.00,32.00,7.00,18.00,7.00,$GNGGA,193246.102,4900.5245,N,00825.4318,E,0,1,,118.7,M,47.9,M,,*5B
'A1',22.00,33.00,2.00,11.00,8.00,$GNGGA,193257.102,4900.5193,N,00825.4340,E,0,2,,118.7,M,47.9,M,,*5D
'A1',24.00,31.00,6.00,12.00,9.00,$GNGGA,193308.102,4900.5190,N,00825.4344,E,0,2,,118.7,M,47.9,M,,*51
'A1',22.00,30.00,5.00,18.00,10.00,$GNGGA,193319.102,4900.5197,N,00825.4341,E,0,2,,118.7,M,47.9,M,,*53
'A1',23.00,31.00,2.00,16.00,11.00,$GNGGA,193330.102,4900.5209,N,00825.4334,E,0,2,,118.7,M,47.9,M,,*5E
'A1',24.00,32.00,8.00,10.00,12.00,$GNGGA,193341.102,4900.5230,N,00825.4324,E,0,2,,118.7,M,47.9,M,,*53
'A1',21.00,30.00,2.00,18.00,13.00,$GNGGA,193352.102,4900.5222,N,00825.4332,E,0,2,,118.7,M,47.9,M,,*55
'A1',21.00,33.00,6.00,12.00,14.00,$GNGGA,193403.102,4900.5166,N,00825.4354,E,0,2,,118.7,M,47.9,M,,*55
'A1',24.00,30.00,4.00,11.00,15.00,$GNGGA,193414.102,4900.5164,N,00825.4355,E,0,2,,118.7,M,47.9,M,,*50
'A1',20.00,32.00,4.00,11.00,16.00,$GNGGA,193425.102,4900.5195,N,00825.4341,E,0,2,,118.7,M,47.9,M,,*59
'A1',22.00,33.00,2.00,19.00,17.00,$GNGGA,193436.102,4900.5201,N,00825.4338,E,0,2,,118.7,M,47.9,M,,*5B
'A1',24.00,32.00,6.00,12.00,18.00,$GNGGA,193447.102,4900.5185,N,00825.4345,E,0,2,,118.7,M,47.9,M,,*58
'A1',20.00,34.00,7.00,11.00,19.00,$GNGGA,193458.099,4900.5208,N,00825.4334,E,0,2,,118.7,M,47.9,M,,*55
'A1',23.00,34.00,4.00,17.00,20.00,$GNGGA,193509.099,4900.5212,N,00825.4333,E,0,2,,118.7,M,47.9,M,,*5C
'A1',22.00,31.00,3.00,18.00,21.00,$GNGGA,193520.099,4900.5207,N,00825.4336,E,0,2,,118.7,M,47.9,M,,*56
'A1',21.00,30.00,6.00,11.00,22.00,$GNGGA,193531.099,4900.5183,N,00825.4347,E,0,2,,118.7,M,47.9,M,,*5F
'A1',21.00,34.00,4.00,13.00,23.00,$GNGGA,193542.099,4900.5166,N,00825.4355,E,0,2,,118.7,M,47.9,M,,*53
'A1',21.00,32.00,8.00,16.00,24.00,$GNGGA,193553.099,4900.5197,N,00825.4341,E,0,2,,118.7,M,47.9,M,,*58
'A1',21.00,34.00,4.00,17.00,25.00,$GNGGA,193604.099,4900.5185,N,00825.4347,E,0,0,,102.1,M,47.9,M,,*53
'A1',21.00,31.00,5.00,14.00,26.00,$GNGGA,193615.099,4900.5185,N,00825.4347,E,0,0,,102.1,M,47.9,M,,*53
'A1',21.00,31.00,3.00,19.00,27.00,$GNGGA,193626.099,4900.5185,N,00825.4347,E,0,0,,102.1,M,47.9,M,,*53
'A1',20.00,32.00,9.00,16.00,28.00,$GNGGA,193637.099,4900.5185,N,00825.4347,E,0,0,,102.1,M,47.9,M,,*53
SSH-2.0-Renci.SshNet.SshClient.0.0.1
'A1',20.00,34.00,5.00,11.00,29.00,$GNGGA,193648.099,4900.5185,N,00825.4347,E,0,0,,102.1,M,47.9,M,,*5B
'A1',21.00,30.00,5.00,15.00,30.00,$GNGGA,193659.099,4900.5185,N,00825.4347,E,0,0,,102.1,M,47.9,M,,*5B
'A1',21.00,34.00,5.00,12.00,31.00,$GNGGA,193710.099,4900.5185,N,00825.4347,E,0,0,,102.1,M,47.9,M,,*57
'A1',24.00,31.00,5.00,12.00,32.00,$GNGGA,193721.099,4900.5185,N,00825.4347,E,0,0,,102.1,M,47.9,M,,*55
'A1',21.00,34.00,4.00,11.00,33.00,$GNGGA,193732.099,4900.5185,N,00825.4347,E,0,0,,102.1,M,47.9,M,,*57
'A1',24.00,31.00,3.00,10.00,34.00,$GNGGA,193743.099,4900.5185,N,00825.4347,E,0,0,,102.1,M,47.9,M,,*51
'A1',23.00,31.00,2.00,15.00,35.00,$GNGGA,193754.099,4900.5185,N,00825.4347,E,0,0,,102.1,M,47.9,M,,*57
'A1',24.00,30.00,9.00,18.00,36.00,$GNGGA,193805.099,4900.5185,N,00825.4347,E,0,0,,102.1,M,47.9,M,,*5C
'A1',24.00,34.00,6.00,19.00,37.00,$GNGGA,193816.099,4900.5185,N,00825.4347,E,0,0,,102.1,M,47.9,M,,*5E
'A1',23.00,31.00,5.00,18.00,38.00,$GNGGA,193827.099,4900.5185,N,00825.4347,E,0,0,,102.1,M,47.9,M,,*5C
'A1',24.00,30.00,8.00,10.00,39.00,$GNGGA,193838.099,4900.5185,N,00825.4347,E,0,0,,102.1,M,47.9,M,,*52
'A1',22.00,33.00,4.00,14.00,40.00,$GNGGA,193849.099,4900.5185,N,00825.4347,E,0,0,,102.1,M,47.9,M,,*54
'A1',22.00,30.00,4.00,10.00,41.00,$GNGGA,193900.099,4900.5185,N,00825.4347,E,0,0,,102.1,M,47.9,M,,*58
'A1',20.00,34.00,6.00,12.00,42.00,$GNGGA,193911.099,4900.5185,N,00825.4347,E,0,0,,102.1,M,47.9,M,,*58
'A1',22.00,33.00,3.00,10.00,43.00,$GNGGA,193922.099,4900.5185,N,00825.4347,E,0,0,,102.1,M,47.9,M,,*58
'A1',23.00,31.00,5.00,18.00,44.00,$GNGGA,193933.099,4900.5185,N,00825.4347,E,0,0,,102.1,M,47.9,M,,*58
'A1',23.00,33.00,4.00,12.00,45.00,$GNGGA,193944.099,4900.5185,N,00825.4347,E,0,0,,102.1,M,47.9,M,,*58
'A1',23.00,32.00,4.00,11.00,46.00,$GNGGA,193955.099,4900.5185,N,00825.4347,E,0,0,,102.1,M,47.9,M,,*58
'A1',20.00,34.00,5.00,11.00,47.00,$GNGGA,194006.099,4900.5185,N,00825.4347,E,0,0,,102.1,M,47.9,M,,*50
'A1',23.00,31.00,4.00,16.00,48.00,$GNGGA,194017.099,4900.5185,N,00825.4347,E,0,0,,102.1,M,47.9,M,,*50
'A1',22.00,30.00,4.00,15.00,49.00,$GNGGA,194028.099,4900.5185,N,00825.4347,E,0,0,,102.1,M,47.9,M,,*5C
'A1',21.00,33.00,4.00,12.00,50.00,$GNGGA,194039.099,4900.5185,N,00825.4347,E,0,0,,102.1,M,47.9,M,,*5C
'A1',21.00,34.00,7.00,11.00,51.00,$GNGGA,194050.099,4900.5185,N,00825.4347,E,0,0,,102.1,M,47.9,M,,*53
'A1',21.00,32.00,2.00,10.00,52.00,$GNGGA,194101.099,4900.5185,N,00825.4347,E,0,0,,102.1,M,47.9,M,,*56
'A1',20.00,33.00,4.00,15.00,53.00,$GNGGA,194112.099,4900.5185,N,00825.4347,E,0,0,,102.1,M,47.9,M,,*54
'A1',20.00,32.00,6.00,15.00,54.00,$GNGGA,194123.099,4900.5185,N,00825.4347,E,0,0,,102.1,M,47.9,M,,*56
'A1',23.00,30.00,4.00,13.00,55.00,$GNGGA,194134.099,4900.5185,N,00825.4347,E,0,0,,102.1,M,47.9,M,,*50
'A1',21.00,32.00,4.00,12.00,56.00,$GNGGA,194145.099,4900.5185,N,00825.4347,E,0,0,,102.1,M,47.9,M,,*56
'A1',20.00,30.00,7.00,19.00,57.00,$GNGGA,194156.099,4900.5185,N,00825.4347,E,0,0,,102.1,M,47.9,M,,*54
SSH-2.0-Renci.SshNet.SshClient.0.0.1
'A1',22.00,32.00,6.00,12.00,58.00,$GNGGA,194207.099,4900.5185,N,00825.4347,E,0,0,,102.1,M,47.9,M,,*53
'A1',23.00,31.00,2.00,19.00,59.00,$GNGGA,194218.092,4900.5185,N,00825.4347,E,0,0,,102.1,M,47.9,M,,*56
'A1',22.00,31.00,7.00,17.00,60.00,$GNGGA,194229.109,4900.5185,N,00825.4347,E,0,0,,102.1,M,47.9,M,,*57
'A1',22.00,34.00,5.00,15.00,61.00,$GNGGA,194240.102,4900.5185,N,00825.4347,E,0,0,,102.1,M,47.9,M,,*53
'A1',20.00,31.00,7.00,14.00,62.00,$GNGGA,194251.102,4900.5185,N,00825.4347,E,0,0,,102.1,M,47.9,M,,*53
'A1',20.00,32.00,8.00,11.00,63.00,$GNGGA,194302.295,4900.5185,N,00825.4347,E,0,0,,102.1,M,47.9,M,,*59
'A1',20.00,34.00,6.00,18.00,64.00,$GNGGA,194313.095,4900.5185,N,00825.4347,E,0,0,,102.1,M,47.9,M,,*5B
'A1',23.00,33.00,3.00,11.00,65.00,$GNGGA,194324.095,4900.5185,N,00825.4347,E,0,0,,102.1,M,47.9,M,,*5F
'A1',23.00,31.00,7.00,15.00,66.00,$GNGGA,194335.095,4900.5185,N,00825.4347,E,0,0,,102.1,M,47.9,M,,*5F
'A1',24.00,33.00,8.00,11.00,67.00,$GNGGA,194346.095,4900.5185,N,00825.4347,E,0,0,,102.1,M,47.9,M,,*5B
'A1',22.00,30.00,4.00,18.00,68.00,$GNGGA,194357.095,4900.5185,N,00825.4347,E,0,0,,102.1,M,47.9,M,,*5B
'A1',22.00,30.00,8.00,10.00,69.00,$GNGGA,194408.095,4900.5185,N,00825.4347,E,0,0,,102.1,M,47.9,M,,*56
'A1',22.00,33.00,6.00,19.00,70.00,$GNGGA,194419.095,4900.5185,N,00825.4347,E,0,0,,102.1,M,47.9,M,,*56
'A1',21.00,30.00,2.00,13.00,71.00,$GNGGA,194430.083,4900.5185,N,00825.4347,E,0,0,,102.1,M,47.9,M,,*5A
'A1',24.00,30.00,7.00,16.00,72.00,$GNGGA,194441.000,4900.5177,N,00825.4076,E,0,2,,102.0,M,47.9,M,,*58
'A1',23.00,33.00,7.00,16.00,73.00,$GNGGA,194452.000,4900.5201,N,00825.3933,E,0,2,,102.1,M,47.9,M,,*56
'A1',24.00,31.00,9.00,10.00,74.00,$GNGGA,194503.000,4900.5164,N,00825.4168,E,0,3,,102.0,M,47.9,M,,*52
'A1',21.00,33.00,9.00,19.00,75.00,$GNGGA,194514.000,4900.5186,N,00825.4319,E,0,3,,102.0,M,47.9,M,,*5C
'A1',21.00,34.00,2.00,10.00,76.00,$GNGGA,194525.000,4900.5191,N,00825.4267,E,0,3,,102.0,M,47.9,M,,*50
'A1',21.00,30.00,4.00,14.00,77.00,$GNGGA,194536.000,4900.5185,N,00825.4035,E,0,3,,102.1,M,47.9,M,,*53
'A1',23.00,31.00,4.00,11.00,78.00,$GNGGA,194547.000,4900.5181,N,00825.4073,E,0,3,,102.2,M,47.9,M,,*50
'A1',24.00,34.00,3.00,18.00,79.00,$GNGGA,194558.000,4900.5185,N,00825.3912,E,0,3,,102.2,M,47.9,M,,*53
'A1',20.00,33.00,2.00,16.00,80.00,$GNGGA,194609.000,4900.5152,N,00825.4027,E,0,3,,102.2,M,47.9,M,,*56
'A1',22.00,31.00,4.00,10.00,81.00,$GNGGA,194620.000,4900.5176,N,00825.4217,E,0,3,,102.3,M,47.9,M,,*5B
'A1',23.00,31.00,9.00,12.00,82.00,$GNGGA,194631.000,4900.5207,N,00825.4203,E,0,3,,102.3,M,47.9,M,,*5B
'A1',23.00,31.00,9.00,18.00,83.00,$GNGGA,194642.000,4900.5188,N,00825.4187,E,0,3,,102.4,M,47.9,M,,*53
'A1',23.00,32.00,8.00,15.00,84.00,$GNGGA,194653.000,4900.5187,N,00825.4178,E,0,3,,102.4,M,47.9,M,,*5C
'A1',23.00,33.00,5.00,13.00,85.00,$GNGGA,194704.000,4900.5161,N,00825.3980,E,0,3,,102.4,M,47.9,M,,*5F
'A1',22.00,32.00,6.00,12.00,86.00,$GNGGA,194715.000,4900.5181,N,00825.4057,E,0,3,,102.4,M,47.9,M,,*55
'A1',20.00,30.00,8.00,15.00,87.00,$GNGGA,194726.000,4900.5178,N,00825.4122,E,0,3,,102.4,M,47.9,M,,*50
'A1',22.00,30.00,9.00,11.00,88.00,$GNGGA,194737.000,4900.5195,N,00825.4256,E,0,3,,102.5,M,47.9,M,,*52
'A1',24.00,32.00,7.00,13.00,89.00,$GNGGA,194748.000,4900.5232,N,00825.4523,E,0,3,,102.5,M,47.9,M,,*51
'A1',22.00,31.00,2.00,16.00,90.00,$GNGGA,194759.000,4900.5228,N,00825.4562,E,0,3,,102.5,M,47.9,M,,*5F
'A1',21.00,33.00,5.00,11.00,91.00,$GNGGA,194810.000,4900.5209,N,00825.4487,E,0,3,,102.4,M,47.9,M,,*55
'A1',24.00,30.00,7.00,19.00,92.00,$GNGGA,194821.000,4900.5206,N,00825.4450,E,0,3,,102.5,M,47.9,M,,*53
'A1',23.00,32.00,2.00,17.00,93.00,$GNGGA,194832.000,4900.5208,N,00825.4414,E,0,3,,102.4,M,47.9,M,,*5E
'A1',22.00,30.00,4.00,12.00,94.00,$GNGGA,194843.000,4900.5210,N,00825.4375,E,0,3,,102.4,M,47.9,M,,*51
'A1',24.00,30.00,3.00,12.00,95.00,$GNGGA,194854.000,4900.5204,N,00825.4260,E,0,3,,102.4,M,47.9,M,,*57
'A1',22.00,34.00,5.00,11.00,96.00,$GNGGA,194905.000,4900.5198,N,00825.4248,E,0,3,,102.4,M,47.9,M,,*5E
'A1',24.00,31.00,5.00,16.00,97.00,$GNGGA,194916.000,4900.5181,N,00825.4208,E,0,3,,102.3,M,47.9,M,,*57
'A1',22.00,32.00,4.00,10.00,98.00,$GNGGA,194927.000,4900.5185,N,00825.4334,E,1,4,4.05,101.9,M,47.9,M,,*4F
'A1',22.00,30.00,8.00,11.00,99.00,$GNGGA,194938.000,4900.5188,N,00825.4319,E,1,4,4.06,101.8,M,47.9,M,,*41
'A1',23.00,33.00,7.00,16.00,100.00,$GNGGA,194949.000,4900.5185,N,00825.4272,E,1,4,4.06,101.7,M,47.9,M,,*49
'A1',24.00,34.00,2.00,12.00,101.00,$GNGGA,195000.000,4900.5187,N,00825.4223,E,1,4,4.06,101.7,M,47.9,M,,*4A
'A1',24.00,31.00,5.00,17.00,102.00,$GNGGA,195011.000,4900.5188,N,00825.4184,E,1,4,4.06,101.9,M,47.9,M,,*45
SSH-2.0-Renci.SshNet.SshClient.0.0.1
'A1',23.00,30.00,5.00,10.00,103.00,$GNGGA,195022.000,4900.5184,N,00825.4198,E,1,4,4.06,102.0,M,47.9,M,,*4E
'A1',20.00,33.00,9.00,14.00,104.00,$GNGGA,195033.000,4900.5185,N,00825.4251,E,1,4,4.06,102.2,M,47.9,M,,*4B
'A1',24.00,34.00,6.00,11.00,105.00,$GNGGA,195044.000,4900.5189,N,00825.4276,E,1,4,4.07,102.2,M,47.9,M,,*43
'A1',24.00,33.00,3.00,11.00,106.00,$GNGGA,195055.000,4900.5179,N,00825.4283,E,1,4,4.07,102.3,M,47.9,M,,*47
'A1',20.00,32.00,8.00,11.00,107.00,$GNGGA,195106.000,4900.5174,N,00825.4226,E,1,4,4.07,102.6,M,47.9,M,,*47
'A1',23.00,33.00,4.00,11.00,108.00,$GNGGA,195117.000,4900.5173,N,00825.4214,E,1,4,4.08,103.2,M,47.9,M,,*4B
'A1',20.00,32.00,2.00,18.00,109.00,$GNGGA,195128.000,4900.5155,N,00825.4208,E,1,4,4.08,103.7,M,47.9,M,,*4B
'A1',24.00,33.00,5.00,14.00,110.00,$GNGGA,195139.000,4900.5179,N,00825.4277,E,1,4,4.08,104.2,M,47.9,M,,*4F
'A1',20.00,32.00,6.00,11.00,111.00,$GNGGA,195150.000,4900.5191,N,00825.4327,E,1,4,4.08,104.5,M,47.9,M,,*45
'A1',20.00,31.00,3.00,12.00,112.00,$GNGGA,195201.000,4900.5189,N,00825.4295,E,1,4,4.08,104.6,M,47.9,M,,*40
'A1',22.00,30.00,5.00,14.00,113.00,$GNGGA,195212.000,4900.5173,N,00825.4254,E,1,4,4.09,104.5,M,47.9,M,,*48
'A1',21.00,31.00,8.00,11.00,114.00,$GNGGA,195223.000,4900.5168,N,00825.4249,E,1,4,4.10,103.7,M,47.9,M,,*41
'A1',23.00,34.00,9.00,10.00,115.00,$GNGGA,195234.000,4900.5192,N,00825.4321,E,1,4,4.09,102.6,M,47.9,M,,*45
'A1',24.00,34.00,7.00,11.00,116.00,$GNGGA,195245.000,4900.5186,N,00825.4298,E,1,4,4.09,101.9,M,47.9,M,,*49
'A1',20.00,31.00,8.00,16.00,117.00,$GNGGA,195256.000,4900.5176,N,00825.4196,E,1,4,4.09,102.4,M,47.9,M,,*47
'A1',23.00,30.00,7.00,16.00,118.00,$GNGGA,195307.000,4900.5163,N,00825.4135,E,1,4,4.10,102.6,M,47.9,M,,*45
'A1',24.00,32.00,2.00,18.00,119.00,$GNGGA,195318.000,4900.5165,N,00825.4109,E,1,4,4.10,102.9,M,47.9,M,,*4D
'A1',21.00,30.00,6.00,15.00,120.00,$GNGGA,195329.000,4900.5141,N,00825.3969,E,1,4,4.10,104.0,M,47.9,M,,*4F
'A1',23.00,34.00,8.00,12.00,121.00,$GNGGA,195340.000,4900.5158,N,00825.4097,E,1,4,4.10,104.1,M,47.9,M,,*46
'A1',21.00,34.00,7.00,19.00,122.00,$GNGGA,195351.000,4900.5173,N,00825.4187,E,1,4,4.10,104.1,M,47.9,M,,*4F
'A1',23.00,31.00,2.00,10.00,123.00,$GNGGA,195402.000,4900.5190,N,00825.4210,E,1,4,4.11,104.5,M,47.9,M,,*4B
'A1',22.00,34.00,2.00,15.00,124.00,$GNGGA,195413.000,4900.5152,N,00825.4159,E,1,4,4.11,105.0,M,47.9,M,,*4F
'A1',22.00,33.00,5.00,10.00,125.00,$GNGGA,195424.000,4900.5160,N,00825.4179,E,1,4,4.11,105.5,M,47.9,M,,*4D
'A1',24.00,32.00,2.00,12.00,126.00,$GNGGA,195435.000,4900.5178,N,00825.4199,E,1,4,4.12,106.2,M,47.9,M,,*4D
'A1',21.00,34.00,3.00,17.00,127.00,$GNGGA,195446.000,4900.5199,N,00825.4277,E,1,4,4.12,105.8,M,47.9,M,,*4C
'A1',20.00,32.00,7.00,11.00,128.00,$GNGGA,195457.000,4900.5198,N,00825.4321,E,1,4,4.12,105.4,M,47.9,M,,*43
'A1',20.00,34.00,9.00,12.00,129.00,$GNGGA,195508.000,4900.5185,N,00825.4277,E,1,4,4.13,105.2,M,47.9,M,,*41
'A1',24.00,34.00,4.00,18.00,130.00,$GNGGA,195519.000,4900.5191,N,00825.4241,E,1,4,4.12,105.5,M,47.9,M,,*47
'A1',21.00,34.00,7.00,18.00,131.00,$GNGGA,195530.000,4900.5181,N,00825.4187,E,1,4,4.13,106.1,M,47.9,M,,*42
'A1',21.00,34.00,4.00,18.00,132.00,$GNGGA,195541.000,4900.5181,N,00825.4172,E,1,4,4.13,106.1,M,47.9,M,,*4E
'A1',24.00,30.00,9.00,15.00,133.00,$GNGGA,195552.000,4900.5196,N,00825.4219,E,1,4,4.14,106.2,M,47.9,M,,*40
'A1',22.00,30.00,2.00,19.00,134.00,$GNGGA,195604.000,4900.5154,N,00825.4107,E,1,4,4.14,104.5,M,47.9,M,,*47
'A1',21.00,32.00,7.00,15.00,135.00,$GNGGA,195615.000,4900.5148,N,00825.4087,E,1,4,4.14,104.6,M,47.9,M,,*40
'A1',22.00,30.00,4.00,15.00,136.00,$GNGGA,195626.000,4900.5159,N,00825.4157,E,1,4,4.14,104.8,M,47.9,M,,*42
'A1',24.00,32.00,8.00,19.00,137.00,$GNGGA,195637.000,4900.5179,N,00825.4213,E,1,4,4.14,104.9,M,47.9,M,,*42
'A1',22.00,32.00,5.00,17.00,138.00,$GNGGA,195648.000,4900.5193,N,00825.4262,E,1,4,4.15,105.0,M,47.9,M,,*41
'A1',24.00,32.00,3.00,17.00,139.00,$GNGGA,195659.000,4900.5190,N,00825.4268,E,1,4,4.15,105.0,M,47.9,M,,*48
'A1',22.00,32.00,7.00,18.00,140.00,$GNGGA,195710.000,4900.5180,N,00825.4203,E,1,4,4.15,105.5,M,47.9,M,,*4D
'A1',23.00,33.00,8.00,19.00,141.00,$GNGGA,195721.000,4900.5169,N,00825.4192,E,1,4,4.15,106.4,M,47.9,M,,*41
SSH-2.0-Renci.SshNet.SshClient.0.0.1
'A1',20.00,34.00,9.00,17.00,142.00,$GNGGA,195732.000,4900.5153,N,00825.4119,E,1,4,4.16,107.2,M,47.9,M,,*4D
'A1',23.00,30.00,6.00,10.00,143.00,$GNGGA,195743.000,4900.5150,N,00825.4086,E,1,4,4.16,107.5,M,47.9,M,,*48
'A1',23.00,30.00,3.00,16.00,144.00,$GNGGA,195754.000,4900.5171,N,00825.4170,E,1,4,4.16,107.7,M,47.9,M,,*47
'A1',23.00,32.00,5.00,10.00,145.00,$GNGGA,195805.000,4900.5182,N,00825.4209,E,1,4,4.17,108.3,M,47.9,M,,*47
'A1',20.00,32.00,7.00,12.00,146.00,$GNGGA,195816.000,4900.5169,N,00825.4267,E,1,4,4.17,108.9,M,47.9,M,,*42
'A1',23.00,34.00,6.00,15.00,147.00,$GNGGA,195827.000,4900.5197,N,00825.4364,E,1,4,4.17,110.9,M,47.9,M,,*4A
'A1',21.00,31.00,6.00,14.00,148.00,$GNGGA,195838.000,4900.5226,N,00825.4445,E,1,4,4.17,111.9,M,47.9,M,,*48
'A1',24.00,34.00,9.00,10.00,149.00,$GNGGA,195849.000,4900.5229,N,00825.4430,E,1,4,4.18,112.3,M,47.9,M,,*45
'A1',21.00,33.00,9.00,12.00,150.00,$GNGGA,195900.000,4900.5199,N,00825.4295,E,1,4,4.19,112.6,M,47.9,M,,*4C
'A1',24.00,32.00,4.00,19.00,151.00,$GNGGA,195911.000,4900.5184,N,00825.4283,E,1,4,4.18,112.8,M,47.9,M,,*48
'A1',22.00,30.00,9.00,17.00,152.00,$GNGGA,195922.000,4900.5176,N,00825.4233,E,1,3,6.45,112.9,M,47.9,M,,*42
'A1',23.00,33.00,8.00,13.00,153.00,$GNGGA,195933.000,4900.5123,N,00825.3914,E,1,4,4.19,113.1,M,47.9,M,,*4E
'A1',24.00,30.00,3.00,11.00,154.00,$GNGGA,195944.000,4900.5140,N,00825.4028,E,1,3,6.48,113.1,M,47.9,M,,*4B
'A1',21.00,32.00,3.00,15.00,155.00,$GNGGA,195955.000,4900.5172,N,00825.4191,E,1,3,6.50,113.0,M,47.9,M,,*41
'A1',22.00,30.00,2.00,12.00,156.00,$GNGGA,200006.000,4900.5176,N,00825.4219,E,6,3,6.51,113.0,M,47.9,M,,*40
'A1',24.00,30.00,8.00,11.00,157.00,$GNGGA,200017.000,4900.5182,N,00825.4187,E,1,3,6.53,112.9,M,47.9,M,,*42
'A1',24.00,32.00,4.00,12.00,158.00,$GNGGA,200028.000,4900.5198,N,00825.4349,E,6,3,6.54,112.9,M,47.9,M,,*45
'A1',22.00,34.00,7.00,18.00,159.00,$GNGGA,200039.000,4900.5242,N,00825.4657,E,1,3,6.56,112.8,M,47.9,M,,*4F
'A1',24.00,33.00,6.00,13.00,160.00,$GNGGA,200050.000,4900.5259,N,00825.4736,E,1,3,6.57,112.9,M,47.9,M,,*4C
'A1',23.00,30.00,8.00,16.00,161.00,$GNGGA,200101.000,4900.5240,N,00825.4666,E,1,3,6.59,113.0,M,47.9,M,,*43
'A1',23.00,32.00,9.00,11.00,162.00,$GNGGA,200112.000,4900.5211,N,00825.4537,E,1,3,6.61,113.0,M,47.9,M,,*49
'A1',22.00,31.00,5.00,10.00,163.00,$GNGGA,200123.000,4900.5192,N,00825.4537,E,1,3,6.62,112.9,M,47.9,M,,*48
'A1',22.00,34.00,3.00,11.00,164.00,$GNGGA,200134.000,4900.5194,N,00825.4516,E,1,3,6.64,112.8,M,47.9,M,,*4C
'A1',20.00,31.00,3.00,12.00,165.00,$GNGGA,200145.000,4900.5224,N,00825.4637,E,1,3,6.66,112.7,M,47.9,M,,*4F
'A1',22.00,31.00,2.00,15.00,166.00,$GNGGA,200156.000,4900.5252,N,00825.4729,E,1,4,6.40,112.8,M,47.9,M,,*4E
'A1',21.00,31.00,4.00,19.00,167.00,$GNGGA,200207.000,4900.5266,N,00825.4655,E,1,3,6.69,112.9,M,47.9,M,,*49
'A1',20.00,34.00,2.00,16.00,168.00,$GNGGA,200218.000,4900.5214,N,00825.4579,E,1,3,6.70,113.1,M,47.9,M,,*4E
'A1',24.00,34.00,2.00,13.00,169.00,$GNGGA,200229.000,4900.5205,N,00825.4503,E,1,3,6.72,113.1,M,47.9,M,,*43
'A1',20.00,33.00,9.00,18.00,170.00,$GNGGA,200240.000,4900.5226,N,00825.4448,E,1,4,4.24,113.1,M,47.9,M,,*45
'A1',22.00,31.00,2.00,19.00,171.00,$GNGGA,200251.000,4900.5137,N,00825.4387,E,1,3,6.79,112.8,M,47.9,M,,*47
'A1',20.00,31.00,5.00,18.00,172.00,$GNGGA,200302.000,4900.5204,N,00825.4445,E,1,3,6.80,112.8,M,47.9,M,,*4C
'A1',20.00,34.00,3.00,11.00,173.00,$GNGGA,200313.000,4900.5074,N,00825.4381,E,1,3,6.81,112.9,M,47.9,M,,*46
'A1',22.00,34.00,5.00,17.00,174.00,$GNGGA,200324.000,4900.4980,N,00825.4381,E,0,2,,112.8,M,47.9,M,,*51
'A1',23.00,34.00,4.00,10.00,175.00,$GNGGA,200335.000,4900.4939,N,00825.4307,E,0,2,,112.8,M,47.9,M,,*5D
'A1',24.00,31.00,2.00,18.00,176.00,$GNGGA,200346.000,4900.4934,N,00825.4256,E,1,3,6.84,112.8,M,47.9,M,,*45
'A1',23.00,31.00,2.00,15.00,177.00,$GNGGA,200358.000,4900.5035,N,00825.4318,E,6,3,6.86,112.9,M,47.9,M,,*4C
'A1',23.00,33.00,8.00,15.00,178.00,$GNGGA,200409.000,4900.5147,N,00825.4286,E,6,3,6.86,113.1,M,47.9,M,,*44
SSH-2.0-Renci.SshNet.SshClient.0.0.1
'A1',24.00,32.00,5.00,12.00,179.00,$GNGGA,200420.000,4900.5277,N,00825.4142,E,1,3,6.87,113.5,M,47.9,M,,*46
'A1',21.00,32.00,9.00,16.00,180.00,$GNGGA,200431.000,4900.5300,N,00825.4168,E,1,3,6.89,113.7,M,47.9,M,,*43
'A1',22.00,31.00,8.00,15.00,181.00,$GNGGA,200442.000,4900.5264,N,00825.4115,E,1,3,6.90,113.7,M,47.9,M,,*46
'A1',22.00,30.00,7.00,17.00,182.00,$GNGGA,200453.000,4900.5211,N,00825.4154,E,1,4,4.28,113.8,M,47.9,M,,*48
'A1',21.00,31.00,9.00,12.00,183.00,$GNGGA,200504.000,4900.5225,N,00825.4217,E,1,4,4.29,113.8,M,47.9,M,,*49
'A1',23.00,30.00,6.00,12.00,184.00,$GNGGA,200515.000,4900.5245,N,00825.4280,E,1,4,4.29,114.4,M,47.9,M,,*4A
'A1',22.00,34.00,5.00,12.00,185.00,$GNGGA,200526.000,4900.5254,N,00825.4297,E,1,4,4.29,113.9,M,47.9,M,,*46
'A1',23.00,30.00,8.00,18.00,186.00,$GNGGA,200537.000,4900.5258,N,00825.4244,E,1,4,4.29,113.9,M,47.9,M,,*44
'A1',22.00,34.00,7.00,10.00,187.00,$GNGGA,200548.000,4900.5239,N,00825.4269,E,1,4,4.30,114.4,M,47.9,M,,*46
'A1',23.00,33.00,8.00,10.00,188.00,$GNGGA,200559.000,4900.5226,N,00825.4328,E,1,4,4.30,114.8,M,47.9,M,,*40
'A1',23.00,32.00,9.00,10.00,189.00,$GNGGA,200610.000,4900.5245,N,00825.4393,E,1,4,4.30,114.7,M,47.9,M,,*44
'A1',20.00,32.00,7.00,19.00,190.00,$GNGGA,200621.000,4900.5236,N,00825.4375,E,1,4,4.31,115.2,M,47.9,M,,*4F
'A1',21.00,34.00,2.00,17.00,191.00,$GNGGA,200632.000,4900.5165,N,00825.4286,E,1,4,4.32,115.9,M,47.9,M,,*4D
'A1',22.00,32.00,4.00,12.00,192.00,$GNGGA,200643.000,4900.5169,N,00825.4364,E,1,4,4.32,117.4,M,47.9,M,,*45
'A1',20.00,32.00,8.00,16.00,193.00,$GNGGA,200654.000,4900.5193,N,00825.4455,E,1,4,4.32,118.5,M,47.9,M,,*4D
'A1',21.00,32.00,2.00,12.00,194.00,$GNGGA,200705.000,4900.5253,N,00825.4533,E,1,4,5.65,119.9,M,47.9,M,,*48
'A1',20.00,34.00,5.00,18.00,195.00,$GNGGA,200716.000,4900.5295,N,00825.4649,E,1,4,4.33,122.0,M,47.9,M,,*4D
'A1',24.00,34.00,2.00,13.00,196.00,$GNGGA,200727.000,4900.5306,N,00825.4724,E,1,4,4.33,123.8,M,47.9,M,,*47
'A1',23.00,34.00,5.00,19.00,197.00,$GNGGA,200738.000,4900.5311,N,00825.4604,E,1,4,4.34,124.5,M,47.9,M,,*41
'A1',24.00,34.00,5.00,14.00,198.00,$GNGGA,200749.000,4900.5274,N,00825.4617,E,1,3,7.23,124.6,M,47.9,M,,*46
'A1',24.00,33.00,2.00,11.00,199.00,$GNGGA,200800.000,4900.5293,N,00825.4643,E,1,3,7.25,124.5,M,47.9,M,,*49
'A1',20.00,34.00,9.00,14.00,200.00,$GNGGA,200811.000,4900.5263,N,00825.4592,E,6,2,99.99,124.8,M,47.9,M,,*72
'A1',22.00,30.00,5.00,18.00,201.00,$GNGGA,200822.000,4900.5231,N,00825.4555,E,0,2,,125.0,M,47.9,M,,*5F
'A1',21.00,30.00,4.00,10.00,202.00,$GNGGA,200833.000,4900.5218,N,00825.4494,E,0,2,,125.0,M,47.9,M,,*58
'A1',23.00,34.00,5.00,14.00,203.00,$GNGGA,200844.000,4900.5220,N,00825.4476,E,6,2,99.99,125.0,M,47.9,M,,*77
'A1',21.00,32.00,5.00,14.00,204.00,$GNGGA,200855.000,4900.5220,N,00825.4476,E,0,2,,125.0,M,47.9,M,,*5F
'A1',20.00,30.00,6.00,14.00,205.00,$GNGGA,200906.000,4900.5220,N,00825.4477,E,0,2,,125.0,M,47.9,M,,*59
'A1',24.00,32.00,6.00,17.00,206.00,$GNGGA,200917.000,4900.5222,N,00825.4474,E,1,3,7.24,125.0,M,47.9,M,,*47
'A1',22.00,33.00,2.00,13.00,207.00,$GNGGA,200928.000,4900.5269,N,00825.4534,E,1,3,7.25,124.8,M,47.9,M,,*49
'A1',21.00,33.00,9.00,10.00,208.00,$GNGGA,200939.000,4900.5346,N,00825.4526,E,1,3,7.27,124.9,M,47.9,M,,*45
'A1',24.00,32.00,3.00,12.00,209.00,$GNGGA,200950.000,4900.5336,N,00825.4553,E,6,2,99.99,124.7,M,47.9,M,,*75
'A1',20.00,31.00,9.00,15.00,210.00,$GNGGA,201001.000,4900.5343,N,00825.4646,E,0,2,,124.7,M,47.9,M,,*54
'A1',22.00,34.00,9.00,15.00,211.00,$GNGGA,201012.000,4900.5346,N,00825.4610,E,0,2,,124.7,M,47.9,M,,*50
'A1',20.00,34.00,8.00,15.00,212.00,$GNGGA,201023.000,4900.5345,N,00825.4612,E,1,3,7.33,124.8,M,47.9,M,,*45
'A1',20.00,32.00,5.00,17.00,213.00,$GNGGA,201034.000,4900.5340,N,00825.4610,E,1,3,7.35,124.8,M,47.9,M,,*42
'A1',24.00,32.00,3.00,15.00,214.00,$GNGGA,201045.000,4900.5286,N,00825.4643,E,1,3,7.37,124.6,M,47.9,M,,*45
'A1',23.00,31.00,5.00,15.00,215.00,$GNGGA,201056.000,4900.5296,N,00825.4669,E,1,3,7.38,124.5,M,47.9,M,,*42
'A1',22.00,34.00,7.00,10.00,216.00,$GNGGA,201107.000,4900.5313,N,00825.4737,E,1,4,4.42,124.7,M,47.9,M,,*4A
'A1',21.00,34.00,5.00,11.00,217.00,$GNGGA,201118.000,4900.5200,N,00825.4679,E,1,4,4.42,125.5,M,47.9,M,,*4F
'A1',24.00,32.00,3.00,19.00,218.00,$GNGGA,201129.000,4900.5164,N,00825.4571,E,1,4,4.43,126.1,M,47.9,M,,*41
'A1',21.00,30.00,6.00,14.00,219.00,$GNGGA,201140.000,4900.5150,N,00825.4606,E,1,4,4.43,126.2,M,47.9,M,,*49
'A1',21.00,33.00,7.00,13.00,220.00,$GNGGA,201151.000,4900.5148,N,00825.4612,E,1,4,4.43,126.3,M,47.9,M,,*44
'A1',22.00,33.00,3.00,13.00,221.00,$GNGGA,201202.000,4900.5233,N,00825.4730,E,1,4,5.25,126.8,M,47.9,M,,*45
'A1',21.00,31.00,6.00,18.00,222.00,$GNGGA,201213.000,4900.5272,N,00825.4750,E,1,4,5.23,128.5,M,47.9,M,,*43
'A1',23.00,33.00,7.00,12.00,223.00,$GNGGA,201224.000,4900.5301,N,00825.4787,E,1,4,5.23,129.8,M,47.9,M,,*44
'A1',21.00,34.00,5.00,19.00,224.00,$GNGGA,201235.000,4900.5277,N,00825.4659,E,1,4,4.45,130.7,M,47.9,M,,*40
'A1',24.00,30.00,3.00,19.00,225.00,$GNGGA,201246.000,4900.5265,N,00825.4696,E,1,4,4.46,125.8,M,47.9,M,,*4C
'A1',21.00,33.00,7.00,10.00,226.00,$GNGGA,201257.000,4900.5239,N,00825.4752,E,1,4,4.46,125.0,M,47.9,M,,*44
'A1',23.00,34.00,3.00,10.00,227.00,$GNGGA,201308.000,4900.5164,N,00825.4618,E,1,3,7.81,125.2,M,47.9,M,,*46
'A1',23.00,31.00,4.00,14.00,228.00,$GNGGA,201320.000,4900.5130,N,00825.4559,E,6,2,99.99,125.4,M,47.9,M,,*75
'A1',20.00,32.00,2.00,12.00,229.00,$GNGGA,201331.000,4900.5121,N,00825.4633,E,1,3,7.64,125.5,M,47.9,M,,*48
'A1',21.00,30.00,2.00,13.00,230.00,$GNGGA,201342.000,4900.5081,N,00825.4689,E,1,3,7.66,125.5,M,47.9,M,,*44
'A1',22.00,30.00,4.00,10.00,231.00,$GNGGA,201353.000,4900.5073,N,00825.4678,E,1,3,7.68,125.5,M,47.9,M,,*49
'A1',22.00,32.00,8.00,12.00,232.00,$GNGGA,201404.000,4900.5034,N,00825.4563,E,1,3,7.70,125.6,M,47.9,M,,*4C
'A1',22.00,33.00,7.00,19.00,233.00,$GNGGA,201415.000,4900.5090,N,00825.4455,E,1,3,7.72,125.7,M,47.9,M,,*45
'A1',20.00,34.00,2.00,10.00,234.00,$GNGGA,201426.000,4900.5077,N,00825.4529,E,6,3,7.74,125.6,M,47.9,M,,*46
'A1',24.00,33.00,5.00,14.00,235.00,$GNGGA,201437.000,4900.5086,N,00825.4605,E,1,3,7.76,125.5,M,47.9,M,,*43
'A1',21.00,34.00,3.00,13.00,236.00,$GNGGA,201448.000,4900.5124,N,00825.4579,E,6,3,7.78,125.5,M,47.9,M,,*43
'A1',20.00,30.00,4.00,13.00,237.00,$GNGGA,201459.000,4900.5140,N,00825.4677,E,1,3,7.80,125.4,M,47.9,M,,*4D
'A1',20.00,30.00,9.00,18.00,238.00,$GNGGA,201510.000,4900.5133,N,00825.4766,E,1,3,7.82,125.4,M,47.9,M,,*46
'A1',21.00,34.00,3.00,18.00,239.00,$GNGGA,201521.000,4900.5150,N,00825.4685,E,1,3,7.84,125.5,M,47.9,M,,*4A
'A1',21.00,33.00,9.00,11.00,240.00,$GNGGA,201532.000,4900.5167,N,00825.4657,E,1,3,7.86,125.5,M,47.9,M,,*41
'A1',20.00,30.00,4.00,10.00,241.00,$GNGGA,201543.000,4900.5186,N,00825.4663,E,1,3,7.88,125.4,M,47.9,M,,*40
'A1',23.00,32.00,6.00,16.00,242.00,$GNGGA,201554.000,4900.5183,N,00825.4779,E,6,3,7.90,125.2,M,47.9,M,,*41
'A1',23.00,34.00,4.00,17.00,243.00,$GNGGA,201605.000,4900.5182,N,00825.4896,E,1,3,7.93,125.0,M,47.9,M,,*4F
'A1',21.00,34.00,7.00,13.00,244.00,$GNGGA,201616.000,4900.5159,N,00825.4960,E,1,3,7.95,124.9,M,47.9,M,,*4D
'A1',20.00,31.00,4.00,12.00,245.00,$GNGGA,201627.000,4900.5203,N,00825.4865,E,1,3,7.97,124.9,M,47.9,M,,*45
'A1',20.00,34.00,3.00,16.00,246.00,$GNGGA,201638.000,4900.5407,N,00825.4826,E,1,3,7.99,125.0,M,47.9,M,,*48
'A1',24.00,32.00,5.00,14.00,247.00,$GNGGA,201649.000,4900.5286,N,00825.4725,E,1,3,8.01,125.1,M,47.9,M,,*42
'A1',23.00,34.00,7.00,16.00,248.00,$GNGGA,201700.000,4900.5176,N,00825.4894,E,1,3,8.04,125.2,M,47.9,M,,*41
'A1',22.00,34.00,7.00,10.00,249.00,$GNGGA,201711.000,4900.5135,N,00825.4951,E,1,3,8.06,125.3,M,47.9,M,,*4D
'A1',24.00,32.00,4.00,15.00,250.00,$GNGGA,201722.000,4900.5209,N,00825.4942,E,6,3,8.08,125.3,M,47.9,M,,*4A
'A1',22.00,34.00,7.00,10.00,251.00,$GNGGA,201733.000,4900.5252,N,00825.4547,E,1,3,8.10,125.4,M,47.9,M,,*44
'A1',21.00,34.00,5.00,15.00,252.00,$GNGGA,201744.000,4900.5290,N,00825.4439,E,1,3,8.13,125.5,M,47.9,M,,*40
'A1',23.00,34.00,3.00,14.00,253.00,$GNGGA,201755.000,4900.5286,N,00825.4664,E,1,3,8.15,125.7,M,47.9,M,,*49
'A1',20.00,33.00,8.00,11.00,254.00,$GNGGA,201806.000,4900.5228,N,00825.5134,E,1,3,8.17,125.9,M,47.9,M,,*4B
'A1',20.00,34.00,3.00,13.00,255.00,$GNGGA,201817.000,4900.4986,N,00825.5416,E,1,3,8.20,126.2,M,47.9,M,,*4C
'A1',21.00,32.00,2.00,15.00,256.00,$GNGGA,201828.000,4900.4945,N,00825.5244,E,6,2,99.99,126.5,M,47.9,M,,*75
'A1',22.00,31.00,2.00,10.00,257.00,$GNGGA,201839.000,4900.4922,N,00825.4956,E,0,2,,126.7,M,47.9,M,,*57
'A1',23.00,33.00,2.00,11.00,258.00,$GNGGA,201850.000,4900.4922,N,00825.4955,E,6,2,99.99,126.7,M,47.9,M,,*73
'A1',20.00,31.00,3.00,19.00,259.00,$GNGGA,201901.000,4900.4922,N,00825.4955,E,0,2,,126.7,M,47.9,M,,*5E
'A1',22.00,34.00,7.00,12.00,260.00,$GNGGA,201912.000,4900.4930,N,00825.4956,E,1,4,5.00,126.7,M,47.9,M,,*40
'A1',22.00,34.00,4.00,17.00,261.00,$GNGGA,201923.000,4900.5094,N,00825.4963,E,1,4,4.67,126.8,M,47.9,M,,*4D
'A1',20.00,32.00,2.00,16.00,262.00,$GNGGA,201934.000,4900.5319,N,00825.4781,E,1,3,8.58,127.3,M,47.9,M,,*42
'A1',21.00,33.00,2.00,19.00,263.00,$GNGGA,201945.000,4900.5256,N,00825.4876,E,1,3,8.60,127.5,M,47.9,M,,*44
'A1',21.00,33.00,5.00,17.00,264.00,$GNGGA,201956.000,4900.5249,N,00825.4990,E,1,4,4.68,128.2,M,47.9,M,,*4A
'A1',24.00,33.00,8.00,13.00,265.00,$GNGGA,202007.000,4900.5230,N,00825.4866,E,1,4,4.69,128.9,M,47.9,M,,*48
'A1',20.00,30.00,5.00,14.00,266.00,$GNGGA,202018.000,4900.5233,N,00825.5020,E,1,4,4.70,129.1,M,47.9,M,,*4F
'A1',24.00,34.00,7.00,12.00,267.00,$GNGGA,202029.000,4900.5218,N,00825.4910,E,1,4,4.71,128.6,M,47.9,M,,*48
'A1',20.00,34.00,9.00,16.00,268.00,$GNGGA,202040.000,4900.5158,N,00825.4616,E,1,4,4.71,128.1,M,47.9,M,,*4E
'A1',21.00,33.00,2.00,12.00,269.00,$GNGGA,202051.000,4900.5142,N,00825.4706,E,1,4,4.72,127.3,M,47.9,M,,*4B
'A1',20.00,30.00,9.00,13.00,270.00,$GNGGA,202102.000,4900.5179,N,00825.4567,E,1,4,4.72,126.0,M,47.9,M,,*43
'A1',22.00,32.00,6.00,11.00,271.00,$GNGGA,202113.000,4900.5286,N,00825.4918,E,1,4,4.73,126.0,M,47.9,M,,*45
'A1',24.00,34.00,4.00,14.00,272.00,$GNGGA,202124.000,4900.5286,N,00825.5280,E,1,4,4.74,125.2,M,47.9,M,,*4C
'A1',22.00,33.00,8.00,16.00,273.00,$GNGGA,202135.000,4900.5110,N,00825.5639,E,1,3,8.64,123.8,M,47.9,M,,*40
'A1',23.00,30.00,5.00,10.00,274.00,$GNGGA,202146.000,4900.4860,N,00825.6236,E,1,3,8.67,123.3,M,47.9,M,,*4B
SSH-2.0-Renci.SshNet.SshClient.0.0.1
'A1',22.00,30.00,8.00,15.00,275.00,$GNGGA,202157.000,4900.4750,N,00825.6741,E,6,2,99.99,123.6,M,47.9,M,,*78
'A1',20.00,34.00,5.00,18.00,276.00,$GNGGA,202208.000,4900.4870,N,00825.6236,E,0,2,,124.5,M,47.9,M,,*55
'A1',22.00,30.00,4.00,13.00,277.00,$GNGGA,202219.000,4900.4920,N,00825.6200,E,1,3,5.03,124.5,M,47.9,M,,*4C
'A1',24.00,31.00,9.00,18.00,278.00,$GNGGA,202230.000,4900.5286,N,00825.5244,E,1,3,5.03,124.6,M,47.9,M,,*41
'A1',20.00,32.00,2.00,11.00,279.00,$GNGGA,202241.000,4900.5323,N,00825.4102,E,1,3,5.04,124.9,M,47.9,M,,*41
'A1',22.00,34.00,2.00,10.00,280.00,$GNGGA,202252.000,4900.5325,N,00825.3852,E,1,3,5.05,125.2,M,47.9,M,,*45
'A1',21.00,30.00,3.00,18.00,281.00,$GNGGA,202303.000,4900.5490,N,00825.3527,E,0,2,,125.3,M,47.9,M,,*59
'A1',24.00,32.00,7.00,12.00,282.00,$GNGGA,202314.000,4900.5569,N,00825.3256,E,0,2,,125.4,M,47.9,M,,*5E
'A1',22.00,34.00,6.00,17.00,283.00,$GNGGA,202325.000,4900.5568,N,00825.3222,E,6,2,99.99,125.4,M,47.9,M,,*76
'A1',24.00,30.00,9.00,19.00,284.00,$GNGGA,202336.000,4900.5565,N,00825.3224,E,1,3,6.08,125.6,M,47.9,M,,*45
'A1',24.00,31.00,8.00,11.00,285.00,$GNGGA,202347.000,4900.5565,N,00825.3216,E,1,4,5.06,125.8,M,47.9,M,,*46
'A1',23.00,31.00,9.00,16.00,286.00,$GNGGA,202358.000,4900.5565,N,00825.3203,E,1,4,5.06,125.9,M,47.9,M,,*4D
'A1',20.00,31.00,3.00,17.00,287.00,$GNGGA,202409.000,4900.5565,N,00825.3179,E,1,4,5.08,125.8,M,47.9,M,,*4F
'A1',23.00,31.00,4.00,15.00,288.00,$GNGGA,202420.000,4900.5561,N,00825.3173,E,1,4,5.08,125.5,M,47.9,M,,*47
'A1',23.00,33.00,9.00,12.00,289.00,$GNGGA,202431.000,4900.5562,N,00825.3194,E,1,4,5.08,125.6,M,47.9,M,,*4E
'A1',20.00,31.00,4.00,17.00,290.00,$GNGGA,202442.000,4900.5484,N,00825.3334,E,1,4,5.10,126.1,M,47.9,M,,*46
SSH-2.0-Renci.SshNet.SshClient.0.0.1
'A1',21.00,34.00,9.00,19.00,291.00,$GNGGA,202453.000,4900.5332,N,00825.3698,E,1,4,5.10,126.7,M,47.9,M,,*49
'A1',20.00,34.00,2.00,18.00,292.00,$GNGGA,202504.000,4900.5264,N,00825.4285,E,1,4,5.11,127.3,M,47.9,M,,*43
'A1',22.00,31.00,3.00,14.00,293.00,$GNGGA,202515.000,4900.5262,N,00825.4771,E,1,4,5.12,127.7,M,47.9,M,,*4C
'A1',22.00,30.00,9.00,12.00,294.00,$GNGGA,202526.000,4900.5264,N,00825.5011,E,1,4,5.13,128.1,M,47.9,M,,*42
'A1',24.00,32.00,4.00,16.00,295.00,$GNGGA,202537.000,4900.5249,N,00825.4918,E,1,4,5.14,128.6,M,47.9,M,,*4C
'A1',22.00,33.00,3.00,13.00,296.00,$GNGGA,202548.000,4900.5225,N,00825.4687,E,1,4,5.14,128.8,M,47.9,M,,*49
'A1',20.00,32.00,8.00,17.00,297.00,$GNGGA,202559.000,4900.5223,N,00825.4691,E,1,4,5.15,129.1,M,47.9,M,,*41
'A1',22.00,31.00,9.00,17.00,298.00,$GNGGA,202610.000,4900.5224,N,00825.4689,E,1,4,5.16,129.1,M,47.9,M,,*42
'A1',22.00,30.00,7.00,14.00,299.00,$GNGGA,202621.000,4900.5223,N,00825.4692,E,1,4,5.17,129.1,M,47.9,M,,*4C
'A1',21.00,33.00,3.00,15.00,300.00,$GNGGA,202632.000,4900.5223,N,00825.4691,E,1,4,5.17,129.2,M,47.9,M,,*4E
'A1',24.00,34.00,3.00,14.00,301.00,$GNGGA,202643.000,4900.5225,N,00825.4695,E,1,4,5.18,129.3,M,47.9,M,,*44
'A1',20.00,33.00,8.00,15.00,302.00,$GNGGA,202654.000,4900.5225,N,00825.4689,E,1,4,5.19,129.5,M,47.9,M,,*48
'A1',20.00,32.00,4.00,18.00,303.00,$GNGGA,202705.000,4900.5226,N,00825.4688,E,1,4,5.20,129.4,M,47.9,M,,*44
'A1',24.00,32.00,4.00,12.00,304.00,$GNGGA,202716.000,4900.5227,N,00825.4688,E,1,4,5.20,129.2,M,47.9,M,,*41
'A1',21.00,30.00,5.00,15.00,305.00,$GNGGA,202727.000,4900.5228,N,00825.4684,E,1,4,5.21,129.0,M,47.9,M,,*43
'A1',22.00,33.00,5.00,16.00,306.00,$GNGGA,202738.000,4900.5228,N,00825.4663,E,1,4,5.22,129.0,M,47.9,M,,*47
'A1',21.00,31.00,3.00,15.00,307.00,$GNGGA,202749.000,4900.5233,N,00825.4651,E,1,4,5.24,128.9,M,47.9,M,,*44
'A1',20.00,31.00,4.00,14.00,308.00,$GNGGA,202800.000,4900.5233,N,00825.4649,E,1,4,5.23,128.8,M,47.9,M,,*49
'A1',23.00,34.00,5.00,16.00,309.00,$GNGGA,202811.000,4900.5227,N,00825.4647,E,1,4,5.25,128.6,M,47.9,M,,*4A
'A1',22.00,32.00,8.00,14.00,310.00,$GNGGA,202822.000,4900.5217,N,00825.4634,E,1,4,5.25,128.6,M,47.9,M,,*4D
'A1',24.00,33.00,3.00,14.00,311.00,$GNGGA,202833.000,4900.5217,N,00825.4628,E,1,4,5.27,128.8,M,47.9,M,,*4C
'A1',21.00,32.00,6.00,13.00,312.00,$GNGGA,202844.000,4900.5215,N,00825.4628,E,1,4,5.27,128.9,M,47.9,M,,*4F
'A1',23.00,34.00,2.00,14.00,313.00,$GNGGA,202855.000,4900.5217,N,00825.4632,E,1,4,5.27,128.9,M,47.9,M,,*46
'A1',24.00,33.00,6.00,10.00,314.00,$GNGGA,202906.000,4900.5216,N,00825.4652,E,1,4,5.29,128.9,M,47.9,M,,*48
'A1',22.00,34.00,2.00,15.00,315.00,$GNGGA,202917.000,4900.5217,N,00825.4679,E,1,4,5.29,129.0,M,47.9,M,,*48
'A1',24.00,31.00,9.00,15.00,316.00,$GNGGA,202928.000,4900.5244,N,00825.4717,E,1,4,5.30,129.0,M,47.9,M,,*43
'A1',23.00,33.00,8.00,14.00,317.00,$GNGGA,202939.000,4900.5236,N,00825.4615,E,1,4,5.31,129.0,M,47.9,M,,*44
'A1',22.00,31.00,5.00,13.00,318.00,$GNGGA,202950.000,4900.5226,N,00825.4451,E,1,4,5.32,129.0,M,47.9,M,,*4B
'A1',23.00,30.00,4.00,19.00,319.00,$GNGGA,203001.000,4900.5220,N,00825.4361,E,1,4,5.33,129.0,M,47.9,M,,*44
'A1',23.00,34.00,7.00,11.00,320.00,$GNGGA,203012.000,4900.5229,N,00825.4355,E,1,4,5.34,129.0,M,47.9,M,,*4F
'A1',24.00,33.00,6.00,17.00,321.00,$GNGGA,203023.000,4900.5230,N,00825.4493,E,1,4,5.34,129.2,M,47.9,M,,*4A
'A1',23.00,30.00,8.00,19.00,322.00,$GNGGA,203034.000,4900.5217,N,00825.4490,E,1,4,5.35,129.3,M,47.9,M,,*4A
'A1',22.00,32.00,6.00,10.00,323.00,$GNGGA,203045.000,4900.5203,N,00825.4551,E,1,3,5.49,129.3,M,47.9,M,,*49
'A1',20.00,34.00,8.00,18.00,324.00,$GNGGA,203056.000,4900.5209,N,00825.4403,E,1,3,5.51,129.3,M,47.9,M,,*4E
'A1',20.00,31.00,8.00,14.00,325.00,$GNGGA,203107.000,4900.5160,N,00825.4293,E,1,3,5.51,129.3,M,47.9,M,,*48
'A1',22.00,31.00,9.00,10.00,326.00,$GNGGA,203118.000,4900.5154,N,00825.4316,E,1,3,5.53,129.3,M,47.9,M,,*4F
'A1',24.00,33.00,8.00,13.00,327.00,$GNGGA,203129.000,4900.5166,N,00825.4398,E,1,3,5.54,129.3,M,47.9,M,,*4D
'A1',23.00,31.00,6.00,18.00,328.00,$GNGGA,203140.000,4900.5155,N,00825.4561,E,1,3,5.55,129.2,M,47.9,M,,*42
'A1',23.00,31.00,8.00,17.00,329.00,$GNGGA,203151.000,4900.5200,N,00825.4492,E,1,4,6.56,129.3,M,47.9,M,,*4A
'A1',20.00,32.00,3.00,18.00,330.00,$GNGGA,203202.000,4900.5204,N,00825.4412,E,1,4,5.41,129.6,M,47.9,M,,*43
'A1',22.00,32.00,9.00,18.00,331.00,$GNGGA,203213.000,4900.5204,N,00825.4466,E,1,4,5.41,129.7,M,47.9,M,,*41
'A1',21.00,32.00,6.00,14.00,332.00,$GNGGA,203224.000,4900.5202,N,00825.4523,E,1,4,5.43,129.6,M,47.9,M,,*40
'A1',23.00,32.00,8.00,11.00,333.00,$GNGGA,203235.000,4900.5199,N,00825.4418,E,1,4,5.44,129.6,M,47.9,M,,*4F
'A1',22.00,34.00,5.00,19.00,334.00,$GNGGA,203246.000,4900.5202,N,00825.4352,E,1,4,5.44,129.6,M,47.9,M,,*43
'A1',23.00,31.00,4.00,18.00,335.00,$GNGGA,203257.000,4900.5200,N,00825.4363,E,1,4,5.45,129.6,M,47.9,M,,*42
'A1',24.00,30.00,8.00,12.00,336.00,$GNGGA,203308.000,4900.5211,N,00825.4470,E,1,4,5.46,129.6,M,47.9,M,,*4F
'A1',22.00,33.00,6.00,11.00,337.00,$GNGGA,203319.000,4900.5215,N,00825.4548,E,1,4,5.47,129.8,M,47.9,M,,*4E
'A1',20.00,32.00,7.00,15.00,338.00,$GNGGA,203330.000,4900.5228,N,00825.4442,E,1,4,5.47,130.0,M,47.9,M,,*40
'A1',22.00,34.00,8.00,18.00,339.00,$GNGGA,203341.000,4900.5212,N,00825.4576,E,1,4,5.49,130.2,M,47.9,M,,*45
'A1',21.00,33.00,9.00,12.00,340.00,$GNGGA,203352.000,4900.5198,N,00825.4558,E,1,4,5.49,130.3,M,47.9,M,,*4B
'A1',20.00,32.00,9.00,11.00,341.00,$GNGGA,203403.000,4900.5212,N,00825.4492,E,1,4,5.50,130.4,M,47.9,M,,*41
'A1',24.00,30.00,6.00,11.00,342.00,$GNGGA,203414.000,4900.5226,N,00825.4406,E,1,4,5.51,130.4,M,47.9,M,,*4C
'A1',20.00,32.00,4.00,15.00,343.00,$GNGGA,203425.000,4900.5230,N,00825.4238,E,1,4,5.51,130.2,M,47.9,M,,*44
'A1',20.00,32.00,2.00,15.00,344.00,$GNGGA,203436.000,4900.5219,N,00825.4288,E,1,4,5.52,130.0,M,47.9,M,,*47
'A1',20.00,32.00,7.00,18.00,345.00,$GNGGA,203447.000,4900.5208,N,00825.4414,E,1,4,5.53,129.9,M,47.9,M,,*42
'A1',20.00,31.00,6.00,15.00,346.00,$GNGGA,203458.000,4900.5201,N,00825.4667,E,1,4,5.54,129.8,M,47.9,M,,*45
'A1',22.00,30.00,2.00,16.00,347.00,$GNGGA,203509.000,4900.5228,N,00825.4457,E,1,4,5.55,129.6,M,47.9,M,,*45
'A1',21.00,34.00,9.00,18.00,348.00,$GNGGA,203520.000,4900.5231,N,00825.4297,E,1,4,5.56,129.4,M,47.9,M,,*4D
'A1',20.00,33.00,6.00,15.00,349.00,$GNGGA,203531.000,4900.5236,N,00825.4138,E,1,4,5.56,129.1,M,47.9,M,,*49
'A1',23.00,32.00,9.00,19.00,350.00,$GNGGA,203542.000,4900.5237,N,00825.4196,E,1,4,5.57,128.8,M,47.9,M,,*41
'A1',24.00,34.00,7.00,10.00,351.00,$GNGGA,203553.000,4900.5231,N,00825.4156,E,1,4,5.59,128.6,M,47.9,M,,*4B
'A1',23.00,31.00,7.00,18.00,352.00,$GNGGA,203604.000,4900.5221,N,00825.4195,E,1,3,6.17,128.5,M,47.9,M,,*49
'A1',22.00,32.00,3.00,13.00,353.00,$GNGGA,203615.000,4900.5235,N,00825.4456,E,1,3,6.16,128.5,M,47.9,M,,*47
'A1',20.00,33.00,8.00,18.00,354.00,$GNGGA,203626.000,4900.5245,N,00825.4622,E,1,3,6.16,128.4,M,47.9,M,,*40
'A1',21.00,30.00,9.00,14.00,355.00,$GNGGA,203637.000,4900.5262,N,00825.4548,E,1,3,6.16,128.4,M,47.9,M,,*4A
'A1',22.00,34.00,6.00,15.00,356.00,$GNGGA,203648.000,4900.5249,N,00825.4481,E,1,3,6.16,128.5,M,47.9,M,,*4E
'A1',22.00,30.00,8.00,13.00,357.00,$GNGGA,203659.000,4900.5237,N,00825.4464,E,1,3,6.16,128.5,M,47.9,M,,*4C
'A1',21.00,32.00,4.00,16.00,358.00,$GNGGA,203710.000,4900.5226,N,00825.4384,E,1,3,6.17,128.5,M,47.9,M,,*48
'A1',22.00,32.00,3.00,13.00,359.00,$GNGGA,203721.000,4900.5185,N,00825.4357,E,1,3,6.16,128.4,M,47.9,M,,*4E
'A1',24.00,32.00,7.00,17.00,360.00,$GNGGA,203732.000,4900.5209,N,00825.4327,E,1,3,6.17,128.4,M,47.9,M,,*4D
'A1',21.00,32.00,4.00,10.00,361.00,$GNGGA,203743.000,4900.5216,N,00825.4470,E,1,3,6.16,128.3,M,47.9,M,,*46
'A1',23.00,34.00,3.00,11.00,362.00,$GNGGA,203754.000,4900.5233,N,00825.4545,E,1,3,6.17,128.2,M,47.9,M,,*40
'A1',24.00,32.00,9.00,13.00,363.00,$GNGGA,203805.000,4900.5240,N,00825.4633,E,1,3,6.17,128.1,M,47.9,M,,*4E
'A1',21.00,34.00,7.00,11.00,364.00,$GNGGA,203816.000,4900.5221,N,00825.4562,E,1,3,6.16,128.1,M,47.9,M,,*4D
'A1',24.00,31.00,2.00,11.00,365.00,$GNGGA,203827.000,4900.5221,N,00825.4462,E,1,3,6.17,128.1,M,47.9,M,,*4F
'A1',23.00,30.00,5.00,12.00,366.00,$GNGGA,203838.000,4900.5223,N,00825.4456,E,1,3,6.18,128.1,M,47.9,M,,*4B
'A1',24.00,31.00,8.00,19.00,367.00,$GNGGA,203849.000,4900.5225,N,00825.4527,E,1,3,6.17,128.1,M,47.9,M,,*43
'A1',21.00,34.00,8.00,12.00,368.00,$GNGGA,203900.000,4900.5232,N,00825.4502,E,6,3,6.17,128.1,M,47.9,M,,*49
'A1',20.00,34.00,5.00,15.00,369.00,$GNGGA,203911.000,4900.5230,N,00825.4519,E,1,3,6.17,128.1,M,47.9,M,,*46
'A1',23.00,34.00,8.00,18.00,370.00,$GNGGA,203922.000,4900.5225,N,00825.4528,E,1,3,6.17,128.1,M,47.9,M,,*40
'A1',20.00,34.00,5.00,19.00,371.00,$GNGGA,203933.000,4900.5205,N,00825.4555,E,1,3,6.16,128.1,M,47.9,M,,*49
'A1',23.00,33.00,3.00,19.00,372.00,$GNGGA,203944.000,4900.5209,N,00825.4538,E,1,3,6.18,128.2,M,47.9,M,,*43
'A1',24.00,32.00,3.00,13.00,373.00,$GNGGA,203955.000,4900.5212,N,00825.4534,E,1,3,6.18,128.1,M,47.9,M,,*46
'A1',23.00,30.00,5.00,17.00,374.00,$GNGGA,204006.000,4900.5229,N,00825.4509,E,1,3,6.17,128.0,M,47.9,M,,*46
'A1',21.00,32.00,5.00,16.00,375.00,$GNGGA,204017.000,4900.5263,N,00825.4299,E,1,3,6.18,128.0,M,47.9,M,,*49
'A1',20.00,34.00,3.00,17.00,376.00,$GNGGA,204028.000,4900.5308,N,00825.3878,E,1,3,6.18,128.0,M,47.9,M,,*4B
'A1',21.00,31.00,2.00,12.00,377.00,$GNGGA,204039.000,4900.5358,N,00825.3452,E,1,3,6.18,128.0,M,47.9,M,,*4A
'A1',24.00,32.00,2.00,17.00,378.00,$GNGGA,204050.000,4900.5384,N,00825.3099,E,0,2,,128.0,M,47.9,M,,*56
'A1',20.00,30.00,6.00,14.00,379.00,$GNGGA,204101.000,4900.5400,N,00825.2964,E,6,2,99.99,127.9,M,47.9,M,,*7C
'A1',23.00,30.00,9.00,18.00,380.00,$GNGGA,204112.000,4900.5401,N,00825.2961,E,0,2,,127.7,M,47.9,M,,*5C
'A1',22.00,32.00,9.00,18.00,381.00,$GNGGA,204123.000,4900.5401,N,00825.2961,E,6,2,99.99,127.7,M,47.9,M,,*76
'A1',24.00,34.00,3.00,18.00,382.00,$GNGGA,204134.000,4900.5401,N,00825.2962,E,0,2,,127.7,M,47.9,M,,*5B
'A1',23.00,33.00,8.00,17.00,383.00,$GNGGA,204145.000,4900.5401,N,00825.2962,E,6,2,99.99,127.7,M,47.9,M,,*75
'A1',21.00,33.00,6.00,12.00,384.00,$GNGGA,204156.000,4900.5401,N,00825.2962,E,6,2,99.99,127.7,M,47.9,M,,*77
'A1',24.00,30.00,6.00,17.00,385.00,$GNGGA,204207.000,4900.5401,N,00825.2962,E,6,2,99.99,127.7,M,47.9,M,,*70
'A1',20.00,32.00,4.00,16.00,386.00,$GNGGA,204218.000,4900.5401,N,00825.2962,E,0,2,,127.7,M,47.9,M,,*56
'A1',21.00,32.00,4.00,17.00,387.00,$GNGGA,204229.000,4900.5401,N,00825.2962,E,6,2,99.99,127.7,M,47.9,M,,*7C
'A1',21.00,33.00,9.00,18.00,388.00,$GNGGA,204240.000,4900.5401,N,00825.2961,E,1,3,6.18,127.7,M,47.9,M,,*49
'A1',24.00,34.00,4.00,11.00,389.00,$GNGGA,204251.000,4900.5404,N,00825.2959,E,6,2,99.99,127.7,M,47.9,M,,*7E
'A1',22.00,32.00,8.00,12.00,390.00,$GNGGA,204302.000,4900.5402,N,00825.2957,E,0,2,,127.7,M,47.9,M,,*59
'A1',23.00,33.00,8.00,12.00,391.00,$GNGGA,204313.000,4900.5404,N,00825.2963,E,1,3,6.18,127.8,M,47.9,M,,*46
'A1',21.00,32.00,9.00,11.00,392.00,$GNGGA,204324.000,4900.5402,N,00825.2966,E,6,3,6.18,127.7,M,47.9,M,,*49
'A1',21.00,34.00,7.00,11.00,393.00,$GNGGA,204335.000,4900.5404,N,00825.2970,E,1,3,6.19,127.6,M,47.9,M,,*4F
'A1',24.00,31.00,7.00,15.00,394.00,$GNGGA,204346.000,4900.5401,N,00825.2969,E,1,3,6.19,127.7,M,47.9,M,,*47
'A1',23.00,30.00,4.00,15.00,395.00,$GNGGA,204357.000,4900.5404,N,00825.2976,E,1,3,6.18,127.8,M,47.9,M,,*42
'A1',23.00,31.00,4.00,17.00,396.00,$GNGGA,204408.000,4900.5401,N,00825.2973,E,6,3,6.18,127.8,M,47.9,M,,*48
'A1',23.00,33.00,7.00,12.00,397.00,$GNGGA,204419.000,4900.5403,N,00825.2977,E,1,3,6.19,127.8,M,47.9,M,,*48
'A1',23.00,34.00,4.00,12.00,398.00,$GNGGA,204430.000,4900.5401,N,00825.2974,E,1,3,6.18,127.8,M,47.9,M,,*43
SSH-2.0-Renci.SshNet.SshClient.0.0.1
'A1',21.00,31.00,4.00,15.00,399.00,$GNGGA,204441.000,4900.5403,N,00825.2979,E,1,3,6.18,127.8,M,47.9,M,,*4A
'A1',23.00,31.00,9.00,19.00,400.00,$GNGGA,204452.000,4900.5401,N,00825.2976,E,1,3,6.18,127.8,M,47.9,M,,*45
'A1',21.00,32.00,7.00,19.00,401.00,$GNGGA,204503.000,4900.5401,N,00825.2984,E,1,3,6.19,127.9,M,47.9,M,,*4D
'A1',21.00,30.00,5.00,18.00,402.00,$GNGGA,204514.000,4900.5253,N,00825.3175,E,1,3,6.20,128.0,M,47.9,M,,*41
'A1',20.00,34.00,5.00,12.00,403.00,$GNGGA,204525.000,4900.5210,N,00825.4093,E,1,3,6.19,128.0,M,47.9,M,,*40
'A1',21.00,30.00,4.00,10.00,404.00,$GNGGA,204536.000,4900.5269,N,00825.4672,E,1,3,6.19,128.0,M,47.9,M,,*45
'A1',20.00,32.00,8.00,18.00,405.00,$GNGGA,204547.000,4900.5317,N,00825.5297,E,1,3,6.19,128.1,M,47.9,M,,*44
'A1',20.00,34.00,4.00,16.00,406.00,$GNGGA,204558.000,4900.5341,N,00825.5528,E,1,3,6.19,128.1,M,47.9,M,,*4A
'A1',23.00,34.00,4.00,11.00,407.00,$GNGGA,204609.000,4900.5324,N,00825.5225,E,1,3,6.19,128.1,M,47.9,M,,*44
'A1',22.00,33.00,2.00,10.00,408.00,$GNGGA,204620.000,4900.5271,N,00825.4961,E,1,3,6.19,128.0,M,47.9,M,,*45
'A1',24.00,32.00,2.00,11.00,409.00,$GNGGA,204631.000,4900.5236,N,00825.5037,E,1,3,6.19,128.1,M,47.9,M,,*4C
'A1',24.00,34.00,4.00,14.00,410.00,$GNGGA,204642.000,4900.5252,N,00825.4747,E,1,3,6.19,128.2,M,47.9,M,,*48
'A1',21.00,31.00,8.00,14.00,411.00,$GNGGA,204653.000,4900.5221,N,00825.4642,E,1,3,6.19,128.2,M,47.9,M,,*48
'A1',24.00,30.00,9.00,11.00,412.00,$GNGGA,204704.000,4900.5215,N,00825.4583,E,1,3,6.19,128.3,M,47.9,M,,*43
'A1',22.00,33.00,2.00,19.00,413.00,$GNGGA,204715.000,4900.5223,N,00825.4644,E,1,3,6.19,128.3,M,47.9,M,,*4E
'A1',23.00,33.00,7.00,14.00,414.00,$GNGGA,204726.000,4900.5241,N,00825.5028,E,1,3,6.19,128.4,M,47.9,M,,*40
'A1',22.00,33.00,6.00,16.00,415.00,$GNGGA,204737.000,4900.5249,N,00825.4887,E,1,3,6.20,128.4,M,47.9,M,,*4E
'A1',21.00,30.00,8.00,19.00,416.00,$GNGGA,204748.000,4900.5243,N,00825.4855,E,1,3,6.19,128.6,M,47.9,M,,*4B
SSH-2.0-Renci.SshNet.SshClient.0.0.1
'A1',22.00,30.00,8.00,11.00,417.00,$GNGGA,204759.000,4900.5264,N,00825.4750,E,1,3,6.19,128.6,M,47.9,M,,*44
'A1',22.00,33.00,2.00,15.00,418.00,$GNGGA,204810.000,4900.5287,N,00825.4685,E,1,3,6.19,128.6,M,47.9,M,,*42
'A1',23.00,31.00,8.00,19.00,419.00,$GNGGA,204821.000,4900.5264,N,00825.4588,E,1,3,6.20,128.6,M,47.9,M,,*49
'A1',21.00,34.00,3.00,15.00,420.00,$GNGGA,204832.000,4900.5301,N,00825.4581,E,1,3,6.20,128.6,M,47.9,M,,*40
'A1',24.00,30.00,2.00,10.00,421.00,$GNGGA,204843.000,4900.5283,N,00825.4680,E,1,3,6.19,128.5,M,47.9,M,,*46
'A1',23.00,30.00,9.00,19.00,422.00,$GNGGA,204854.000,4900.5247,N,00825.4682,E,1,3,6.19,128.5,M,47.9,M,,*4A
'A1',24.00,31.00,6.00,17.00,423.00,$GNGGA,204905.000,4900.5232,N,00825.4687,E,1,3,6.21,128.6,M,47.9,M,,*40
'A1',23.00,32.00,3.00,17.00,424.00,$GNGGA,204916.000,4900.5230,N,00825.4683,E,1,3,6.19,128.6,M,47.9,M,,*4F
'A1',23.00,30.00,5.00,12.00,425.00,$GNGGA,204927.000,4900.5231,N,00825.4686,E,1,3,6.20,128.6,M,47.9,M,,*43
'A1',21.00,33.00,6.00,11.00,426.00,$GNGGA,204938.000,4900.5231,N,00825.4691,E,1,3,6.20,128.5,M,47.9,M,,*48
'A1',20.00,31.00,2.00,11.00,427.00,$GNGGA,204949.000,4900.5231,N,00825.4687,E,1,3,6.19,128.5,M,47.9,M,,*43
'A1',22.00,32.00,2.00,13.00,428.00,$GNGGA,205000.000,4900.5236,N,00825.4688,E,6,3,6.21,128.5,M,47.9,M,,*42
'A1',23.00,33.00,3.00,11.00,429.00,$GNGGA,205011.000,4900.5236,N,00825.4688,E,1,3,6.20,128.5,M,47.9,M,,*44
'A1',21.00,30.00,3.00,11.00,430.00,$GNGGA,205022.000,4900.5235,N,00825.4690,E,1,3,6.20,128.5,M,47.9,M,,*4E
'A1',22.00,32.00,8.00,15.00,431.00,$GNGGA,205033.000,4900.5235,N,00825.4691,E,1,3,6.21,128.5,M,47.9,M,,*4E
'A1',24.00,31.00,2.00,11.00,432.00,$GNGGA,205044.000,4900.5236,N,00825.4690,E,1,3,6.20,128.5,M,47.9,M,,*4D
'A1',24.00,34.00,5.00,16.00,433.00,$GNGGA,205055.000,4900.5235,N,00825.4693,E,1,3,6.21,128.5,M,47.9,M,,*4C
'A1',23.00,33.00,6.00,15.00,434.00,$GNGGA,205106.000,4900.5235,N,00825.4695,E,1,3,6.19,128.5,M,47.9,M,,*46
'A1',23.00,30.00,8.00,15.00,435.00,$GNGGA,205117.000,4900.5235,N,00825.4692,E,1,3,6.20,128.5,M,47.9,M,,*4B
'A1',21.00,31.00,6.00,12.00,436.00,$GNGGA,205128.000,4900.5246,N,00825.4709,E,1,3,6.20,128.5,M,47.9,M,,*40
'A1',24.00,33.00,6.00,10.00,437.00,$GNGGA,205139.000,4900.5238,N,00825.4725,E,1,3,6.20,128.4,M,47.9,M,,*46
'A1',20.00,30.00,7.00,18.00,438.00,$GNGGA,205150.000,4900.5213,N,00825.4707,E,1,3,6.20,128.3,M,47.9,M,,*47
'A1',20.00,33.00,9.00,16.00,439.00,$GNGGA,205201.000,4900.5249,N,00825.4699,E,1,3,6.20,128.3,M,47.9,M,,*49
'A1',21.00,33.00,7.00,19.00,440.00,$GNGGA,205212.000,4900.5260,N,00825.4686,E,6,3,6.20,128.4,M,47.9,M,,*4E
'A1',24.00,31.00,2.00,12.00,441.00,$GNGGA,205223.000,4900.5259,N,00825.4707,E,1,3,6.20,128.4,M,47.9,M,,*49
'A1',20.00,32.00,6.00,11.00,442.00,$GNGGA,205234.000,4900.5283,N,00825.4728,E,1,3,6.20,128.4,M,47.9,M,,*45
'A1',22.00,30.00,2.00,14.00,443.00,$GNGGA,205245.000,4900.5339,N,00825.4868,E,1,3,6.21,128.4,M,47.9,M,,*49
'A1',20.00,31.00,3.00,10.00,444.00,$GNGGA,205256.000,4900.5332,N,00825.4928,E,1,3,6.21,128.5,M,47.9,M,,*44
'A1',21.00,32.00,8.00,14.00,445.00,$GNGGA,205307.000,4900.5331,N,00825.4824,E,1,3,6.22,128.6,M,47.9,M,,*4F
'A1',24.00,30.00,2.00,15.00,446.00,$GNGGA,205318.000,4900.5259,N,00825.4838,E,1,3,6.21,128.7,M,47.9,M,,*41
'A1',20.00,30.00,7.00,18.00,447.00,$GNGGA,205329.000,4900.5129,N,00825.4749,E,1,3,6.20,128.9,M,47.9,M,,*41
'A1',23.00,32.00,6.00,11.00,448.00,$GNGGA,205340.000,4900.5072,N,00825.4478,E,1,3,6.21,129.0,M,47.9,M,,*49
'A1',23.00,33.00,5.00,15.00,449.00,$GNGGA,205351.000,4900.5168,N,00825.4259,E,1,3,6.21,129.1,M,47.9,M,,*47
'A1',23.00,30.00,5.00,16.00,450.00,$GNGGA,205402.000,4900.5301,N,00825.4193,E,1,3,6.21,129.2,M,47.9,M,,*4D
'A1',24.00,30.00,8.00,17.00,451.00,$GNGGA,205413.000,4900.5438,N,00825.4768,E,1,3,6.21,129.3,M,47.9,M,,*43
'A1',22.00,30.00,7.00,17.00,452.00,$GNGGA,205424.000,4900.5418,N,00825.5211,E,1,3,6.21,129.4,M,47.9,M,,*48
'A1',24.00,33.00,2.00,16.00,453.00,$GNGGA,205435.000,4900.5397,N,00825.5094,E,1,3,6.22,129.5,M,47.9,M,,*45
'A1',23.00,32.00,9.00,18.00,454.00,$GNGGA,205446.000,4900.5345,N,00825.4964,E,1,3,6.21,129.7,M,47.9,M,,*48
'A1',21.00,31.00,9.00,18.00,455.00,$GNGGA,205457.000,4900.5347,N,00825.4965,E,1,3,6.21,129.9,M,47.9,M,,*45
'A1',21.00,30.00,5.00,11.00,456.00,$GNGGA,205508.000,4900.5342,N,00825.4954,E,6,2,99.99,130.0,M,47.9,M,,*7B
'A1',22.00,32.00,4.00,12.00,457.00,$GNGGA,205519.000,4900.5341,N,00825.4955,E,0,0,,130.1,M,47.9,M,,*52
'A1',21.00,31.00,3.00,14.00,458.00,$GNGGA,205530.000,4900.5342,N,00825.4957,E,0,2,,130.0,M,47.9,M,,*5B
'A1',20.00,31.00,3.00,18.00,459.00,$GNGGA,205541.000,4900.5345,N,00825.4958,E,0,2,,130.0,M,47.9,M,,*55
'A1',21.00,32.00,6.00,13.00,460.00,$GNGGA,205552.000,4900.5342,N,00825.4958,E,0,2,,130.0,M,47.9,M,,*50
'A1',22.00,32.00,4.00,11.00,461.00,$GNGGA,205603.000,4900.5343,N,00825.4958,E,0,2,,130.1,M,47.9,M,,*57
'A1',21.00,34.00,2.00,15.00,462.00,$GNGGA,205614.000,4900.5342,N,00825.4958,E,0,2,,130.0,M,47.9,M,,*51
'A1',20.00,32.00,4.00,12.00,463.00,$GNGGA,205625.000,4900.5344,N,00825.4958,E,0,2,,130.1,M,47.9,M,,*54
'A1',21.00,30.00,3.00,11.00,464.00,$GNGGA,205636.000,4900.5342,N,00825.4957,E,0,2,,130.0,M,47.9,M,,*5E
'A1',20.00,34.00,6.00,14.00,465.00,$GNGGA,205647.000,4900.5343,N,00825.4957,E,0,2,,130.1,M,47.9,M,,*58
'A1',23.00,31.00,2.00,15.00,466.00,$GNGGA,205658.000,4900.5342,N,00825.4958,E,0,2,,130.0,M,47.9,M,,*59
'A1',23.00,32.00,9.00,19.00,467.00,$GNGGA,205709.000,4900.5343,N,00825.4957,E,0,2,,130.2,M,47.9,M,,*50
'A1',23.00,31.00,3.00,11.00,468.00,$GNGGA,205720.000,4900.5341,N,00825.4959,E,1,3,6.22,130.1,M,47.9,M,,*4C
'A1',22.00,30.00,7.00,16.00,469.00,$GNGGA,205731.000,4900.5345,N,00825.4957,E,1,3,6.21,129.9,M,47.9,M,,*45
'A1',22.00,30.00,2.00,16.00,470.00,$GNGGA,205742.000,4900.5304,N,00825.4956,E,1,3,6.22,129.6,M,47.9,M,,*49
'A1',24.00,34.00,9.00,19.00,471.00,$GNGGA,205753.000,4900.5278,N,00825.4850,E,1,3,6.22,129.2,M,47.9,M,,*40
'A1',24.00,34.00,3.00,15.00,472.00,$GNGGA,205804.000,4900.5278,N,00825.4612,E,1,3,6.23,128.9,M,47.9,M,,*4E
'A1',23.00,33.00,8.00,12.00,473.00,$GNGGA,205815.000,4900.5259,N,00825.4134,E,1,3,6.22,128.6,M,47.9,M,,*40
'A1',20.00,30.00,5.00,15.00,474.00,$GNGGA,205826.000,4900.5241,N,00825.4274,E,1,3,6.23,128.4,M,47.9,M,,*4D
SSH-2.0-ssh2js1.4.0
'A1',23.00,32.00,8.00,19.00,475.00,$GNGGA,205837.000,4900.5238,N,00825.4453,E,1,3,6.22,128.4,M,47.9,M,,*41
'A1',21.00,34.00,6.00,13.00,476.00,$GNGGA,205848.000,4900.5255,N,00825.4490,E,1,3,6.22,128.4,M,47.9,M,,*4D
'A1',22.00,30.00,3.00,11.00,477.00,$GNGGA,205859.000,4900.5240,N,00825.4667,E,1,3,6.22,128.4,M,47.9,M,,*43
'A1',24.00,34.00,8.00,17.00,478.00,$GNGGA,205910.000,4900.5242,N,00825.4591,E,1,3,6.22,128.3,M,47.9,M,,*40
'A1',23.00,30.00,6.00,18.00,479.00,$GNGGA,205921.000,4900.5239,N,00825.4542,E,1,3,6.22,128.2,M,47.9,M,,*41
'A1',24.00,34.00,7.00,17.00,480.00,$GNGGA,205932.000,4900.5244,N,00825.4592,E,1,3,6.22,128.2,M,47.9,M,,*44
'A1',23.00,30.00,8.00,12.00,481.00,$GNGGA,205943.000,4900.5224,N,00825.4517,E,1,3,6.22,128.1,M,47.9,M,,*4A
'A1',21.00,34.00,8.00,17.00,482.00,$GNGGA,205954.000,4900.5224,N,00825.4528,E,1,3,6.22,128.1,M,47.9,M,,*40
'A1',24.00,32.00,9.00,14.00,483.00,$GNGGA,210005.000,4900.5240,N,00825.4464,E,1,3,6.22,128.1,M,47.9,M,,*42
'A1',21.00,30.00,5.00,18.00,484.00,$GNGGA,210016.000,4900.5244,N,00825.4743,E,1,3,6.22,128.1,M,47.9,M,,*42
'A1',20.00,33.00,2.00,10.00,485.00,$GNGGA,210027.000,4900.5247,N,00825.4961,E,1,3,6.22,128.1,M,47.9,M,,*4D
'A1',23.00,30.00,8.00,10.00,486.00,$GNGGA,210038.000,4900.5239,N,00825.5154,E,1,3,6.22,128.1,M,47.9,M,,*45
'A1',20.00,34.00,7.00,16.00,487.00,$GNGGA,210049.000,4900.5232,N,00825.5010,E,1,3,6.22,128.2,M,47.9,M,,*4A
'A1',24.00,31.00,6.00,17.00,488.00,$GNGGA,210100.000,4900.5253,N,00825.4807,E,1,3,6.23,128.2,M,47.9,M,,*4F
SSH-2.0-Renci.SshNet.SshClient.0.0.1
'A1',23.00,30.00,8.00,16.00,489.00,$GNGGA,210111.000,4900.5249,N,00825.4584,E,1,3,6.23,128.2,M,47.9,M,,*42
'A1',23.00,34.00,5.00,12.00,490.00,$GNGGA,210122.000,4900.5239,N,00825.4351,E,1,3,6.23,128.2,M,47.9,M,,*4B
'A1',21.00,34.00,4.00,15.00,491.00,$GNGGA,210133.000,4900.5244,N,00825.4442,E,1,3,6.23,128.2,M,47.9,M,,*44
'A1',20.00,33.00,3.00,12.00,492.00,$GNGGA,210144.000,4900.5244,N,00825.4601,E,1,3,6.24,128.2,M,47.9,M,,*46
'A1',21.00,32.00,3.00,10.00,493.00,$GNGGA,210155.000,4900.5245,N,00825.4467,E,1,3,6.23,128.2,M,47.9,M,,*42
'A1',22.00,31.00,7.00,10.00,494.00,$GNGGA,210206.000,4900.5253,N,00825.4395,E,1,3,6.24,128.2,M,47.9,M,,*4D
'A1',22.00,32.00,9.00,11.00,495.00,$GNGGA,210217.000,4900.5232,N,00825.4274,E,1,3,6.23,128.2,M,47.9,M,,*43
'A1',23.00,31.00,7.00,19.00,496.00,$GNGGA,210228.000,4900.5236,N,00825.4364,E,1,3,6.22,128.2,M,47.9,M,,*4A
SSH-2.0-Renci.SshNet.SshClient.0.0.1
'A1',20.00,33.00,9.00,19.00,497.00,$GNGGA,210239.000,4900.5219,N,00825.4614,E,1,3,6.23,128.2,M,47.9,M,,*44
'A1',20.00,33.00,6.00,19.00,498.00,$GNGGA,210250.000,4900.5223,N,00825.4550,E,1,3,6.24,128.2,M,47.9,M,,*46
'A1',20.00,34.00,4.00,18.00,499.00,$GNGGA,210301.000,4900.5239,N,00825.4447,E,1,3,6.23,128.1,M,47.9,M,,*4B
'A1',23.00,31.00,6.00,13.00,500.00,$GNGGA,210312.000,4900.5223,N,00825.4336,E,1,3,6.23,128.1,M,47.9,M,,*43
'A1',24.00,32.00,4.00,11.00,501.00,$GNGGA,210323.000,4900.5215,N,00825.4039,E,1,3,6.23,128.1,M,47.9,M,,*48
'A1',24.00,30.00,4.00,11.00,502.00,$GNGGA,210334.000,4900.5225,N,00825.4204,E,1,3,6.24,128.1,M,47.9,M,,*46
'A1',20.00,34.00,8.00,13.00,503.00,$GNGGA,210345.000,4900.5259,N,00825.3897,E,1,3,6.23,128.1,M,47.9,M,,*4B
'A1',23.00,33.00,5.00,13.00,504.00,$GNGGA,210356.000,4900.5297,N,00825.3276,E,1,3,6.23,128.0,M,47.9,M,,*4F
'A1',24.00,30.00,4.00,10.00,505.00,$GNGGA,210407.000,4900.5312,N,00825.2523,E,1,3,6.24,127.9,M,47.9,M,,*47
'A1',21.00,31.00,3.00,18.00,506.00,$GNGGA,210418.000,4900.5350,N,00825.1577,E,1,3,6.23,127.7,M,47.9,M,,*44
'A1',21.00,31.00,5.00,15.00,507.00,$GNGGA,210429.000,4900.5391,N,00825.0238,E,6,2,99.99,127.6,M,47.9,M,,*76
'A1',24.00,34.00,3.00,19.00,508.00,$GNGGA,210440.000,4900.5409,N,00824.9234,E,0,2,,127.5,M,47.9,M,,*50
'A1',21.00,31.00,8.00,10.00,509.00,$GNGGA,210451.000,4900.5415,N,00824.8819,E,0,2,,127.5,M,47.9,M,,*59
'A1',24.00,34.00,8.00,16.00,510.00,$GNGGA,210502.000,4900.5419,N,00824.8785,E,0,2,,127.5,M,47.9,M,,*58
'A1',20.00,30.00,3.00,17.00,511.00,$GNGGA,210513.000,4900.5418,N,00824.8786,E,0,2,,127.5,M,47.9,M,,*5A
'A1',21.00,32.00,7.00,15.00,512.00,$GNGGA,210524.000,4900.5418,N,00824.8787,E,0,2,,127.5,M,47.9,M,,*5F
'A1',23.00,34.00,7.00,19.00,513.00,$GNGGA,210535.000,4900.5418,N,00824.8787,E,0,2,,127.5,M,47.9,M,,*5F
'A1',23.00,34.00,4.00,12.00,514.00,$GNGGA,210546.000,4900.5418,N,00824.8786,E,0,2,,127.5,M,47.9,M,,*5A
'A1',24.00,33.00,5.00,17.00,515.00,$GNGGA,210557.000,4900.5418,N,00824.8786,E,0,2,,127.5,M,47.9,M,,*5A
'A1',24.00,32.00,7.00,11.00,516.00,$GNGGA,210608.000,4900.5418,N,00824.8786,E,6,2,99.99,127.5,M,47.9,M,,*7B
'A1',21.00,31.00,5.00,16.00,517.00,$GNGGA,210619.000,4900.5418,N,00824.8786,E,0,2,,127.5,M,47.9,M,,*53
'A1',23.00,31.00,8.00,15.00,518.00,$GNGGA,210630.000,4900.5418,N,00824.8787,E,0,2,,127.5,M,47.9,M,,*59
'A1',22.00,32.00,9.00,10.00,519.00,$GNGGA,210641.000,4900.5418,N,00824.8787,E,0,2,,127.5,M,47.9,M,,*5F
'A1',21.00,31.00,2.00,17.00,520.00,$GNGGA,210652.000,4900.5418,N,00824.8787,E,0,2,,127.5,M,47.9,M,,*5D
'A1',23.00,31.00,3.00,10.00,521.00,$GNGGA,210703.000,4900.5418,N,00824.8787,E,0,2,,127.5,M,47.9,M,,*58
'A1',24.00,32.00,6.00,12.00,522.00,$GNGGA,210714.000,4900.5418,N,00824.8787,E,0,2,,127.5,M,47.9,M,,*5E
'A1',20.00,34.00,7.00,18.00,523.00,$GNGGA,210725.000,4900.5418,N,00824.8788,E,0,2,,127.5,M,47.9,M,,*53
'A1',24.00,34.00,2.00,11.00,524.00,$GNGGA,210736.000,4900.5418,N,00824.8787,E,0,2,,127.5,M,47.9,M,,*5E
'A1',22.00,32.00,4.00,17.00,525.00,$GNGGA,210747.000,4900.5418,N,00824.8787,E,1,3,6.25,127.5,M,47.9,M,,*47
'A1',21.00,34.00,3.00,10.00,526.00,$GNGGA,210758.000,4900.5414,N,00824.8795,E,1,3,6.25,127.7,M,47.9,M,,*44
'A1',24.00,34.00,3.00,17.00,527.00,$GNGGA,210809.000,4900.5407,N,00824.8802,E,1,3,6.26,127.8,M,47.9,M,,*40
'A1',20.00,31.00,5.00,18.00,528.00,$GNGGA,210820.000,4900.5335,N,00824.8846,E,1,3,6.25,128.0,M,47.9,M,,*49
'A1',21.00,30.00,9.00,18.00,529.00,$GNGGA,210831.000,4900.5158,N,00824.9555,E,1,3,6.26,128.6,M,47.9,M,,*4B
'A1',20.00,31.00,6.00,14.00,530.00,$GNGGA,210842.000,4900.5129,N,00825.1912,E,0,3,,129.3,M,47.9,M,,*56
'A1',24.00,30.00,8.00,16.00,531.00,$GNGGA,210853.000,4900.5208,N,00825.4535,E,0,3,,130.0,M,47.9,M,,*51
'A1',22.00,33.00,4.00,10.00,532.00,$GNGGA,210904.000,4900.5259,N,00825.5679,E,0,3,,130.5,M,47.9,M,,*59
'A1',21.00,30.00,8.00,15.00,533.00,$GNGGA,210915.000,4900.5284,N,00825.5698,E,0,3,,130.9,M,47.9,M,,*5A
'A1',22.00,33.00,3.00,11.00,534.00,$GNGGA,210926.000,4900.5289,N,00825.5211,E,1,3,6.27,131.2,M,47.9,M,,*44
'A1',21.00,32.00,4.00,19.00,535.00,$GNGGA,210937.000,4900.5259,N,00825.4910,E,1,3,6.26,131.4,M,47.9,M,,*45
'A1',23.00,33.00,2.00,12.00,536.00,$GNGGA,210950.000,4900.5244,N,00825.5412,E,1,3,6.26,131.6,M,47.9,M,,*44
'A1',24.00,31.00,7.00,17.00,537.00,$GNGGA,211001.000,4900.5255,N,00825.5390,E,1,3,6.27,131.7,M,47.9,M,,*45
'A1',23.00,34.00,8.00,14.00,538.00,$GNGGA,211012.000,4900.5285,N,00825.5137,E,1,3,6.26,131.6,M,47.9,M,,*45
'A1',21.00,31.00,7.00,19.00,539.00,$GNGGA,211023.000,4900.5274,N,00825.4985,E,1,3,6.28,131.3,M,47.9,M,,*42
'A1',23.00,34.00,8.00,15.00,540.00,$GNGGA,211034.000,4900.5276,N,00825.4200,E,1,3,6.26,131.0,M,47.9,M,,*4D
'A1',20.00,33.00,5.00,18.00,541.00,$GNGGA,211045.000,4900.5285,N,00825.3427,E,6,2,99.99,130.6,M,47.9,M,,*70
'A1',22.00,32.00,3.00,15.00,542.00,$GNGGA,211056.000,4900.5268,N,00825.2852,E,0,2,,130.3,M,47.9,M,,*53
SSH-2.0-Renci.SshNet.SshClient.0.0.1
'A1',21.00,32.00,2.00,17.00,543.00,$GNGGA,211107.000,4900.5276,N,00825.2659,E,0,2,,130.1,M,47.9,M,,*5E
'A1',21.00,33.00,7.00,10.00,544.00,$GNGGA,211118.000,4900.5277,N,00825.2650,E,0,2,,130.1,M,47.9,M,,*58
'A1',20.00,32.00,5.00,18.00,545.00,$GNGGA,211129.000,4900.5276,N,00825.2649,E,0,2,,130.1,M,47.9,M,,*53
'A1',21.00,33.00,4.00,13.00,546.00,$GNGGA,211140.000,4900.5277,N,00825.2649,E,0,2,,130.2,M,47.9,M,,*5E
'A1',24.00,31.00,9.00,18.00,547.00,$GNGGA,211151.000,4900.5276,N,00825.2649,E,0,2,,130.1,M,47.9,M,,*5C
'A1',21.00,32.00,9.00,15.00,548.00,$GNGGA,211202.000,4900.5277,N,00825.2649,E,0,2,,130.2,M,47.9,M,,*5B
'A1',22.00,32.00,2.00,17.00,549.00,$GNGGA,211213.000,4900.5275,N,00825.2649,E,0,2,,130.1,M,47.9,M,,*5A
'A1',23.00,31.00,7.00,15.00,550.00,$GNGGA,211224.000,4900.5277,N,00825.2649,E,0,2,,130.2,M,47.9,M,,*5F
'A1',23.00,30.00,5.00,11.00,551.00,$GNGGA,211235.000,4900.5275,N,00825.2642,E,1,3,99.99,130.2,M,47.9,M,,*78
'A1',21.00,33.00,3.00,13.00,552.00,$GNGGA,211246.000,4900.5279,N,00825.2629,E,1,3,99.99,130.0,M,47.9,M,,*7F
'A1',22.00,30.00,5.00,11.00,553.00,$GNGGA,211257.000,4900.5276,N,00825.2626,E,1,4,9.61,130.1,M,47.9,M,,*47
'A1',23.00,32.00,3.00,17.00,554.00,$GNGGA,211308.000,4900.5285,N,00825.2637,E,1,4,5.74,129.8,M,47.9,M,,*49
'A1',24.00,32.00,9.00,12.00,555.00,$GNGGA,211319.000,4900.5287,N,00825.2787,E,1,4,5.71,129.8,M,47.9,M,,*44
'A1',21.00,33.00,3.00,18.00,556.00,$GNGGA,211330.000,4900.5285,N,00825.3085,E,1,4,5.70,129.8,M,47.9,M,,*48
'A1',21.00,33.00,9.00,15.00,557.00,$GNGGA,211341.000,4900.5261,N,00825.3387,E,0,4,,130.0,M,47.9,M,,*58
'A1',20.00,30.00,9.00,19.00,558.00,$GNGGA,211352.000,4900.5270,N,00825.4657,E,1,4,5.67,130.2,M,47.9,M,,*4C
'A1',20.00,33.00,6.00,12.00,559.00,$GNGGA,211403.000,4900.5282,N,00825.4715,E,1,4,5.67,130.1,M,47.9,M,,*46
'A1',22.00,30.00,5.00,14.00,560.00,$GNGGA,211414.000,4900.5264,N,00825.4661,E,1,4,5.64,129.7,M,47.9,M,,*47
