Initializing A9G...

【2021-40-21 17:40:58 711】Res
【2021-40-21 17:40:58 720】p:
【2021-40-21 17:40:58 730】

+CREG: 2
【2021-40-21 17:40:58 742】

^STN: 37
【2021-40-21 17:40:58 756】
+CTZV:21/12
【2021-40-21 17:40:58 773】/21,16:40:57,+0
【2021-40-21 17:40:58 787】1
+CIEV: "Comp
【2021-40-21 17:40:58 802】lete the Charge
【2021-40-21 17:40:58 815】",100%



【2021-40-21 17:40:58 829】+CREG: 1


【2021-40-21 17:40:58 847】A9/A9G
V02.02.201
【2021-40-21 17:40:58 863】90915R
Ai_Thin
【2021-40-21 17:40:58 879】ker_Co._Ltd.
R
【2021-40-21 17:40:58 898】EADY
----
Init R
【2021-40-21 17:40:58 916】eady Done!
Resp:

----
Resp:
AT

OK
----
Resp:
AT+CPIN?

+CPIN:READY
----
Msg: SIM PIN is ready!
Resp:
AT+CREG=1

OK
----
Msg: Netwoek Set!
Resp:
AT+CREG?

+CREG: 1
----
Msg: Network Registered!
Resp:
AT+GPS=1

OK
----
Msg: GPS Set!
Resp:
AT+CGATT=1

+CGATT:1

OK
----
Msg: PS Attached!
Resp:
AT+CGDCONT?

OK
----
Msg: Context Set!
Resp:
AT+CGDCONT=1,"IP","pinternet.interkom.de"

OK
----
Msg: Context Changed!
Resp:
AT+CGACT=1,1

OK
----
Msg: Context Selected!
Resp:
AT+CGACT?

+CGACT: 1, 1
----
Msg: Context is Correct!
Resp:
AT+CIPSTATUS
+CIPSTATUS:
STATE:IP INITIAL
----
Msg: Status INITIAL!
Resp:
AT+CIPSTART="TCP","api.thingspeak.com",80
CONNECT OK
----
Msg: Connected!
Resp:
AT+GPSRD=5

OK
----
Msg: GPS Read Set!
Msg: Getting data from GPS using AT Cmd
Resp:
$GNGGA,164114.096,4900.5280,N,00825.4771,E,0,0,,140.8,M,47.9,M,,*5A
$GPGSA,A,1,,,,,,,,,,,,,,,*1E
$BDGSA,A,1,,,,,,,,,,,,,,,*0F
$GPGSV,3,1,10,12,83,000,,24,52,137,,25,52,266,,32,37,295,*7F
$GPGSV,3,2,10,06,23,070,,02,21,117,,19,19,042,,29,18,198,*7B
$GPGSV,3,3,10,31,01,303,,11,,,35*4D
$BDGSV,1,1,00*68
$GNRMC,164114.096,V,4900.5280,N,00825.4771,E,0.000,0.00,211221,,,N*5B
$GNVTG,0.00,T,,M,0.000,N,0.000,K,N*2C
---
Msg: Getting data from GPS using AT done
Resp:
AT+GPSRD=0

OK
----
Msg: GPS Read Off!
Msg: Getting data from Sensors
Resp:
AT+CIPSEND

>
----
Msg: Send Started!
Resp:
GET https://api.thingspeak.com/update?api_key=AYKVFH212TKGNW2B&field1=29.89&field2=27.98&field3=1009.60&field4=241.20&field5=307.60&field6=$GNGGA,164114.096,4900.5280,N,00825.4771,E,0,0,,140.8,M,47.9,M,,*5A

----
Resp:

OK



+CIPRCV,1:4
CLOSED
----
Msg: Send Completed!
Resp:
AT+CIPSTATUS
+CIPSTATUS:
STATE:CLOSED
----
Resp:
AT+CIPSTART="TCP","api.thingspeak.com",80
CONNECT OK
----
Msg: Connected!
Resp:
AT+GPSRD=5

OK
----
Msg: GPS Read Set!
Msg: Getting data from GPS using AT Cmd
Resp:
$GNGGA,164134.096,4900.5110,N,00825.4728,E,0,2,,140.4,M,47.9,M,,*50
$GPGSA,A,1,06,02,,,,,,,,,,,,,*1A
$BDGSA,A,1,,,,,,,,,,,,,,,*0F
$GPGSV,3,1,10,12,83,000,,24,52,137,,25,52,266,,32,37,295,*7F
$GPGSV,3,2,10,06,23,070,22,02,21,117,20,19,19,042,,29,18,198,*79
$GPGSV,3,3,10,31,01,303,,11,,,36*4E
$BDGSV,1,1,01,13,,,32*6A
$GNRMC,164134.096,V,4900.5110,N,00825.4728,E,0.357,198.25,211221,,,N*59
$GNVTG,198.25,T,,M,0.357,N,0.662,K,N*28
---
Msg: Getting data from GPS using AT done
Resp:
AT+GPSRD=0

OK
----
Msg: GPS Read Off!
Msg: Getting data from Sensors
Resp:
AT+CIPSEND

>
----
Msg: Send Started!
Resp:
GET https://api.thingspeak.com/update?api_key=AYKVFH212TKGNW2B&field1=29.67&field2=28.11&field3=1009.61&field4=245.20&field5=320.30&field6=$GNGGA,164134.096,4900.5110,N,00825.4728,E,0,2,,140.4,M,47.9,M,,*50

----
Resp:

OK



+CIPRCV,1:5
CLOSED
----
Msg: Send Completed!
Resp:
AT+CIPSTATUS
+CIPSTATUS:
STATE:CLOSED
----
Resp:
AT+CIPSTART="TCP","api.thingspeak.com",80
CONNECT OK
----
Msg: Connected!
Resp:
AT+GPSRD=5

OK
----
Msg: GPS Read Set!
Msg: Getting data from GPS using AT Cmd
Resp:
$GNGGA,164154.101,4900.5761,N,00825.5021,E,0,2,,139.9,M,47.9,M,,*55
$GPGSA,A,1,02,,,,,,,,,,,,,,*1C
$BDGSA,A,1,13,,,,,,,,,,,,,,*0D
$GPGSV,3,1,10,12,83,002,,24,52,137,,25,52,266,,32,37,294,*7C
$GPGSV,3,2,10,06,23,070,24,02,21,117,26,19,19,042,19,29,18,198,*71
$GPGSV,3,3,10,31,01,303,,11,,,37*4F
$BDGSV,1,1,01,13,14,086,33*50
$GNRMC,164154.101,V,4900.5761,N,00825.5021,E,3.080,96.52,211221,,,N*6A
$GNVTG,96.52,T,,M,3.080,N,5.707,K,N*1A
---
Msg: Getting data from GPS using AT done
Resp:
AT+GPSRD=0

OK
----
Msg: GPS Read Off!
Msg: Getting data from Sensors
Resp:
AT+CIPSEND

>
----
Msg: Send Started!
Resp:
GET https://api.thingspeak.com/update?api_key=AYKVFH212TKGNW2B&field1=29.52&field2=28.04&field3=1009.61&field4=241.90&field5=332.70&field6=$GNGGA,164154.101,4900.5761,N,00825.5021,E,0,2,,139.9,M,47.9,M,,*55

----
Resp:

OK



+CIPRCV,1:6
CLOSED
----
Msg: Send Completed!
Resp:
AT+CIPSTATUS
+CIPSTATUS:
STATE:CLOSED
----
Resp:
AT+CIPSTART="TCP","api.thingspeak.com",80
CONNECT OK
----
Msg: Connected!
Resp:
AT+GPSRD=5

OK
----
Msg: GPS Read Set!
Msg: Getting data from GPS using AT Cmd
Resp:
$GNGGA,164214.000,4900.5300,N,00825.4070,E,1,5,2.68,181.8,M,47.9,M,,*42
$GPGSA,A,3,06,02,24,19,,,,,,,,,2.85,2.68,0.99*0B
$BDGSA,A,3,13,,,,,,,,,,,,2.85,2.68,0.99*12
$GPGSV,3,1,10,12,83,003,,24,52,137,17,25,52,266,,32,37,294,*7B
$GPGSV,3,2,10,39,31,158,,06,23,070,19,02,21,117,25,19,19,042,14*77
$GPGSV,3,3,10,29,18,198,,31,01,303,*79
$BDGSV,1,1,01,13,14,086,31*52
$GNRMC,164214.000,A,4900.5300,N,00825.4070,E,9.153,291.05,211221,,,A*41
$GNVTG,291.05,T,,M,9.153,N,16.960,K,A*1A
---
Msg: Getting data from GPS using AT done
Resp:
AT+GPSRD=0

OK
----
Msg: GPS Read Off!
Msg: Getting data from Sensors
Resp:
AT+CIPSEND

>
----
Msg: Send Started!
Resp:
GET https://api.thingspeak.com/update?api_key=AYKVFH212TKGNW2B&field1=29.44&field2=27.95&field3=1009.62&field4=245.00&field5=344.80&field6=$GNGGA,164214.000,4900.5300,N,00825.4070,E,1,5,2.68,181.8,M,47.9,M,,*42

----
Resp:

OK



+CIPRCV,1:7
CLOSED
----
Msg: Send Completed!
Resp:
AT+CIPSTATUS
+CIPSTATUS:
STATE:CLOSED
----
Resp:
AT+CIPSTART="TCP","api.thingspeak.com",80
CONNECT OK
----
Msg: Connected!
Resp:
AT+GPSRD=5

OK
----
Msg: GPS Read Set!
Msg: Getting data from GPS using AT Cmd
Resp:
$GNGGA,164234.000,4900.5321,N,00825.3523,E,1,5,2.68,158.7,M,47.9,M,,*4C
$GPGSA,A,3,06,02,24,19,,,,,,,,,2.86,2.68,0.99*08
$BDGSA,A,3,13,,,,,,,,,,,,2.86,2.68,0.99*11
$GPGSV,3,1,10,12,83,003,,25,53,266,,24,51,138,21,32,37,294,*73
$GPGSV,3,2,10,06,23,070,20,02,21,117,23,19,19,042,15,29,18,198,*7C
$GPGSV,3,3,10,40,13,117,,31,01,303,*7A
$BDGSV,1,1,01,13,14,086,30*53
$GNRMC,164234.000,A,4900.5321,N,00825.3523,E,5.557,295.55,211221,,,A*49
$GNVTG,295.55,T,,M,5.557,N,10.296,K,A*13
---
Msg: Getting data from GPS using AT done
Resp:
AT+GPSRD=0

OK
----
Msg: GPS Read Off!
Msg: Getting data from Sensors
Resp:
AT+CIPSEND

>
----
Msg: Send Started!
Resp:
GET https://api.thingspeak.com/update?api_key=AYKVFH212TKGNW2B&field1=29.39&field2=27.83&field3=1009.64&field4=246.30&field5=327.80&field6=$GNGGA,164234.000,4900.5321,N,00825.3523,E,1,5,2.68,158.7,M,47.9,M,,*4C

----
Resp:

OK



+CIPRCV,1:8
CLOSED
----
Msg: Send Completed!
Resp:
AT+CIPSTATUS
+CIPSTATUS:
STATE:CLOSED
----
Resp:
AT+CIPSTART="TCP","api.thingspeak.com",80
CONNECT OK
----
Msg: Connected!
Resp:
AT+GPSRD=5

OK
----
Msg: GPS Read Set!
Msg: Getting data from GPS using AT Cmd
Resp:
$GNGGA,164255.000,4900.5219,N,00825.4330,E,1,4,3.90,98.3,M,47.9,M,,*7C
$GPGSA,A,3,06,02,24,,,,,,,,,,4.03,3.90,1.00*0C
$BDGSA,A,3,13,,,,,,,,,,,,4.03,3.90,1.00*1D
$GPGSV,3,1,09,12,83,003,,25,53,266,,24,51,138,22,32,37,294,*78
$GPGSV,3,2,09,06,23,070,21,02,21,117,23,19,19,042,,29,18,198,*71
$GPGSV,3,3,09,31,01,303,*43
$BDGSV,1,1,01,13,14,086,29*5B
$GNRMC,164255.000,A,4900.5219,N,00825.4330,E,3.855,121.69,211221,,,A*4D
$GNVTG,121.69,T,,M,3.855,N,7.144,K,A*23
---
Msg: Getting data from GPS using AT done
Resp:
AT+GPSRD=0

OK
----
Msg: GPS Read Off!
Msg: Getting data from Sensors
Resp:
AT+CIPSEND

>
----
Msg: Send Started!
Resp:
GET https://api.thingspeak.com/update?api_key=AYKVFH212TKGNW2B&field1=29.36&field2=27.82&field3=1009.64&field4=246.80&field5=312.20&field6=$GNGGA,164255.000,4900.5219,N,00825.4330,E,1,4,3.90,98.3,M,47.9,M,,*7C

----
Resp:

OK



+CIPRCV,1:9
CLOSED
----
Msg: Send Completed!
Resp:
AT+CIPSTATUS
+CIPSTATUS:
STATE:CLOSED
----
Resp:
AT+CIPSTART="TCP","api.thingspeak.com",80
CONNECT OK
----
Msg: Connected!
Resp:
AT+GPSRD=5

OK
----
Msg: GPS Read Set!
Msg: Getting data from GPS using AT Cmd
Resp:
$GNGGA,164315.000,4900.5151,N,00825.4452,E,1,4,3.91,97.1,M,47.9,M,,*79
$GPGSA,A,3,06,02,24,,,,,,,,,,4.03,3.91,1.00*0D
$BDGSA,A,3,13,,,,,,,,,,,,4.03,3.91,1.00*1C
$GPGSV,3,1,09,12,83,003,,25,53,266,,24,51,138,17,32,37,294,*7E
$GPGSV,3,2,09,06,23,069,22,02,22,117,25,19,19,042,,29,18,198,*7F
$GPGSV,3,3,09,31,01,303,*43
$BDGSV,1,1,01,13,14,086,31*52
$GNRMC,164315.000,A,4900.5151,N,00825.4452,E,1.600,86.20,211221,,,A*79
$GNVTG,86.20,T,,M,1.600,N,2.964,K,A*11
---
Msg: Getting data from GPS using AT done
Resp:
AT+GPSRD=0

OK
----
Msg: GPS Read Off!
Msg: Getting data from Sensors
Resp:
AT+CIPSEND

>
----
Msg: Send Started!
Resp:
GET https://api.thingspeak.com/update?api_key=AYKVFH212TKGNW2B&field1=29.35&field2=27.78&field3=1009.65&field4=246.30&field5=305.50&field6=$GNGGA,164315.000,4900.5151,N,00825.4452,E,1,4,3.91,97.1,M,47.9,M,,*79

----
Resp:

OK

+CIPRCV,2:10


CLOSED
----
Msg: Send Completed!
Resp:
AT+CIPSTATUS
+CIPSTATUS:
STATE:CLOSED
----
Resp:
AT+CIPSTART="TCP","api.thingspeak.com",80
CONNECT OK
----
Msg: Connected!
Resp:
AT+GPSRD=5

OK
----
Msg: GPS Read Set!
Msg: Getting data from GPS using AT Cmd
Resp:
$GNGGA,164336.000,4900.5172,N,00825.4371,E,1,5,2.07,96.9,M,47.9,M,,*79
$GPGSA,A,3,12,06,02,24,,,,,,,,,2.29,2.07,1.00*0E
$BDGSA,A,3,13,,,,,,,,,,,,2.29,2.07,1.00*1C
$GPGSV,3,1,10,12,83,008,16,25,53,267,,24,51,138,22,32,37,294,*7D
$GPGSV,3,2,10,39,31,158,,06,23,069,22,02,22,117,27,19,18,042,*72
$GPGSV,3,3,10,29,18,198,,31,01,303,*79
$BDGSV,1,1,01,13,14,086,31*52
$GNRMC,164336.000,A,4900.5172,N,00825.4371,E,1.773,82.70,211221,,,A*7B
$GNVTG,82.70,T,,M,1.773,N,3.285,K,A*10
---
Msg: Getting data from GPS using AT done
Resp:
AT+GPSRD=0

OK
----
Msg: GPS Read Off!
Msg: Getting data from Sensors
Resp:
AT+CIPSEND

>
----
Msg: Send Started!
Resp:
GET https://api.thingspeak.com/update?api_key=AYKVFH212TKGNW2B&field1=29.36&field2=27.72&field3=1009.65&field4=244.10&field5=319.10&field6=$GNGGA,164336.000,4900.5172,N,00825.4371,E,1,5,2.07,96.9,M,47.9,M,,*79

----
Resp:

OK

+CIPRCV,2:11


CLOSED
----
Msg: Send Completed!
Resp:
AT+CIPSTATUS
+CIPSTATUS:
STATE:CLOSED
----
Resp:
AT+CIPSTART="TCP","api.thingspeak.com",80
CONNECT OK
----
Msg: Connected!
Resp:
AT+GPSRD=5

OK
----
Msg: GPS Read Set!
Msg: Getting data from GPS using AT Cmd
Resp:
$GNGGA,164357.000,4900.5199,N,00825.4361,E,1,5,2.07,97.0,M,47.9,M,,*72
$GPGSA,A,3,12,06,02,24,,,,,,,,,2.30,2.07,1.00*06
$BDGSA,A,3,13,,,,,,,,,,,,2.30,2.07,1.00*14
$GPGSV,3,1,10,12,83,008,12,25,53,267,,24,51,138,23,32,37,293,*7F
$GPGSV,3,2,10,06,23,069,23,02,22,117,29,29,19,198,,19,18,042,*7A
$GPGSV,3,3,10,40,13,117,,31,02,303,*79
$BDGSV,1,1,01,13,14,086,31*52
$GNRMC,164357.000,A,4900.5199,N,00825.4361,E,4.649,118.88,211221,,,A*40
$GNVTG,118.88,T,,M,4.649,N,8.614,K,A*2F
---
Msg: Getting data from GPS using AT done
Resp:
AT+GPSRD=0

OK
----
Msg: GPS Read Off!
Msg: Getting data from Sensors
Resp:
AT+CIPSEND

>
----
Msg: Send Started!
Resp:
GET https://api.thingspeak.com/update?api_key=AYKVFH212TKGNW2B&field1=29.38&field2=27.66&field3=1009.65&field4=244.30&field5=319.80&field6=$GNGGA,164357.000,4900.5199,N,00825.4361,E,1,5,2.07,97.0,M,47.9,M,,*72

----
Resp:

OK



+CIPRCV,2:12
CLOSED
----
Msg: Send Completed!
Resp:
AT+CIPSTATUS
+CIPSTATUS:
STATE:CLOSED
----
Resp:
AT+CIPSTART="TCP","api.thingspeak.com",80
CONNECT OK
----
Msg: Connected!
Resp:
AT+GPSRD=5

OK
----
Msg: GPS Read Set!
Msg: Getting data from GPS using AT Cmd
Resp:
$GNGGA,164417.000,4900.5182,N,00825.4494,E,1,5,2.70,97.6,M,47.9,M,,*70
$GPGSA,A,3,06,19,02,24,,,,,,,,,2.87,2.70,0.99*00
$BDGSA,A,3,13,,,,,,,,,,,,2.87,2.70,0.99*19
$GPGSV,3,1,10,12,83,008,,25,53,267,,24,51,138,21,32,37,293,*7E
$GPGSV,3,2,10,06,23,069,25,02,22,117,29,29,19,198,,19,18,042,15*78
$GPGSV,3,3,10,31,02,303,,34,,,*4F
$BDGSV,1,1,01,13,14,086,30*53
$GNRMC,164417.000,A,4900.5182,N,00825.4494,E,3.347,104.79,211221,,,A*4B
$GNVTG,104.79,T,,M,3.347,N,6.201,K,A*2E
---
Msg: Getting data from GPS using AT done
Resp:
AT+GPSRD=0

OK
----
Msg: GPS Read Off!
Msg: Getting data from Sensors
Resp:
AT+CIPSEND

>
----
Msg: Send Started!
Resp:
GET https://api.thingspeak.com/update?api_key=AYKVFH212TKGNW2B&field1=29.40&field2=27.61&field3=1009.66&field4=242.50&field5=303.50&field6=$GNGGA,164417.000,4900.5182,N,00825.4494,E,1,5,2.70,97.6,M,47.9,M,,*70

----
Resp:

OK



+CIPRCV,2:13
CLOSED
----
Msg: Send Completed!
Resp:
AT+CIPSTATUS
+CIPSTATUS:
STATE:CLOSED
----
Resp:
AT+CIPSTART="TCP","api.thingspeak.com",80
CONNECT OK
----
Msg: Connected!
Resp:
AT+GPSRD=5

OK
----
Msg: GPS Read Set!
Msg: Getting data from GPS using AT Cmd
Resp:
$GNGGA,164437.000,4900.5197,N,00825.4381,E,1,6,1.81,98.2,M,47.9,M,,*70
$GPGSA,A,3,12,06,19,02,24,,,,,,,,2.06,1.81,0.99*07
$BDGSA,A,3,13,,,,,,,,,,,,2.06,1.81,0.99*1D
$GPGSV,3,1,10,12,83,008,16,25,53,267,,24,51,138,19,32,37,293,*72
$GPGSV,3,2,10,06,23,069,25,02,22,116,32,29,19,198,,19,18,042,16*70
$GPGSV,3,3,10,31,02,303,,38,,,*43
$BDGSV,1,1,01,13,14,086,31*52
$GNRMC,164437.000,A,4900.5197,N,00825.4381,E,1.368,76.29,211221,,,A*70
$GNVTG,76.29,T,,M,1.368,N,2.535,K,A*14
---
Msg: Getting data from GPS using AT done
Resp:
AT+GPSRD=0

OK
----
Msg: GPS Read Off!
Msg: Getting data from Sensors
Resp:
AT+CIPSEND

>
----
Msg: Send Started!
Resp:
GET https://api.thingspeak.com/update?api_key=AYKVFH212TKGNW2B&field1=29.42&field2=27.61&field3=1009.67&field4=238.90&field5=298.70&field6=$GNGGA,164437.000,4900.5197,N,00825.4381,E,1,6,1.81,98.2,M,47.9,M,,*70

----
Resp:

OK



+CIPRCV,2:14
CLOSED
----
Msg: Send Completed!
Resp:
AT+CIPSTATUS
+CIPSTATUS:
STATE:CLOSED
----
Resp:
AT+CIPSTART="TCP","api.thingspeak.com",80
CONNECT OK
----
Msg: Connected!
Resp:
AT+GPSRD=5

OK
----
Msg: GPS Read Set!
Msg: Getting data from GPS using AT Cmd
Resp:
$GNGGA,164458.000,4900.5201,N,00825.4378,E,1,6,1.81,98.9,M,47.9,M,,*78
$GPGSA,A,3,12,06,19,02,24,,,,,,,,2.06,1.81,0.99*07
$BDGSA,A,3,13,,,,,,,,,,,,2.06,1.81,0.99*1D
$GPGSV,3,1,10,12,83,012,13,25,54,267,17,24,50,138,23,32,37,293,*75
$GPGSV,3,2,10,06,23,069,22,02,22,116,30,29,19,198,,19,18,042,14*77
$GPGSV,3,3,10,31,02,304,,45,,,*4E
$BDGSV,1,1,01,13,14,086,30*53
$GNRMC,164458.000,A,4900.5201,N,00825.4378,E,2.254,110.63,211221,,,A*41
$GNVTG,110.63,T,,M,2.254,N,4.177,K,A*22
---
Msg: Getting data from GPS using AT done
Resp:
AT+GPSRD=0

OK
----
Msg: GPS Read Off!
Msg: Getting data from Sensors
Resp:
AT+CIPSEND

>
----
Msg: Send Started!
Resp:
GET https://api.thingspeak.com/update?api_key=AYKVFH212TKGNW2B&field1=29.45&field2=27.57&field3=1009.68&field4=238.20&field5=297.00&field6=$GNGGA,164458.000,4900.5201,N,00825.4378,E,1,6,1.81,98.9,M,47.9,M,,*78

----
Resp:

OK



+CIPRCV,2:15
CLOSED
----
Msg: Send Completed!
Resp:
AT+CIPSTATUS
+CIPSTATUS:
STATE:CLOSED
----
Resp:
AT+CIPSTART="TCP","api.thingspeak.com",80
CONNECT OK
----
Msg: Connected!
Resp:
AT+GPSRD=5

OK
----
Msg: GPS Read Set!
Msg: Getting data from GPS using AT Cmd
Resp:
$GNGGA,164518.000,4900.5190,N,00825.4592,E,1,5,2.71,98.9,M,47.9,M,,*7B
$GPGSA,A,3,06,19,02,24,,,,,,,,,2.88,2.71,0.99*0E
$BDGSA,A,3,13,,,,,,,,,,,,2.88,2.71,0.99*17
$GPGSV,3,1,10,12,83,012,,25,54,267,,24,50,138,27,32,37,293,*75
$GPGSV,3,2,10,06,23,069,25,02,22,116,34,29,19,198,,19,18,042,13*73
$GPGSV,3,3,10,31,02,304,,49,,,*42
$BDGSV,1,1,01,13,14,086,31*52
$GNRMC,164518.000,A,4900.5190,N,00825.4592,E,2.565,136.84,211221,,,A*45
$GNVTG,136.84,T,,M,2.565,N,4.754,K,A*2D
---
Msg: Getting data from GPS using AT done
Resp:
AT+GPSRD=0

OK
----
Msg: GPS Read Off!
Msg: Getting data from Sensors
Resp:
AT+CIPSEND

>
----
Msg: Send Started!
Resp:
GET https://api.thingspeak.com/update?api_key=AYKVFH212TKGNW2B&field1=29.48&field2=27.53&field3=1009.68&field4=238.50&field5=322.50&field6=$GNGGA,164518.000,4900.5190,N,00825.4592,E,1,5,2.71,98.9,M,47.9,M,,*7B

----
Resp:

OK



+CIPRCV,2:16
CLOSED
----
Msg: Send Completed!
Resp:
AT+CIPSTATUS
+CIPSTATUS:
STATE:CLOSED
----
Resp:
AT+CIPSTART="TCP","api.thingspeak.com",80
CONNECT OK
----
Msg: Connected!
Resp:
AT+GPSRD=5

OK
----
Msg: GPS Read Set!
Msg: Getting data from GPS using AT Cmd
Resp:
$GNGGA,164538.000,4900.5174,N,00825.4631,E,1,4,3.94,98.8,M,47.9,M,,*73
$GPGSA,A,3,06,02,24,,,,,,,,,,4.07,3.94,1.00*0C
$BDGSA,A,3,13,,,,,,,,,,,,4.07,3.94,1.00*1D
$GPGSV,3,1,09,12,83,012,,25,54,267,,24,50,138,26,32,37,293,*7C
$GPGSV,3,2,09,06,23,069,24,02,22,116,34,29,19,198,,19,18,042,*78
$GPGSV,3,3,09,31,02,304,*47
$BDGSV,1,1,01,13,14,086,31*52
$GNRMC,164538.000,A,4900.5174,N,00825.4631,E,3.562,114.81,211221,,,A*44
$GNVTG,114.81,T,,M,3.562,N,6.600,K,A*2C
---
Msg: Getting data from GPS using AT done
Resp:
AT+GPSRD=0

OK
----
Msg: GPS Read Off!
Msg: Getting data from Sensors
Resp:
AT+CIPSEND

>
----
Msg: Send Started!
Resp:
GET https://api.thingspeak.com/update?api_key=AYKVFH212TKGNW2B&field1=29.51&field2=27.46&field3=1009.68&field4=235.60&field5=326.80&field6=$GNGGA,164538.000,4900.5174,N,00825.4631,E,1,4,3.94,98.8,M,47.9,M,,*73

----
Resp:

OK



+CIPRCV,2:17
CLOSED
----
Msg: Send Completed!
Resp:
AT+CIPSTATUS
+CIPSTATUS:
STATE:CLOSED
----
Resp:
AT+CIPSTART="TCP","api.thingspeak.com",80
CONNECT OK
----
Msg: Connected!
Resp:
AT+GPSRD=5

OK
----
Msg: GPS Read Set!
Msg: Getting data from GPS using AT Cmd
Resp:
$GNGGA,164559.000,4900.5183,N,00825.4603,E,1,5,2.72,99.0,M,47.9,M,,*7C
$GPGSA,A,3,06,19,02,24,,,,,,,,,2.89,2.72,0.99*0C
$BDGSA,A,3,13,,,,,,,,,,,,2.89,2.72,0.99*15
$GPGSV,3,1,10,12,82,016,,25,54,267,,24,50,138,25,32,37,293,14*77
$GPGSV,3,2,10,02,23,116,34,06,23,068,25,29,19,198,,19,18,042,14*74
$GPGSV,3,3,10,44,12,116,,31,02,304,*7A
$BDGSV,1,1,01,13,14,086,32*51
$GNRMC,164559.000,A,4900.5183,N,00825.4603,E,1.355,125.73,211221,,,A*45
$GNVTG,125.73,T,,M,1.355,N,2.512,K,A*27
---
Msg: Getting data from GPS using AT done
Resp:
AT+GPSRD=0

OK
----
Msg: GPS Read Off!
Msg: Getting data from Sensors
Resp:
AT+CIPSEND

>
----
Msg: Send Started!
Resp:
GET https://api.thingspeak.com/update?api_key=AYKVFH212TKGNW2B&field1=29.54&field2=27.45&field3=1009.68&field4=231.50&field5=330.60&field6=$GNGGA,164559.000,4900.5183,N,00825.4603,E,1,5,2.72,99.0,M,47.9,M,,*7C

----
Resp:

OK



+CIPRCV,2:18
CLOSED
----
Msg: Send Completed!
Resp:
AT+CIPSTATUS
+CIPSTATUS:
STATE:CLOSED
----
Resp:
AT+CIPSTART="TCP","api.thingspeak.com",80
CONNECT OK
----
Msg: Connected!
Resp:
AT+GPSRD=5

OK
----
Msg: GPS Read Set!
Msg: Getting data from GPS using AT Cmd
Resp:
$GNGGA,164619.000,4900.5171,N,00825.4614,E,1,5,2.72,99.1,M,47.9,M,,*71
$GPGSA,A,3,06,19,02,24,,,,,,,,,2.90,2.72,0.99*04
$BDGSA,A,3,13,,,,,,,,,,,,2.90,2.72,0.99*1D
$GPGSV,3,1,10,12,82,016,,25,54,268,,24,50,138,19,32,37,292,17*75
$GPGSV,3,2,10,02,23,116,31,06,23,068,24,29,20,199,,19,17,042,15*75
$GPGSV,3,3,10,31,03,304,,35,,,*48
$BDGSV,1,1,01,13,14,086,31*52
$GNRMC,164619.000,A,4900.5171,N,00825.4614,E,1.245,92.85,211221,,,A*7D
$GNVTG,92.85,T,,M,1.245,N,2.307,K,A*11
---
Msg: Getting data from GPS using AT done
Resp:
AT+GPSRD=0

OK
----
Msg: GPS Read Off!
Msg: Getting data from Sensors
Resp:
AT+CIPSEND

>
----
Msg: Send Started!
Resp:
GET https://api.thingspeak.com/update?api_key=AYKVFH212TKGNW2B&field1=29.57&field2=27.43&field3=1009.68&field4=232.00&field5=316.70&field6=$GNGGA,164619.000,4900.5171,N,00825.4614,E,1,5,2.72,99.1,M,47.9,M,,*71

----
Resp:

OK



+CIPRCV,2:19
CLOSED
----
Msg: Send Completed!
Resp:
AT+CIPSTATUS
+CIPSTATUS:
STATE:CLOSED
----
Resp:
AT+CIPSTART="TCP","api.thingspeak.com",80
CONNECT OK
----
Msg: Connected!
Resp:
AT+GPSRD=5

OK
----
Msg: GPS Read Set!
Msg: Getting data from GPS using AT Cmd
Resp:
$GNGGA,164639.000,4900.5156,N,00825.4488,E,1,5,2.72,99.2,M,47.9,M,,*72
$GPGSA,A,3,06,19,02,24,,,,,,,,,2.90,2.72,0.99*04
$BDGSA,A,3,13,,,,,,,,,,,,2.90,2.72,0.99*1D
$GPGSV,3,1,10,12,82,016,,25,54,268,,24,50,138,21,32,37,292,16*7F
$GPGSV,3,2,10,02,23,116,29,06,23,068,21,29,20,199,,19,17,042,15*79
$GPGSV,3,3,10,31,03,304,,38,,,*45
$BDGSV,1,1,02,21,18,283,,13,15,086,29*6A
$GNRMC,164639.000,A,4900.5156,N,00825.4488,E,0.919,50.57,211221,,,A*7F
$GNVTG,50.57,T,,M,0.919,N,1.702,K,A*11
---
Msg: Getting data from GPS using AT done
Resp:
AT+GPSRD=0

OK
----
Msg: GPS Read Off!
Msg: Getting data from Sensors
Resp:
AT+CIPSEND

>
----
Msg: Send Started!
Resp:
GET https://api.thingspeak.com/update?api_key=AYKVFH212TKGNW2B&field1=29.60&field2=27.37&field3=1009.69&field4=229.10&field5=303.80&field6=$GNGGA,164639.000,4900.5156,N,00825.4488,E,1,5,2.72,99.2,M,47.9,M,,*72

----
Resp:

OK

+CIPRCV,2:20


CLOSED
----
Msg: Send Completed!
Resp:
AT+CIPSTATUS
+CIPSTATUS:
STATE:CLOSED
----
Resp:
AT+CIPSTART="TCP","api.thingspeak.com",80
CONNECT OK
----
Msg: Connected!
Resp:
AT+GPSRD=5

OK
----
Msg: GPS Read Set!
Msg: Getting data from GPS using AT Cmd
Resp:
$GNGGA,164659.000,4900.5196,N,00825.4357,E,1,6,1.83,99.2,M,47.9,M,,*73
$GPGSA,A,3,12,06,19,02,24,,,,,,,,2.08,1.83,0.99*0B
$BDGSA,A,3,13,,,,,,,,,,,,2.08,1.83,0.99*11
$GPGSV,3,1,10,12,82,016,14,25,54,268,13,24,50,138,24,32,37,292,15*7E
$GPGSV,3,2,10,02,23,116,32,06,23,068,19,29,20,199,13,19,17,042,16*79
$GPGSV,3,3,10,31,03,304,,46,,,*4C
$BDGSV,1,1,03,21,18,283,,13,15,086,30,22,08,234,*5E
$GNRMC,164659.000,A,4900.5196,N,00825.4357,E,0.210,315.39,211221,,,A*48
$GNVTG,315.39,T,,M,0.210,N,0.389,K,A*2F
---
Msg: Getting data from GPS using AT done
Resp:
AT+GPSRD=0

OK
----
Msg: GPS Read Off!
Msg: Getting data from Sensors
Resp:
AT+CIPSEND

>
----
Msg: Send Started!
Resp:
GET https://api.thingspeak.com/update?api_key=AYKVFH212TKGNW2B&field1=29.63&field2=27.31&field3=1009.69&field4=235.10&field5=305.10&field6=$GNGGA,164659.000,4900.5196,N,00825.4357,E,1,6,1.83,99.2,M,47.9,M,,*73

----
Resp:

OK



+CIPRCV,2:21
CLOSED
----
Msg: Send Completed!
Resp:
AT+CIPSTATUS
+CIPSTATUS:
STATE:CLOSED
----
Resp:
AT+CIPSTART="TCP","api.thingspeak.com",80
CONNECT OK
----
Msg: Connected!
Resp:
AT+GPSRD=5

OK
----
Msg: GPS Read Set!
Msg: Getting data from GPS using AT Cmd
Resp:
$GNGGA,164719.000,4900.5242,N,00825.4283,E,1,6,1.83,99.1,M,47.9,M,,*77
$GPGSA,A,3,12,06,19,02,24,,,,,,,,2.08,1.83,0.99*0B
$BDGSA,A,3,13,,,,,,,,,,,,2.08,1.83,0.99*11
$GPGSV,3,1,10,12,82,020,14,25,54,268,,24,50,138,21,32,37,292,14*7D
$GPGSV,3,2,10,02,23,115,34,06,23,068,21,29,20,199,12,19,17,042,17*77
$GPGSV,3,3,10,31,03,304,,51,,,*4A
$BDGSV,1,1,03,21,18,283,,13,15,086,30,22,08,234,*5E
$GNRMC,164719.000,A,4900.5242,N,00825.4283,E,2.511,114.51,211221,,,A*46
$GNVTG,114.51,T,,M,2.511,N,4.653,K,A*20
---
Msg: Getting data from GPS using AT done
Resp:
AT+GPSRD=0

OK
----
Msg: GPS Read Off!
Msg: Getting data from Sensors
Resp:
AT+CIPSEND

>
----
Msg: Send Started!
Resp:
GET https://api.thingspeak.com/update?api_key=AYKVFH212TKGNW2B&field1=29.65&field2=27.32&field3=1009.70&field4=239.10&field5=309.70&field6=$GNGGA,164719.000,4900.5242,N,00825.4283,E,1,6,1.83,99.1,M,47.9,M,,*77

----
Resp:

OK



+CIPRCV,2:22
CLOSED
----
Msg: Send Completed!
Resp:
AT+CIPSTATUS
+CIPSTATUS:
STATE:CLOSED
----
Resp:
AT+CIPSTART="TCP","api.thingspeak.com",80
CONNECT OK
----
Msg: Connected!
Resp:
AT+GPSRD=5

OK
----
Msg: GPS Read Set!
Msg: Getting data from GPS using AT Cmd
Resp:
$GNGGA,164739.000,4900.5220,N,00825.4295,E,1,5,2.74,98.2,M,47.9,M,,*7C
$GPGSA,A,3,06,19,02,24,,,,,,,,,2.91,2.74,0.99*03
$BDGSA,A,3,13,,,,,,,,,,,,2.91,2.74,0.99*1A
$GPGSV,3,1,10,12,82,020,,25,55,269,,24,49,139,20,32,37,291,16*71
$GPGSV,3,2,10,02,23,115,32,06,23,068,17,29,21,199,13,19,16,041,16*77
$GPGSV,3,3,10,31,03,304,,48,,,*42
$BDGSV,1,1,03,21,18,283,,13,15,086,32,22,08,234,*5C
$GNRMC,164739.000,A,4900.5220,N,00825.4295,E,0.992,96.63,211221,,,A*78
$GNVTG,96.63,T,,M,0.992,N,1.839,K,A*18
---
Msg: Getting data from GPS using AT done
Resp:
AT+GPSRD=0

OK
----
Msg: GPS Read Off!
Msg: Getting data from Sensors
Resp:
AT+CIPSEND

>
----
Msg: Send Started!
Resp:
GET https://api.thingspeak.com/update?api_key=AYKVFH212TKGNW2B&field1=29.68&field2=27.32&field3=1009.69&field4=239.30&field5=313.60&field6=$GNGGA,164739.000,4900.5220,N,00825.4295,E,1,5,2.74,98.2,M,47.9,M,,*7C

----
Resp:

OK



+CIPRCV,2:23
CLOSED
----
Msg: Send Completed!
Resp:
AT+CIPSTATUS
+CIPSTATUS:
STATE:CLOSED
----
Resp:
AT+CIPSTART="TCP","api.thingspeak.com",80
CONNECT OK
----
Msg: Connected!
Resp:
AT+GPSRD=5

OK
----
Msg: GPS Read Set!
Msg: Getting data from GPS using AT Cmd
Resp:
$GNGGA,164759.000,4900.5231,N,00825.4342,E,1,5,2.74,96.3,M,47.9,M,,*7E
$GPGSA,A,3,06,19,02,24,,,,,,,,,2.91,2.74,0.99*03
$BDGSA,A,3,13,,,,,,,,,,,,2.91,2.74,0.99*1A
$GPGSV,3,1,10,12,82,020,,25,55,269,,24,49,139,21,32,37,291,17*71
$GPGSV,3,2,10,39,31,158,,02,23,115,30,06,23,068,16,29,21,199,*7F
$GPGSV,3,3,10,19,16,041,15,31,03,304,*70
$BDGSV,1,1,03,21,18,283,16,13,15,086,31,22,08,234,*58
$GNRMC,164759.000,A,4900.5231,N,00825.4342,E,1.996,102.07,211221,,,A*4E
$GNVTG,102.07,T,,M,1.996,N,3.699,K,A*25
---
Msg: Getting data from GPS using AT done
Resp:
AT+GPSRD=0

OK
----
Msg: GPS Read Off!
Msg: Getting data from Sensors
Resp:
AT+CIPSEND

>
----
Msg: Send Started!
Resp:
GET https://api.thingspeak.com/update?api_key=AYKVFH212TKGNW2B&field1=29.70&field2=27.29&field3=1009.69&field4=229.00&field5=311.90&field6=$GNGGA,164759.000,4900.5231,N,00825.4342,E,1,5,2.74,96.3,M,47.9,M,,*7E

----
Resp:

OK



+CIPRCV,2:24
CLOSED
----
Msg: Send Completed!
Resp:
AT+CIPSTATUS
+CIPSTATUS:
STATE:CLOSED
----
Resp:
AT+CIPSTART="TCP","api.thingspeak.com",80
CONNECT OK
----
Msg: Connected!
Resp:
AT+GPSRD=5

OK
----
Msg: GPS Read Set!
Msg: Getting data from GPS using AT Cmd
Resp:
$GNGGA,164820.000,4900.5242,N,00825.4420,E,1,4,3.98,94.8,M,47.9,M,,*73
$GPGSA,A,3,06,02,24,,,,,,,,,,4.11,3.98,1.00*07
$BDGSA,A,3,13,,,,,,,,,,,,4.11,3.98,1.00*16
$GPGSV,3,1,10,12,82,020,,25,55,269,,24,49,139,27,32,37,291,17*77
$GPGSV,3,2,10,02,23,115,34,06,23,068,18,29,21,199,,19,16,041,*7B
$GPGSV,3,3,10,40,13,117,,31,03,304,*7F
$BDGSV,1,1,03,21,18,283,22,13,15,086,32,22,08,234,*5C
$GNRMC,164820.000,A,4900.5242,N,00825.4420,E,0.515,84.92,211221,,,A*7D
$GNVTG,84.92,T,,M,0.515,N,0.954,K,A*1D
---
Msg: Getting data from GPS using AT done
Resp:
AT+GPSRD=0

OK
----
Msg: GPS Read Off!
Msg: Getting data from Sensors
Resp:
AT+CIPSEND

>
----
Msg: Send Started!
Resp:
GET https://api.thingspeak.com/update?api_key=AYKVFH212TKGNW2B&field1=29.73&field2=27.28&field3=1009.69&field4=226.00&field5=303.20&field6=$GNGGA,164820.000,4900.5242,N,00825.4420,E,1,4,3.98,94.8,M,47.9,M,,*73

----
Resp:

OK



+CIPRCV,2:25
CLOSED
----
Msg: Send Completed!
Resp:
AT+CIPSTATUS
+CIPSTATUS:
STATE:CLOSED
----
Resp:
AT+CIPSTART="TCP","api.thingspeak.com",80
CONNECT OK
----
Msg: Connected!
Resp:
AT+GPSRD=5

OK
----
Msg: GPS Read Set!
Msg: Getting data from GPS using AT Cmd
Resp:
$GNGGA,164840.000,4900.5261,N,00825.4468,E,1,5,2.75,95.2,M,47.9,M,,*70
$GPGSA,A,3,06,19,02,24,,,,,,,,,2.92,2.75,0.99*01
$BDGSA,A,3,13,,,,,,,,,,,,2.92,2.75,0.99*18
$GPGSV,3,1,10,12,81,023,,25,55,269,15,24,49,139,22,32,37,291,16*77
$GPGSV,3,2,10,39,31,158,,02,23,115,32,06,23,067,13,29,21,199,*77
$GPGSV,3,3,10,19,16,041,18,31,03,304,*7D
$BDGSV,1,1,03,21,18,283,17,13,15,086,28,22,08,234,*51
$GNRMC,164840.000,A,4900.5261,N,00825.4468,E,1.809,96.99,211221,,,A*7F
$GNVTG,96.99,T,,M,1.809,N,3.351,K,A*18
---
Msg: Getting data from GPS using AT done
Resp:
AT+GPSRD=0

OK
----
Msg: GPS Read Off!
Msg: Getting data from Sensors
Resp:
AT+CIPSEND

>
----
Msg: Send Started!
Resp:
GET https://api.thingspeak.com/update?api_key=AYKVFH212TKGNW2B&field1=29.75&field2=27.24&field3=1009.69&field4=227.90&field5=305.50&field6=$GNGGA,164840.000,4900.5261,N,00825.4468,E,1,5,2.75,95.2,M,47.9,M,,*70

----
Resp:

OK



+CIPRCV,2:26
CLOSED
----
Msg: Send Completed!
Resp:
AT+CIPSTATUS
+CIPSTATUS:
STATE:CLOSED
----
Resp:
AT+CIPSTART="TCP","api.thingspeak.com",80
CONNECT OK
----
Msg: Connected!
Resp:
AT+GPSRD=5

OK
----
Msg: GPS Read Set!
Msg: Getting data from GPS using AT Cmd
Resp:
$GNGGA,164900.000,4900.5238,N,00825.4532,E,1,5,2.75,95.5,M,47.9,M,,*70
$GPGSA,A,3,06,19,02,24,,,,,,,,,2.92,2.75,0.99*01
$BDGSA,A,3,13,,,,,,,,,,,,2.92,2.75,0.99*18
$GPGSV,3,1,10,12,81,023,,25,55,269,13,24,48,139,14,32,37,291,16*75
$GPGSV,3,2,10,02,23,115,31,06,23,067,14,29,21,199,,19,16,041,18*74
$GPGSV,3,3,10,40,13,117,,31,04,304,*78
$BDGSV,1,1,03,21,18,283,13,13,15,086,28,22,08,234,*55
$GNRMC,164900.000,A,4900.5238,N,00825.4532,E,2.180,130.59,211221,,,A*42
$GNVTG,130.59,T,,M,2.180,N,4.040,K,A*26
---
Msg: Getting data from GPS using AT done
Resp:
AT+GPSRD=0

OK
----
Msg: GPS Read Off!
Msg: Getting data from Sensors
Resp:
AT+CIPSEND

>
----
Msg: Send Started!
Resp:
GET https://api.thingspeak.com/update?api_key=AYKVFH212TKGNW2B&field1=29.77&field2=27.24&field3=1009.69&field4=229.20&field5=294.00&field6=$GNGGA,164900.000,4900.5238,N,00825.4532,E,1,5,2.75,95.5,M,47.9,M,,*70

----
Resp:

OK

+CIPRCV,2:27


CLOSED
----
Msg: Send Completed!
Resp:
AT+CIPSTATUS
+CIPSTATUS:
STATE:CLOSED
----
Resp:
AT+CIPSTART="TCP","api.thingspeak.com",80
CONNECT OK
----
Msg: Connected!
Resp:
AT+GPSRD=5

OK
----
Msg: GPS Read Set!
Msg: Getting data from GPS using AT Cmd
Resp:
$GNGGA,164921.000,4900.5214,N,00825.4450,E,1,5,2.76,95.6,M,47.9,M,,*78
$GPGSA,A,3,06,19,02,24,,,,,,,,,2.93,2.76,0.99*03
$BDGSA,A,3,13,,,,,,,,,,,,2.93,2.76,0.99*1A
$GPGSV,3,1,10,12,81,023,,25,55,269,,24,48,139,24,32,37,291,19*7B
$GPGSV,3,2,10,02,23,115,36,06,23,067,16,29,21,199,,19,16,041,23*79
$GPGSV,3,3,10,31,04,304,,34,,,*4E
$BDGSV,1,1,03,21,18,283,,13,15,086,30,22,08,234,*5E
$GNRMC,164921.000,A,4900.5214,N,00825.4450,E,0.503,180.81,211221,,,A*49
$GNVTG,180.81,T,,M,0.503,N,0.931,K,A*2E
---
Msg: Getting data from GPS using AT done
Resp:
AT+GPSRD=0

OK
----
Msg: GPS Read Off!
Msg: Getting data from Sensors
Resp:
AT+CIPSEND

>
----
Msg: Send Started!
Resp:
GET https://api.thingspeak.com/update?api_key=AYKVFH212TKGNW2B&field1=29.79&field2=27.24&field3=1009.68&field4=235.20&field5=306.40&field6=$GNGGA,164921.000,4900.5214,N,00825.4450,E,1,5,2.76,95.6,M,47.9,M,,*78

----
Resp:

OK



+CIPRCV,2:28
CLOSED
----
Msg: Send Completed!
Resp:
AT+CIPSTATUS
+CIPSTATUS:
STATE:CLOSED
----
Resp:
AT+CIPSTART="TCP","api.thingspeak.com",80
CONNECT OK
----
Msg: Connected!
Resp:
AT+GPSRD=5

OK
----
Msg: GPS Read Set!
Msg: Getting data from GPS using AT Cmd
Resp:
$GNGGA,164941.000,4900.5207,N,00825.4531,E,1,6,1.85,95.8,M,47.9,M,,*78
$GPGSA,A,3,12,06,19,02,24,,,,,,,,2.10,1.85,0.99*04
$BDGSA,A,3,13,,,,,,,,,,,,2.10,1.85,0.99*1E
$GPGSV,3,1,10,12,81,023,14,25,55,269,,24,48,139,26,32,37,291,17*72
$GPGSV,3,2,10,02,23,115,37,06,23,067,16,29,21,199,,19,16,041,23*78
$GPGSV,3,3,10,31,04,304,,38,,,*42
$BDGSV,1,1,04,27,30,050,29,21,18,282,15,13,15,086,31,22,07,233,16*6A
$GNRMC,164941.000,A,4900.5207,N,00825.4531,E,1.899,105.15,211221,,,A*44
$GNVTG,105.15,T,,M,1.899,N,3.519,K,A*24
---
Msg: Getting data from GPS using AT done
Resp:
AT+GPSRD=0

OK
----
Msg: GPS Read Off!
Msg: Getting data from Sensors
Resp:
AT+CIPSEND

>
----
Msg: Send Started!
Resp:
GET https://api.thingspeak.com/update?api_key=AYKVFH212TKGNW2B&field1=29.80&field2=27.21&field3=1009.68&field4=241.30&field5=308.50&field6=$GNGGA,164941.000,4900.5207,N,00825.4531,E,1,6,1.85,95.8,M,47.9,M,,*78

----
Resp:

OK



+CIPRCV,2:29
CLOSED
----
Msg: Send Completed!
Resp:
AT+CIPSTATUS
+CIPSTATUS:
STATE:CLOSED
----
Resp:
AT+CIPSTART="TCP","api.thingspeak.com",80
CONNECT OK
----
Msg: Connected!
Resp:
AT+GPSRD=5

OK
----
Msg: GPS Read Set!
Msg: Getting data from GPS using AT Cmd
Resp:
$GNGGA,165001.000,4900.5199,N,00825.4480,E,1,6,1.85,96.8,M,47.9,M,,*78
$GPGSA,A,3,12,06,19,02,24,,,,,,,,2.10,1.85,0.99*04
$BDGSA,A,3,13,,,,,,,,,,,,2.10,1.85,0.99*1E
$GPGSV,3,1,10,12,81,026,14,25,55,269,13,24,48,139,25,32,37,291,13*72
$GPGSV,3,2,10,02,24,114,33,06,23,066,17,29,21,199,,19,16,041,22*7B
$GPGSV,3,3,10,31,04,304,,46,,,*4B
$BDGSV,1,1,04,27,30,050,30,21,18,282,,13,15,086,29,22,07,233,16*6F
$GNRMC,165001.000,A,4900.5199,N,00825.4480,E,0.875,115.04,211221,,,A*45
$GNVTG,115.04,T,,M,0.875,N,1.621,K,A*2C
---
Msg: Getting data from GPS using AT done
Resp:
AT+GPSRD=0

OK
----
Msg: GPS Read Off!
Msg: Getting data from Sensors
Resp:
AT+CIPSEND

>
----
Msg: Send Started!
Resp:
GET https://api.thingspeak.com/update?api_key=AYKVFH212TKGNW2B&field1=29.82&field2=27.19&field3=1009.69&field4=245.90&field5=312.00&field6=$GNGGA,165001.000,4900.5199,N,00825.4480,E,1,6,1.85,96.8,M,47.9,M,,*78

----
Resp:

OK



+CIPRCV,2:30
CLOSED
----
Msg: Send Completed!
Resp:
AT+CIPSTATUS
+CIPSTATUS:
STATE:CLOSED
----
Resp:
AT+CIPSTART="TCP","api.thingspeak.com",80
CONNECT OK
----
Msg: Connected!
Resp:
AT+GPSRD=5

OK
----
Msg: GPS Read Set!
Msg: Getting data from GPS using AT Cmd
Resp:
$GNGGA,165022.000,4900.5156,N,00825.4492,E,1,6,2.02,95.1,M,47.9,M,,*7F
$GPGSA,A,3,12,06,19,02,24,,,,,,,,2.25,2.02,0.99*0E
$BDGSA,A,3,13,,,,,,,,,,,,2.25,2.02,0.99*14
$GPGSV,3,1,10,12,81,026,13,25,56,270,13,24,48,139,27,32,38,290,12*73
$GPGSV,3,2,10,37,32,162,,02,24,114,32,06,23,066,19,29,22,199,*7D
$GPGSV,3,3,10,19,15,041,22,31,04,304,*70
$BDGSV,2,1,05,27,30,050,29,21,18,282,,05,16,122,,13,15,086,28*65
$BDGSV,2,2,05,22,07,233,14*5D
$GNRMC,165022.000,A,4900.5156,N,00825.4492,E,0.440,276.74,211221,,,A*4F
$GNVTG,276.74,T,,M,0.440,N,0.815,K,A*2F
---
Msg: Getting data from GPS using AT done
Resp:
AT+GPSRD=0

OK
----
Msg: GPS Read Off!
Msg: Getting data from Sensors
Resp:
AT+CIPSEND

>
----
Msg: Send Started!
Resp:
GET https://api.thingspeak.com/update?api_key=AYKVFH212TKGNW2B&field1=29.83&field2=27.17&field3=1009.69&field4=243.00&field5=298.80&field6=$GNGGA,165022.000,4900.5156,N,00825.4492,E,1,6,2.02,95.1,M,47.9,M,,*7F

----
Resp:

OK



+CIPRCV,2:31
CLOSED
----
Msg: Send Completed!
Resp:
AT+CIPSTATUS
+CIPSTATUS:
STATE:CLOSED
----
Resp:
AT+CIPSTART="TCP","api.thingspeak.com",80
CONNECT OK
----
Msg: Connected!
Resp:
AT+GPSRD=5

OK
----
Msg: GPS Read Set!
Msg: Getting data from GPS using AT Cmd
Resp:
$GNGGA,165042.000,4900.5180,N,00825.4471,E,1,5,3.38,92.5,M,47.9,M,,*77
$GPGSA,A,3,06,19,02,24,,,,,,,,,3.53,3.38,0.99*05
$BDGSA,A,3,13,,,,,,,,,,,,3.53,3.38,0.99*1C
$GPGSV,3,1,10,12,81,026,,25,56,270,14,24,48,139,26,32,38,290,13*76
$GPGSV,3,2,10,33,29,210,,02,24,114,34,06,23,066,14,29,22,199,*7E
$GPGSV,3,3,10,19,15,041,21,31,04,304,*73
$BDGSV,2,1,06,27,30,050,27,29,23,179,18,21,18,282,14,13,16,086,28*61
$BDGSV,2,2,06,05,16,122,,22,07,233,15*6C
$GNRMC,165042.000,A,4900.5180,N,00825.4471,E,3.806,92.71,211221,,,A*7F
$GNVTG,92.71,T,,M,3.806,N,7.052,K,A*13
---
Msg: Getting data from GPS using AT done
Resp:
AT+GPSRD=0

OK
----
Msg: GPS Read Off!
Msg: Getting data from Sensors
Resp:
AT+CIPSEND

>
----
Msg: Send Started!
Resp:
GET https://api.thingspeak.com/update?api_key=AYKVFH212TKGNW2B&field1=29.84&field2=27.17&field3=1009.68&field4=241.30&field5=303.50&field6=$GNGGA,165042.000,4900.5180,N,00825.4471,E,1,5,3.38,92.5,M,47.9,M,,*77

----
Resp:

OK



+CIPRCV,2:32
CLOSED
----
Msg: Send Completed!
Resp:
AT+CIPSTATUS
+CIPSTATUS:
STATE:CLOSED
----
Resp:
AT+CIPSTART="TCP","api.thingspeak.com",80
CONNECT OK
----
Msg: Connected!
Resp:
AT+GPSRD=5

OK
----
Msg: GPS Read Set!
Msg: Getting data from GPS using AT Cmd
Resp:
$GNGGA,165102.000,4900.5192,N,00825.4358,E,1,6,3.39,91.6,M,47.9,M,,*7F
$GPGSA,A,3,06,19,02,24,,,,,,,,,3.53,3.39,0.99*04
$BDGSA,A,3,27,13,,,,,,,,,,,3.53,3.39,0.99*18
$GPGSV,3,1,10,12,81,026,,25,56,270,14,24,48,139,25,32,38,290,17*71
$GPGSV,3,2,10,02,24,114,35,06,23,066,16,29,22,199,,19,15,041,21*7F
$GPGSV,3,3,10,44,12,116,,31,04,304,*7C
$BDGSV,2,1,07,30,54,117,27,27,29,049,25,29,23,179,18,21,18,282,13*64
$BDGSV,2,2,07,13,16,086,27,05,16,122,,22,07,233,16*50
$GNRMC,165102.000,A,4900.5192,N,00825.4358,E,0.264,204.29,211221,,,A*48
$GNVTG,204.29,T,,M,0.264,N,0.490,K,A*23
---
Msg: Getting data from GPS using AT done
Resp:
AT+GPSRD=0

OK
----
Msg: GPS Read Off!
Msg: Getting data from Sensors
Resp:
AT+CIPSEND

>
----
Msg: Send Started!
Resp:
GET https://api.thingspeak.com/update?api_key=AYKVFH212TKGNW2B&field1=29.85&field2=27.15&field3=1009.68&field4=234.30&field5=299.60&field6=$GNGGA,165102.000,4900.5192,N,00825.4358,E,1,6,3.39,91.6,M,47.9,M,,*7F

----
Resp:

OK



+CIPRCV,2:33
CLOSED
----
Msg: Send Completed!
Resp:
AT+CIPSTATUS
+CIPSTATUS:
STATE:CLOSED
----
Resp:
AT+CIPSTART="TCP","api.thingspeak.com",80
CONNECT OK
----
Msg: Connected!
Resp:
AT+GPSRD=5

OK
----
Msg: GPS Read Set!
Msg: Getting data from GPS using AT Cmd
Resp:
$GNGGA,165123.000,4900.5196,N,00825.4402,E,1,7,1.82,93.8,M,47.9,M,,*7F
$GPGSA,A,3,12,06,19,02,24,,,,,,,,2.07,1.82,0.98*04
$BDGSA,A,3,27,13,,,,,,,,,,,2.07,1.82,0.98*1B
$GPGSV,3,1,10,12,80,029,15,25,56,270,,24,48,139,25,32,38,290,16*7F
$GPGSV,3,2,10,02,24,114,35,06,24,066,17,29,22,199,,19,15,041,22*7A
$GPGSV,3,3,10,31,04,304,,36,,,*4C
$BDGSV,2,1,07,30,54,117,18,27,29,049,27,29,23,179,17,21,18,282,14*62
$BDGSV,2,2,07,13,16,086,27,05,16,122,,22,07,233,15*53
$GNRMC,165123.000,A,4900.5196,N,00825.4402,E,1.644,91.98,211221,,,A*74
$GNVTG,91.98,T,,M,1.644,N,3.046,K,A*1C
---
Msg: Getting data from GPS using AT done
Resp:
AT+GPSRD=0

OK
----
Msg: GPS Read Off!
Msg: Getting data from Sensors
Resp:
AT+CIPSEND

>
----
Msg: Send Started!
Resp:
GET https://api.thingspeak.com/update?api_key=AYKVFH212TKGNW2B&field1=29.86&field2=27.13&field3=1009.68&field4=229.40&field5=301.90&field6=$GNGGA,165123.000,4900.5196,N,00825.4402,E,1,7,1.82,93.8,M,47.9,M,,*7F

----
Resp:

OK



+CIPRCV,2:34
CLOSED
----
Msg: Send Completed!
Resp:
AT+CIPSTATUS
+CIPSTATUS:
STATE:CLOSED
----
Resp:
AT+CIPSTART="TCP","api.thingspeak.com",80
CONNECT OK
----
Msg: Connected!
Resp:
AT+GPSRD=5

OK
----
Msg: GPS Read Set!
Msg: Getting data from GPS using AT Cmd
Resp:
$GNGGA,165143.000,4900.5189,N,00825.4402,E,1,7,1.82,93.1,M,47.9,M,,*7E
$GPGSA,A,3,12,06,19,02,24,,,,,,,,2.07,1.82,0.98*04
$BDGSA,A,3,27,13,,,,,,,,,,,2.07,1.82,0.98*1B
$GPGSV,3,1,10,12,80,029,16,25,56,270,15,24,47,139,28,32,38,289,17*73
$GPGSV,3,2,10,02,24,114,38,06,24,066,18,29,22,199,,19,15,041,23*79
$GPGSV,3,3,10,31,05,305,,43,,,*4E
$BDGSV,2,1,07,30,54,117,23,27,29,049,26,29,23,179,17,21,18,282,*6E
$BDGSV,2,2,07,13,16,086,25,05,16,122,,22,07,233,15*51
$GNRMC,165143.000,A,4900.5189,N,00825.4402,E,1.610,130.18,211221,,,A*4F
$GNVTG,130.18,T,,M,1.610,N,2.983,K,A*2E
---
Msg: Getting data from GPS using AT done
Resp:
AT+GPSRD=0

OK
----
Msg: GPS Read Off!
Msg: Getting data from Sensors
Resp:
AT+CIPSEND

>
----
Msg: Send Started!
Resp:
GET https://api.thingspeak.com/update?api_key=AYKVFH212TKGNW2B&field1=29.88&field2=27.12&field3=1009.69&field4=226.50&field5=302.70&field6=$GNGGA,165143.000,4900.5189,N,00825.4402,E,1,7,1.82,93.1,M,47.9,M,,*7E

----
Resp:

OK



+CIPRCV,2:35
CLOSED
----
Msg: Send Completed!
Resp:
AT+CIPSTATUS
+CIPSTATUS:
STATE:CLOSED
----
Resp:
AT+CIPSTART="TCP","api.thingspeak.com",80
CONNECT OK
----
Msg: Connected!
Resp:
AT+GPSRD=5

OK
----
Msg: GPS Read Set!
Msg: Getting data from GPS using AT Cmd
Resp:
$GNGGA,165203.000,4900.5185,N,00825.4454,E,1,7,1.83,93.8,M,47.9,M,,*7E
$GPGSA,A,3,12,06,19,02,24,,,,,,,,2.07,1.83,0.98*05
$BDGSA,A,3,27,13,,,,,,,,,,,2.07,1.83,0.98*1A
$GPGSV,3,1,10,12,80,029,14,25,56,270,12,24,47,139,28,32,38,289,16*77
$GPGSV,3,2,10,02,24,114,39,06,24,066,19,29,22,199,,19,15,041,24*7E
$GPGSV,3,3,10,31,05,305,,47,,,*4A
$BDGSV,2,1,07,30,54,117,22,27,29,049,27,29,23,179,16,21,18,282,*6F
$BDGSV,2,2,07,13,16,086,28,05,16,122,,22,07,233,14*5D
$GNRMC,165203.000,A,4900.5185,N,00825.4454,E,1.797,100.53,211221,,,A*45
$GNVTG,100.53,T,,M,1.797,N,3.331,K,A*2E
---
Msg: Getting data from GPS using AT done
Resp:
AT+GPSRD=0

OK
----
Msg: GPS Read Off!
Msg: Getting data from Sensors
Resp:
AT+CIPSEND

>
----
Msg: Send Started!
Resp:
GET https://api.thingspeak.com/update?api_key=AYKVFH212TKGNW2B&field1=29.89&field2=27.10&field3=1009.68&field4=227.60&field5=308.70&field6=$GNGGA,165203.000,4900.5185,N,00825.4454,E,1,7,1.83,93.8,M,47.9,M,,*7E

----
Resp:

OK



+CIPRCV,2:36
CLOSED
----
Msg: Send Completed!
Resp:
AT+CIPSTATUS
+CIPSTATUS:
STATE:CLOSED
----
Resp:
AT+CIPSTART="TCP","api.thingspeak.com",80
CONNECT OK
----
Msg: Connected!
Resp:
AT+GPSRD=5

OK
----
Msg: GPS Read Set!
Msg: Getting data from GPS using AT Cmd
Resp:
$GNGGA,165224.000,4900.5165,N,00825.4520,E,1,7,2.05,92.6,M,47.9,M,,*75
$GPGSA,A,3,12,06,19,02,24,,,,,,,,2.27,2.05,0.98*0A
$BDGSA,A,3,27,13,,,,,,,,,,,2.27,2.05,0.98*15
$GPGSV,3,1,10,12,80,029,14,25,56,270,,24,47,139,24,32,38,289,13*7D
$GPGSV,3,2,10,02,24,114,35,06,24,066,21,29,22,199,,19,15,041,22*7F
$GPGSV,3,3,10,31,05,305,,50,,,*4C
$BDGSV,2,1,07,30,54,116,24,27,29,049,25,29,24,179,16,21,17,281,*61
$BDGSV,2,2,07,13,16,086,27,05,16,122,,22,06,233,13*54
$GNRMC,165224.000,A,4900.5165,N,00825.4520,E,2.217,123.11,211221,,,A*45
$GNVTG,123.11,T,,M,2.217,N,4.107,K,A*27
---
Msg: Getting data from GPS using AT done
Resp:
AT+GPSRD=0

OK
----
Msg: GPS Read Off!
Msg: Getting data from Sensors
Resp:
AT+CIPSEND

>
----
Msg: Send Started!
Resp:
GET https://api.thingspeak.com/update?api_key=AYKVFH212TKGNW2B&field1=29.91&field2=27.08&field3=1009.68&field4=220.40&field5=294.80&field6=$GNGGA,165224.000,4900.5165,N,00825.4520,E,1,7,2.05,92.6,M,47.9,M,,*75

----
Resp:

OK



+CIPRCV,2:37
CLOSED
----
Msg: Send Completed!
Resp:
AT+CIPSTATUS
+CIPSTATUS:
STATE:CLOSED
----
Resp:
AT+CIPSTART="TCP","api.thingspeak.com",80
CONNECT OK
----
Msg: Connected!
Resp:
AT+GPSRD=5

OK
----
Msg: GPS Read Set!
Msg: Getting data from GPS using AT Cmd
Resp:
$GNGGA,165244.000,4900.5160,N,00825.4503,E,1,7,1.83,91.7,M,47.9,M,,*78
$GPGSA,A,3,12,06,19,02,24,,,,,,,,2.08,1.83,0.98*0A
$BDGSA,A,3,27,13,,,,,,,,,,,2.08,1.83,0.98*15
$GPGSV,3,1,10,12,80,032,16,25,56,270,,24,47,139,21,32,38,289,12*71
$GPGSV,3,2,10,37,32,162,,02,25,113,34,06,24,065,20,29,22,199,*73
$GPGSV,3,3,10,19,15,041,22,31,05,305,*70
$BDGSV,2,1,07,30,54,116,24,27,29,049,24,29,24,179,15,21,17,281,*63
$BDGSV,2,2,07,13,16,086,26,05,16,122,,22,06,233,13*55
$GNRMC,165244.000,A,4900.5160,N,00825.4503,E,2.789,102.64,211221,,,A*44
$GNVTG,102.64,T,,M,2.789,N,5.169,K,A*2D
---
Msg: Getting data from GPS using AT done
Resp:
AT+GPSRD=0

OK
----
Msg: GPS Read Off!
Msg: Getting data from Sensors
Resp:
AT+CIPSEND

>
----
Msg: Send Started!
Resp:
GET https://api.thingspeak.com/update?api_key=AYKVFH212TKGNW2B&field1=29.92&field2=27.08&field3=1009.68&field4=218.20&field5=294.60&field6=$GNGGA,165244.000,4900.5160,N,00825.4503,E,1,7,1.83,91.7,M,47.9,M,,*78

----
Resp:

OK

+CIPRCV,2:38


CLOSED
----
Msg: Send Completed!
Resp:
AT+CIPSTATUS
+CIPSTATUS:
STATE:CLOSED
----
Resp:
AT+CIPSTART="TCP","api.thingspeak.com",80
CONNECT OK
----
Msg: Connected!
Resp:
AT+GPSRD=5

OK
----
Msg: GPS Read Set!
Msg: Getting data from GPS using AT Cmd
Resp:
$GNGGA,165304.000,4900.5173,N,00825.4449,E,1,6,3.45,93.4,M,47.9,M,,*78
$GPGSA,A,3,06,19,02,24,,,,,,,,,3.59,3.45,0.99*05
$BDGSA,A,3,27,13,,,,,,,,,,,3.59,3.45,0.99*19
$GPGSV,3,1,10,12,80,032,,25,57,271,,24,46,140,22,32,38,288,15*7C
$GPGSV,3,2,10,33,29,210,,02,25,113,36,06,24,065,20,29,23,199,*78
$GPGSV,3,3,10,19,14,041,24,31,05,305,*77
$BDGSV,2,1,08,30,54,116,26,27,29,049,26,29,24,179,16,21,17,281,*6F
$BDGSV,2,2,08,13,16,086,26,05,16,122,,10,08,068,,22,06,233,14*6A
$GNRMC,165304.000,A,4900.5173,N,00825.4449,E,1.317,111.20,211221,,,A*4E
$GNVTG,111.20,T,,M,1.317,N,2.440,K,A*26
---
Msg: Getting data from GPS using AT done
Resp:
AT+GPSRD=0

OK
----
Msg: GPS Read Off!
Msg: Getting data from Sensors
Resp:
AT+CIPSEND

>
----
Msg: Send Started!
Resp:
GET https://api.thingspeak.com/update?api_key=AYKVFH212TKGNW2B&field1=29.94&field2=27.03&field3=1009.68&field4=223.30&field5=298.60&field6=$GNGGA,165304.000,4900.5173,N,00825.4449,E,1,6,3.45,93.4,M,47.9,M,,*78

----
Resp:

OK



+CIPRCV,2:39
CLOSED
----
Msg: Send Completed!
Resp:
AT+CIPSTATUS
+CIPSTATUS:
STATE:CLOSED
----
Resp:
AT+CIPSTART="TCP","api.thingspeak.com",80
CONNECT OK
----
Msg: Connected!
Resp:
AT+GPSRD=5

OK
----
Msg: GPS Read Set!
Msg: Getting data from GPS using AT Cmd
Resp:
$GNGGA,165325.000,4900.5180,N,00825.4464,E,1,8,1.82,92.2,M,47.9,M,,*78
$GPGSA,A,3,12,06,19,02,24,,,,,,,,2.07,1.82,0.97*0B
$BDGSA,A,3,30,27,13,,,,,,,,,,2.07,1.82,0.97*17
$GPGSV,3,1,10,12,80,032,17,25,57,271,,24,46,140,24,32,38,288,16*7F
$GPGSV,3,2,10,37,32,162,,02,25,113,37,06,24,065,21,29,23,199,*70
$GPGSV,3,3,10,19,14,041,25,31,05,305,*76
$BDGSV,2,1,08,30,54,116,26,27,29,049,24,29,24,179,17,21,17,281,17*6A
$BDGSV,2,2,08,13,16,085,24,05,16,122,,10,08,068,,22,06,233,13*6C
$GNRMC,165325.000,A,4900.5180,N,00825.4464,E,0.650,126.22,211221,,,A*4F
$GNVTG,126.22,T,,M,0.650,N,1.205,K,A*23
---
Msg: Getting data from GPS using AT done
Resp:
AT+GPSRD=0

OK
----
Msg: GPS Read Off!
Msg: Getting data from Sensors
Resp:
AT+CIPSEND

>
----
Msg: Send Started!
Resp:
GET https://api.thingspeak.com/update?api_key=AYKVFH212TKGNW2B&field1=29.95&field2=27.02&field3=1009.68&field4=228.80&field5=314.00&field6=$GNGGA,165325.000,4900.5180,N,00825.4464,E,1,8,1.82,92.2,M,47.9,M,,*78

----
Resp:

OK



+CIPRCV,2:40
CLOSED
----
Msg: Send Completed!
Resp:
AT+CIPSTATUS
+CIPSTATUS:
STATE:CLOSED
----
Resp:
AT+CIPSTART="TCP","api.thingspeak.com",80
CONNECT OK
----
Msg: Connected!
Resp:
AT+GPSRD=5

OK
----
Msg: GPS Read Set!
Msg: Getting data from GPS using AT Cmd
Resp:
$GNGGA,165345.000,4900.5173,N,00825.4458,E,1,8,1.83,91.9,M,47.9,M,,*74
$GPGSA,A,3,12,06,19,02,24,,,,,,,,2.07,1.83,0.97*0A
$BDGSA,A,3,30,27,13,,,,,,,,,,2.07,1.83,0.97*16
$GPGSV,3,1,10,12,80,032,16,25,57,271,,24,46,140,23,32,38,288,15*7A
$GPGSV,3,2,10,33,29,210,,02,25,113,37,06,24,065,20,29,23,199,*79
$GPGSV,3,3,10,19,14,041,26,31,05,305,*75
$BDGSV,2,1,08,30,54,115,23,27,29,049,24,29,24,179,17,21,17,281,16*6D
$BDGSV,2,2,08,13,16,085,25,05,16,122,,10,08,068,,22,06,233,*6F
$GNRMC,165345.000,A,4900.5173,N,00825.4458,E,1.781,81.77,211221,,,A*7A
$GNVTG,81.77,T,,M,1.781,N,3.301,K,A*14
---
Msg: Getting data from GPS using AT done
Resp:
AT+GPSRD=0

OK
----
Msg: GPS Read Off!
Msg: Getting data from Sensors
Resp:
AT+CIPSEND

>
----
Msg: Send Started!
Resp:
GET https://api.thingspeak.com/update?api_key=AYKVFH212TKGNW2B&field1=29.97&field2=27.04&field3=1009.67&field4=227.80&field5=305.60&field6=$GNGGA,165345.000,4900.5173,N,00825.4458,E,1,8,1.83,91.9,M,47.9,M,,*74

----
Resp:

OK



+CIPRCV,2:41
CLOSED
----
Msg: Send Completed!
Resp:
AT+CIPSTATUS
+CIPSTATUS:
STATE:CLOSED
----
Resp:
AT+CIPSTART="TCP","api.thingspeak.com",80
CONNECT OK
----
Msg: Connected!
Resp:
AT+GPSRD=5

OK
----
Msg: GPS Read Set!
Msg: Getting data from GPS using AT Cmd
Resp:
$GNGGA,165405.000,4900.5187,N,00825.4409,E,1,8,1.83,91.3,M,47.9,M,,*72
$GPGSA,A,3,12,06,19,02,24,,,,,,,,2.07,1.83,0.97*0A
$BDGSA,A,3,30,27,13,,,,,,,,,,2.07,1.83,0.97*16
$GPGSV,3,1,10,12,79,034,12,25,57,271,,24,46,140,18,32,38,288,14*77
$GPGSV,3,2,10,02,25,113,37,06,24,064,17,29,23,199,,19,14,041,24*7A
$GPGSV,3,3,10,44,12,116,,31,05,305,*7C
$BDGSV,2,1,08,30,54,115,19,27,29,049,23,29,24,179,17,21,17,281,16*63
$BDGSV,2,2,08,13,16,085,26,05,16,122,,10,08,068,,22,06,233,*6C
$GNRMC,165405.000,A,4900.5187,N,00825.4409,E,0.614,215.39,211221,,,A*4F
$GNVTG,215.39,T,,M,0.614,N,1.138,K,A*27
---
Msg: Getting data from GPS using AT done
Resp:
AT+GPSRD=0

OK
----
Msg: GPS Read Off!
Msg: Getting data from Sensors
Resp:
AT+CIPSEND

>
----
Msg: Send Started!
Resp:
GET https://api.thingspeak.com/update?api_key=AYKVFH212TKGNW2B&field1=29.98&field2=26.97&field3=1009.67&field4=222.50&field5=308.70&field6=$GNGGA,165405.000,4900.5187,N,00825.4409,E,1,8,1.83,91.3,M,47.9,M,,*72

----
Resp:

OK



+CIPRCV,2:42
CLOSED
----
Msg: Send Completed!
Resp:
AT+CIPSTATUS
+CIPSTATUS:
STATE:CLOSED
----
Resp:
AT+CIPSTART="TCP","api.thingspeak.com",80
CONNECT OK
----
Msg: Connected!
Resp:
AT+GPSRD=5

OK
----
Msg: GPS Read Set!
Msg: Getting data from GPS using AT Cmd
Resp:
$GNGGA,165426.000,4900.5157,N,00825.4254,E,1,7,2.58,92.5,M,47.9,M,,*7F
$GPGSA,A,3,06,19,02,24,,,,,,,,,2.76,2.58,0.97*0A
$BDGSA,A,3,30,27,13,,,,,,,,,,2.76,2.58,0.97*15
$GPGSV,3,1,10,12,79,034,,25,58,271,,24,46,140,19,32,38,288,15*7B
$GPGSV,3,2,10,02,25,113,37,06,24,064,18,29,24,199,,19,14,041,25*73
$GPGSV,3,3,10,31,06,305,,36,,,*4F
$BDGSV,2,1,08,30,54,115,16,27,29,049,23,29,24,179,17,21,17,281,13*69
$BDGSV,2,2,08,13,16,085,25,05,16,122,,10,08,068,,22,06,233,*6F
$GNRMC,165426.000,A,4900.5157,N,00825.4254,E,0.868,137.36,211221,,,A*44
$GNVTG,137.36,T,,M,0.868,N,1.608,K,A*2A
---
Msg: Getting data from GPS using AT done
Resp:
AT+GPSRD=0

OK
----
Msg: GPS Read Off!
Msg: Getting data from Sensors
Resp:
AT+CIPSEND

>
----
Msg: Send Started!
Resp:
GET https://api.thingspeak.com/update?api_key=AYKVFH212TKGNW2B&field1=29.99&field2=26.93&field3=1009.68&field4=223.90&field5=299.50&field6=$GNGGA,165426.000,4900.5157,N,00825.4254,E,1,7,2.58,92.5,M,47.9,M,,*7F

----
Resp:

OK



+CIPRCV,2:43
CLOSED
----
Msg: Send Completed!
Resp:
AT+CIPSTATUS
+CIPSTATUS:
STATE:CLOSED
----
Resp:
AT+CIPSTART="TCP","api.thingspeak.com",80
CONNECT OK
----
Msg: Connected!
Resp:
AT+GPSRD=5

OK
----
Msg: GPS Read Set!
Msg: Getting data from GPS using AT Cmd
Resp:
$GNGGA,165446.000,4900.5154,N,00825.4315,E,1,8,2.09,94.1,M,47.9,M,,*77
$GPGSA,A,3,12,06,19,02,24,,,,,,,,2.31,2.09,0.98*01
$BDGSA,A,3,30,27,13,,,,,,,,,,2.31,2.09,0.98*1D
$GPGSV,3,1,10,12,79,034,17,25,58,271,,24,46,140,22,32,38,288,16*76
$GPGSV,3,2,10,02,25,113,37,06,24,064,21,29,24,199,,19,14,041,26*7A
$GPGSV,3,3,10,31,06,305,,43,,,*4D
$BDGSV,3,1,09,30,54,115,17,27,29,049,24,29,24,179,18,21,17,280,*63
$BDGSV,3,2,09,13,16,085,24,05,16,122,,10,08,069,15,22,05,232,*69
$BDGSV,3,3,09,14,01,350,*53
$GNRMC,165446.000,A,4900.5154,N,00825.4315,E,1.960,109.49,211221,,,A*48
$GNVTG,109.49,T,,M,1.960,N,3.633,K,A*2D
---
Msg: Getting data from GPS using AT done
Resp:
AT+GPSRD=0

OK
----
Msg: GPS Read Off!
Msg: Getting data from Sensors
Resp:
AT+CIPSEND

>
----
Msg: Send Started!
Resp:
GET https://api.thingspeak.com/update?api_key=AYKVFH212TKGNW2B&field1=29.99&field2=26.96&field3=1009.69&field4=224.20&field5=304.70&field6=$GNGGA,165446.000,4900.5154,N,00825.4315,E,1,8,2.09,94.1,M,47.9,M,,*77

----
Resp:

OK



+CIPRCV,2:44
CLOSED
----
Msg: Send Completed!
Resp:
AT+CIPSTATUS
+CIPSTATUS:
STATE:CLOSED
----
Resp:
AT+CIPSTART="TCP","api.thingspeak.com",80
CONNECT OK
----
Msg: Connected!
Resp:
AT+GPSRD=5

OK
----
Msg: GPS Read Set!
Msg: Getting data from GPS using AT Cmd
Resp:
$GNGGA,165506.000,4900.5174,N,00825.4316,E,1,8,2.09,93.3,M,47.9,M,,*76
$GPGSA,A,3,12,06,19,02,24,,,,,,,,2.31,2.09,0.98*01
$BDGSA,A,3,30,27,13,,,,,,,,,,2.31,2.09,0.98*1D
$GPGSV,3,1,10,12,79,034,17,25,58,271,,24,46,140,20,32,38,288,15*77
$GPGSV,3,2,10,02,26,112,37,06,24,064,18,29,24,199,,19,14,041,24*70
$GPGSV,3,3,10,31,06,305,,47,,,*49
$BDGSV,3,1,09,30,55,114,16,27,28,048,24,29,25,179,17,21,17,280,*6C
$BDGSV,3,2,09,13,16,085,22,05,16,122,,10,08,069,13,22,05,232,*69
$BDGSV,3,3,09,14,01,350,*53
$GNRMC,165506.000,A,4900.5174,N,00825.4316,E,0.931,105.39,211221,,,A*42
$GNVTG,105.39,T,,M,0.931,N,1.725,K,A*27
---
Msg: Getting data from GPS using AT done
Resp:
AT+GPSRD=0

OK
----
Msg: GPS Read Off!
Msg: Getting data from Sensors
Resp:
AT+CIPSEND

>
----
Msg: Send Started!
Resp:
GET https://api.thingspeak.com/update?api_key=AYKVFH212TKGNW2B&field1=30.00&field2=27.01&field3=1009.69&field4=227.20&field5=295.80&field6=$GNGGA,165506.000,4900.5174,N,00825.4316,E,1,8,2.09,93.3,M,47.9,M,,*76

----
Resp:

OK



+CIPRCV,2:45
CLOSED
----
Msg: Send Completed!
Resp:
AT+CIPSTATUS
+CIPSTATUS:
STATE:CLOSED
----
Resp:
AT+CIPSTART="TCP","api.thingspeak.com",80
CONNECT OK
----
Msg: Connected!
Resp:
AT+GPSRD=5

OK
----
Msg: GPS Read Set!
Msg: Getting data from GPS using AT Cmd
Resp:
$GNGGA,165527.000,4900.5174,N,00825.4304,E,1,7,3.52,95.1,M,47.9,M,,*72
$GPGSA,A,3,06,19,02,24,,,,,,,,,3.66,3.52,0.99*0F
$BDGSA,A,3,30,27,13,,,,,,,,,,3.66,3.52,0.99*10
$GPGSV,3,1,10,12,79,036,,25,58,271,15,24,46,140,18,32,38,288,16*7F
$GPGSV,3,2,10,39,31,158,,02,26,112,39,06,24,064,20,29,24,199,*7F
$GPGSV,3,3,10,19,13,041,25,31,06,305,*72
$BDGSV,3,1,09,30,55,114,12,27,28,048,24,29,25,179,16,21,17,280,*69
$BDGSV,3,2,09,13,16,085,22,05,16,122,,10,08,069,15,22,05,232,*6F
$BDGSV,3,3,09,14,01,350,*53
$GNRMC,165527.000,A,4900.5174,N,00825.4304,E,1.213,80.99,211221,,,A*7E
$GNVTG,80.99,T,,M,1.213,N,2.248,K,A*16
---
Msg: Getting data from GPS using AT done
Resp:
AT+GPSRD=0

OK
----
Msg: GPS Read Off!
Msg: Getting data from Sensors
Resp:
AT+CIPSEND

>
----
Msg: Send Started!
Resp:
GET https://api.thingspeak.com/update?api_key=AYKVFH212TKGNW2B&field1=30.01&field2=27.01&field3=1009.69&field4=221.20&field5=297.00&field6=$GNGGA,165527.000,4900.5174,N,00825.4304,E,1,7,3.52,95.1,M,47.9,M,,*72

----
Resp:

OK



+CIPRCV,2:46
CLOSED
----
Msg: Send Completed!
Resp:
AT+CIPSTATUS
+CIPSTATUS:
STATE:CLOSED
----
Resp:
AT+CIPSTART="TCP","api.thingspeak.com",80
CONNECT OK
----
Msg: Connected!
Resp:
AT+GPSRD=5

OK
----
Msg: GPS Read Set!
Msg: Getting data from GPS using AT Cmd
Resp:
$GNGGA,165547.000,4900.5164,N,00825.4356,E,1,7,3.53,98.8,M,47.9,M,,*77
$GPGSA,A,3,06,19,02,24,,,,,,,,,3.67,3.53,0.99*0F
$BDGSA,A,3,30,27,13,,,,,,,,,,3.67,3.53,0.99*10
$GPGSV,3,1,10,12,79,036,,25,58,272,,24,45,140,19,32,38,287,17*74
$GPGSV,3,2,10,02,26,112,38,06,24,064,18,29,24,199,,19,13,041,24*78
$GPGSV,3,3,10,40,13,117,,31,06,305,*7B
$BDGSV,3,1,09,30,55,114,16,27,28,048,24,29,25,179,14,21,17,280,*6F
$BDGSV,3,2,09,13,16,085,21,05,16,122,,10,08,069,14,22,05,232,*6D
$BDGSV,3,3,09,14,01,350,*53
$GNRMC,165547.000,A,4900.5164,N,00825.4356,E,1.364,91.44,211221,,,A*7F
$GNVTG,91.44,T,,M,1.364,N,2.527,K,A*19
---
Msg: Getting data from GPS using AT done
Resp:
AT+GPSRD=0

OK
----
Msg: GPS Read Off!
Msg: Getting data from Sensors
Resp:
AT+CIPSEND

>
----
Msg: Send Started!
Resp:
GET https://api.thingspeak.com/update?api_key=AYKVFH212TKGNW2B&field1=30.02&field2=26.99&field3=1009.70&field4=222.20&field5=298.30&field6=$GNGGA,165547.000,4900.5164,N,00825.4356,E,1,7,3.53,98.8,M,47.9,M,,*77

----
Resp:

OK



+CIPRCV,2:47
CLOSED
----
Msg: Send Completed!
Resp:
AT+CIPSTATUS
+CIPSTATUS:
STATE:CLOSED
----
Resp:
AT+CIPSTART="TCP","api.thingspeak.com",80
CONNECT OK
----
Msg: Connected!
Resp:
AT+GPSRD=5

OK
----
Msg: GPS Read Set!
Msg: Getting data from GPS using AT Cmd
Resp:
$GNGGA,165608.000,4900.5163,N,00825.4369,E,1,7,3.54,99.2,M,47.9,M,,*78
$GPGSA,A,3,06,19,02,24,,,,,,,,,3.68,3.54,0.99*07
$BDGSA,A,3,30,27,13,,,,,,,,,,3.68,3.54,0.99*18
$GPGSV,3,1,10,12,79,036,,25,58,272,,24,45,140,24,32,38,287,20*7E
$GPGSV,3,2,10,02,26,112,37,06,24,064,17,29,24,199,,19,13,041,24*78
$GPGSV,3,3,10,31,06,305,,35,,,*4C
$BDGSV,3,1,09,30,55,114,15,27,28,048,24,29,25,179,14,13,17,085,21*69
$BDGSV,3,2,09,21,17,280,,05,16,122,,10,08,069,13,22,05,232,*6E
$BDGSV,3,3,09,14,01,350,*53
$GNRMC,165608.000,A,4900.5163,N,00825.4369,E,2.158,100.11,211221,,,A*4B
$GNVTG,100.11,T,,M,2.158,N,3.998,K,A*27
---
Msg: Getting data from GPS using AT done
Resp:
AT+GPSRD=0

OK
----
Msg: GPS Read Off!
Msg: Getting data from Sensors
Resp:
AT+CIPSEND

>
----
Msg: Send Started!
Resp:
GET https://api.thingspeak.com/update?api_key=AYKVFH212TKGNW2B&field1=30.03&field2=26.95&field3=1009.70&field4=218.20&field5=292.30&field6=$GNGGA,165608.000,4900.5163,N,00825.4369,E,1,7,3.54,99.2,M,47.9,M,,*78

----
Resp:

OK



+CIPRCV,2:48
CLOSED
----
Msg: Send Completed!
Resp:
AT+CIPSTATUS
+CIPSTATUS:
STATE:CLOSED
----
Resp:
AT+CIPSTART="TCP","api.thingspeak.com",80
CONNECT OK
----
Msg: Connected!
Resp:
AT+GPSRD=5

OK
----
Msg: GPS Read Set!
Msg: Getting data from GPS using AT Cmd
Resp:
$GNGGA,165629.000,4900.5176,N,00825.4485,E,1,7,2.60,98.4,M,47.9,M,,*7B
$GPGSA,A,3,06,19,02,24,,,,,,,,,2.77,2.60,0.97*00
$BDGSA,A,3,30,27,13,,,,,,,,,,2.77,2.60,0.97*1F
$GPGSV,3,1,10,12,79,036,,25,58,272,,24,45,140,26,32,38,287,20*7C
$GPGSV,3,2,10,02,26,112,39,06,24,063,17,29,24,199,,19,13,041,24*71
$GPGSV,3,3,10,31,06,305,,41,,,*4F
$BDGSV,3,1,09,30,55,113,19,27,28,048,24,29,25,179,15,13,17,085,22*60
$BDGSV,3,2,09,21,17,280,,05,16,122,,10,08,069,15,22,05,232,*68
$BDGSV,3,3,09,14,01,350,*53
$GNRMC,165629.000,A,4900.5176,N,00825.4485,E,0.519,148.09,211221,,,A*4F
$GNVTG,148.09,T,,M,0.519,N,0.962,K,A*27
---
Msg: Getting data from GPS using AT done
Resp:
AT+GPSRD=0

OK
----
Msg: GPS Read Off!
Msg: Getting data from Sensors
Resp:
AT+CIPSEND

>
----
Msg: Send Started!
Resp:
GET https://api.thingspeak.com/update?api_key=AYKVFH212TKGNW2B&field1=30.04&field2=26.96&field3=1009.70&field4=220.00&field5=287.30&field6=$GNGGA,165629.000,4900.5176,N,00825.4485,E,1,7,2.60,98.4,M,47.9,M,,*7B

----
Resp:

OK



+CIPRCV,2:49
CLOSED
----
Msg: Send Completed!
Resp:
AT+CIPSTATUS
+CIPSTATUS:
STATE:CLOSED
----
Resp:
AT+CIPSTART="TCP","api.thingspeak.com",80
CONNECT OK
----
Msg: Connected!
Resp:
AT+GPSRD=5

OK
----
Msg: GPS Read Set!
Msg: Getting data from GPS using AT Cmd
Resp:
$GNGGA,165655.000,4900.5184,N,00825.4399,E,1,7,2.60,99.1,M,47.9,M,,*73
$GPGSA,A,3,06,19,02,24,,,,,,,,,2.77,2.60,0.97*00
$BDGSA,A,3,30,27,13,,,,,,,,,,2.77,2.60,0.97*1F
$GPGSV,3,1,10,12,79,038,,25,59,273,14,24,45,140,22,32,38,286,19*78
$GPGSV,3,2,10,02,26,112,39,29,25,199,,06,24,063,19,19,13,041,23*79
$GPGSV,3,3,10,31,07,305,,47,,,*48
$BDGSV,3,1,09,30,55,113,21,27,28,048,22,29,25,179,15,13,17,085,21*6E
$BDGSV,3,2,09,21,17,280,,05,16,122,,10,08,069,15,22,05,232,*68
$BDGSV,3,3,09,14,01,350,*53
$GNRMC,165655.000,A,4900.5184,N,00825.4399,E,1.300,87.69,211221,,,A*78
$GNVTG,87.69,T,,M,1.300,N,2.409,K,A*1E
---
Msg: Getting data from GPS using AT done
Resp:
AT+GPSRD=0

OK
----
Msg: GPS Read Off!
Msg: Getting data from Sensors
Resp:
AT+CIPSEND

>
----
Msg: Send Started!
Resp:
GET https://api.thingspeak.com/update?api_key=AYKVFH212TKGNW2B&field1=30.04&field2=26.95&field3=1009.71&field4=219.10&field5=276.20&field6=$GNGGA,165655.000,4900.5184,N,00825.4399,E,1,7,2.60,99.1,M,47.9,M,,*73

----
Resp:

OK



+CIPRCV,2:50
CLOSED
----
Msg: Send Completed!
Resp:
AT+CIPSTATUS
+CIPSTATUS:
STATE:CLOSED
----
Resp:
AT+CIPSTART="TCP","api.thingspeak.com",80
CONNECT OK
----
Msg: Connected!
Resp:
AT+GPSRD=5

OK
----
Msg: GPS Read Set!
Msg: Getting data from GPS using AT Cmd
Resp:
$GNGGA,165715.000,4900.5182,N,00825.4405,E,1,7,2.60,99.6,M,47.9,M,,*75
$GPGSA,A,3,06,19,02,24,,,,,,,,,2.78,2.60,0.97*0F
$BDGSA,A,3,30,27,13,,,,,,,,,,2.78,2.60,0.97*10
$GPGSV,3,1,10,12,79,038,,25,59,273,16,24,45,140,25,32,38,286,20*77
$GPGSV,3,2,10,02,26,112,39,29,25,199,,06,24,063,18,19,13,041,23*78
$GPGSV,3,3,10,31,07,305,,42,,,*4D
$BDGSV,3,1,09,30,55,113,19,27,28,048,22,29,25,179,15,13,17,085,21*65
