created_at,entry_id,field1,field2,field3,field4,field5,field6,latitude,longitude,elevation,status
2021-12-23T00:11:47+01:00,1,26.62,35.48,1007.39,14.20,15.00,"$GNGGA,000028.263,4900.5167,N,00825.4499,E,0,0,,102.1,M,47.9,M,,*5F",,,,
2021-12-23T00:12:07+01:00,2,26.49,35.25,1007.40,13.70,14.60,"$GNGGA,000048.263,4900.5167,N,00825.4499,E,0,0,,102.1,M,47.9,M,,*59",,,,
2021-12-23T00:12:27+01:00,3,26.46,34.81,1007.39,14.30,15.10,"$GNGGA,000108.263,4900.5167,N,00825.4499,E,0,0,,102.1,M,47.9,M,,*5C",,,,
2021-12-23T00:12:47+01:00,4,26.50,34.35,1007.40,13.60,15.60,"$GNGGA,000128.263,4900.5167,N,00825.4499,E,0,0,,102.1,M,47.9,M,,*5E",,,,
2021-12-23T00:13:07+01:00,5,26.59,33.94,1007.40,13.90,15.90,"$GNGGA,000148.263,4900.5167,N,00825.4499,E,0,0,,102.1,M,47.9,M,,*58",,,,
2021-12-23T00:13:27+01:00,6,26.71,33.68,1007.40,13.90,15.00,"$GNGGA,000208.263,4900.5167,N,00825.4499,E,0,0,,102.1,M,47.9,M,,*5F",,,,
2021-12-23T00:13:47+01:00,7,26.85,33.37,1007.42,14.30,15.10,"$GNGGA,000228.263,4900.5167,N,00825.4499,E,0,0,,102.1,M,47.9,M,,*5D",,,,
2021-12-23T00:14:08+01:00,8,27.01,33.06,1007.42,14.90,15.70,"$GNGGA,231403.104,4900.5167,N,00825.4499,E,0,0,,107.0,M,47.9,M,,*54",,,,
2021-12-23T00:14:28+01:00,9,27.16,32.79,1007.43,14.10,14.90,"$GNGGA,231424.104,4859.8261,N,00823.6538,E,0,1,,106.4,M,47.9,M,,*5E",,,,
2021-12-23T00:14:49+01:00,10,27.32,32.48,1007.43,13.00,13.70,"$GNGGA,231444.104,4900.5165,N,00825.4494,E,0,1,,107.0,M,47.9,M,,*59",,,,
2021-12-23T00:15:09+01:00,11,27.48,32.22,1007.43,13.10,13.80,"$GNGGA,231504.104,4900.5166,N,00825.4495,E,0,1,,107.0,M,47.9,M,,*5E",,,,
2021-12-23T00:15:29+01:00,12,27.64,32.04,1007.43,14.40,15.20,"$GNGGA,231525.104,4900.5168,N,00825.4501,E,0,1,,107.0,M,47.9,M,,*5F",,,,
2021-12-23T00:15:49+01:00,13,27.79,31.80,1007.44,13.70,14.40,"$GNGGA,231545.104,4900.5168,N,00825.4501,E,0,1,,107.0,M,47.9,M,,*59",,,,
2021-12-23T00:16:09+01:00,14,27.93,31.61,1007.44,12.10,12.80,"$GNGGA,231605.104,4900.5167,N,00825.4500,E,0,1,,107.0,M,47.9,M,,*50",,,,
2021-12-23T00:16:31+01:00,15,28.08,31.46,1007.44,12.00,15.10,"$GNGGA,231626.104,4900.5167,N,00825.4499,E,0,0,,102.1,M,47.9,M,,*55",,,,
2021-12-23T00:16:51+01:00,16,28.21,31.28,1007.43,13.00,16.00,"$GNGGA,231646.104,4900.5167,N,00825.4499,E,0,0,,102.1,M,47.9,M,,*53",,,,
2021-12-23T00:17:10+01:00,17,28.34,31.10,1007.43,14.00,16.80,"$GNGGA,231706.104,4900.5167,N,00825.4499,E,0,0,,102.1,M,47.9,M,,*56",,,,
2021-12-23T00:17:32+01:00,18,28.46,30.96,1007.43,13.60,14.30,"$GNGGA,231727.104,4900.5167,N,00825.4499,E,0,0,,102.1,M,47.9,M,,*55",,,,
2021-12-23T00:17:51+01:00,19,28.57,30.78,1007.42,13.80,15.70,"$GNGGA,231747.104,4900.5167,N,00825.4499,E,0,0,,102.1,M,47.9,M,,*53",,,,
2021-12-23T00:18:12+01:00,20,28.69,30.52,1007.41,13.30,15.90,"$GNGGA,231807.104,4900.5167,N,00825.4499,E,0,0,,102.1,M,47.9,M,,*58",,,,
2021-12-23T00:18:32+01:00,21,28.79,30.45,1007.41,12.80,13.90,"$GNGGA,231827.104,4900.5167,N,00825.4499,E,0,0,,102.1,M,47.9,M,,*5A",,,,
2021-12-23T00:18:52+01:00,22,28.89,30.25,1007.40,13.00,13.70,"$GNGGA,231847.104,4900.5167,N,00825.4499,E,0,0,,102.1,M,47.9,M,,*5C",,,,
2021-12-23T00:19:12+01:00,23,28.99,30.03,1007.40,12.60,13.50,"$GNGGA,231907.104,4900.5167,N,00825.4499,E,0,0,,102.1,M,47.9,M,,*59",,,,
2021-12-23T00:19:32+01:00,24,29.09,29.99,1007.39,13.70,14.80,"$GNGGA,231927.104,4900.5167,N,00825.4499,E,0,0,,102.1,M,47.9,M,,*5B",,,,
2021-12-23T00:19:52+01:00,25,29.17,29.82,1007.38,13.10,13.80,"$GNGGA,231947.104,4900.5167,N,00825.4499,E,0,0,,102.1,M,47.9,M,,*5D",,,,
2021-12-23T00:20:12+01:00,26,29.23,29.78,1007.38,13.70,14.40,"$GNGGA,232007.104,4900.5167,N,00825.4499,E,0,0,,102.1,M,47.9,M,,*53",,,,
2021-12-23T00:20:32+01:00,27,29.28,29.72,1007.36,13.40,14.90,"$GNGGA,232028.104,4900.5167,N,00825.4499,E,0,0,,102.1,M,47.9,M,,*5E",,,,
2021-12-23T00:20:53+01:00,28,29.32,29.70,1007.37,13.80,15.60,"$GNGGA,232048.104,4900.5167,N,00825.4499,E,0,0,,102.1,M,47.9,M,,*58",,,,
2021-12-23T00:21:13+01:00,29,29.37,29.67,1007.37,13.50,14.30,"$GNGGA,232108.104,4900.5167,N,00825.4499,E,0,0,,102.1,M,47.9,M,,*5D",,,,
2021-12-23T00:21:33+01:00,30,29.43,29.37,1007.36,13.30,14.10,"$GNGGA,232129.094,4900.5167,N,00825.4499,E,0,0,,102.1,M,47.9,M,,*56",,,,
2021-12-23T00:21:53+01:00,31,29.50,29.27,1007.36,12.90,13.60,"$GNGGA,232149.094,4900.5167,N,00825.4499,E,0,0,,102.1,M,47.9,M,,*50",,,,
2021-12-23T00:22:13+01:00,32,29.58,29.21,1007.36,13.60,14.30,"$GNGGA,232209.092,4900.5167,N,00825.4499,E,0,0,,102.1,M,47.9,M,,*51",,,,
2021-12-23T00:22:33+01:00,33,29.66,29.09,1007.35,13.40,14.10,"$GNGGA,232229.092,4900.5167,N,00825.4499,E,0,0,,102.1,M,47.9,M,,*53",,,,
2021-12-23T00:22:53+01:00,34,29.74,29.01,1007.36,13.20,16.80,"$GNGGA,232249.087,4900.5167,N,00825.4499,E,0,0,,102.1,M,47.9,M,,*51",,,,
2021-12-23T00:23:13+01:00,35,29.82,28.92,1007.34,12.50,16.70,"$GNGGA,232309.086,4900.5167,N,00825.4499,E,0,0,,102.1,M,47.9,M,,*55",,,,
2021-12-23T00:23:33+01:00,36,29.89,28.76,1007.34,12.40,16.80,"$GNGGA,232329.086,4900.5167,N,00825.4499,E,0,0,,102.1,M,47.9,M,,*57",,,,
2021-12-23T00:23:52+01:00,37,29.96,28.63,1007.34,12.20,12.90,"$GNGGA,232348.289,4900.5167,N,00825.4499,E,0,0,,102.1,M,47.9,M,,*5D",,,,
2021-12-23T00:24:12+01:00,38,30.02,28.56,1007.34,12.50,13.50,"$GNGGA,232408.088,4900.5167,N,00825.4499,E,0,0,,102.1,M,47.9,M,,*5D",,,,
2021-12-23T00:24:32+01:00,39,30.08,28.51,1007.34,12.50,13.80,"$GNGGA,232428.088,4900.5167,N,00825.4499,E,0,0,,102.1,M,47.9,M,,*5F",,,,
2021-12-23T00:24:52+01:00,40,30.14,28.44,1007.34,12.70,14.50,"$GNGGA,232448.088,4900.5167,N,00825.4499,E,0,0,,102.1,M,47.9,M,,*59",,,,
2021-12-23T00:25:12+01:00,41,30.20,28.25,1007.34,12.60,14.60,"$GNGGA,232508.088,4900.5167,N,00825.4499,E,0,0,,102.1,M,47.9,M,,*5C",,,,
2021-12-23T00:25:32+01:00,42,30.26,28.24,1007.34,12.30,15.90,"$GNGGA,232528.087,4900.5167,N,00825.4499,E,0,0,,102.1,M,47.9,M,,*51",,,,
2021-12-23T00:25:52+01:00,43,30.30,28.20,1007.34,12.50,15.70,"$GNGGA,232548.087,4900.5167,N,00825.4499,E,0,0,,102.1,M,47.9,M,,*57",,,,
2021-12-23T00:26:12+01:00,44,30.34,28.18,1007.34,12.60,14.40,"$GNGGA,232608.087,4900.5167,N,00825.4499,E,0,0,,102.1,M,47.9,M,,*50",,,,
2021-12-23T00:26:32+01:00,45,30.37,28.09,1007.34,13.20,15.20,"$GNGGA,232628.087,4900.5167,N,00825.4499,E,0,0,,102.1,M,47.9,M,,*52",,,,
2021-12-23T00:26:52+01:00,46,30.42,28.00,1007.34,12.70,16.20,"$GNGGA,232648.087,4900.5167,N,00825.4499,E,0,0,,102.1,M,47.9,M,,*54",,,,
2021-12-23T00:27:12+01:00,47,30.46,27.95,1007.32,12.80,16.00,"$GNGGA,232708.087,4900.5167,N,00825.4499,E,0,0,,102.1,M,47.9,M,,*51",,,,
2021-12-23T00:27:32+01:00,48,30.51,27.88,1007.32,12.90,14.10,"$GNGGA,232728.087,4900.5167,N,00825.4499,E,0,0,,102.1,M,47.9,M,,*53",,,,
2021-12-23T00:27:52+01:00,49,30.55,27.77,1007.32,14.30,15.20,"$GNGGA,232748.087,4900.5167,N,00825.4499,E,0,0,,102.1,M,47.9,M,,*55",,,,
2021-12-23T00:28:12+01:00,50,30.59,27.78,1007.31,14.50,15.20,"$GNGGA,232808.087,4900.5167,N,00825.4499,E,0,0,,102.1,M,47.9,M,,*5E",,,,
2021-12-23T00:28:32+01:00,51,30.62,27.70,1007.31,13.20,16.60,"$GNGGA,232828.087,4900.5167,N,00825.4499,E,0,0,,102.1,M,47.9,M,,*5C",,,,
2021-12-23T00:28:52+01:00,52,30.66,27.65,1007.30,12.80,15.40,"$GNGGA,232848.087,4900.5167,N,00825.4499,E,0,0,,102.1,M,47.9,M,,*5A",,,,
2021-12-23T00:29:12+01:00,53,30.70,27.57,1007.30,12.80,15.50,"$GNGGA,232908.087,4900.5167,N,00825.4499,E,0,0,,102.1,M,47.9,M,,*5F",,,,
2021-12-23T00:29:32+01:00,54,30.73,27.46,1007.30,13.10,13.80,"$GNGGA,232928.087,4900.5167,N,00825.4499,E,0,0,,102.1,M,47.9,M,,*5D",,,,
2021-12-23T00:29:52+01:00,55,30.76,27.46,1007.30,12.90,13.60,"$GNGGA,232948.087,4900.5167,N,00825.4499,E,0,0,,102.1,M,47.9,M,,*5B",,,,
2021-12-23T00:30:12+01:00,56,30.80,27.33,1007.29,12.40,13.60,"$GNGGA,233008.087,4900.5167,N,00825.4499,E,0,0,,102.1,M,47.9,M,,*57",,,,
2021-12-23T00:30:32+01:00,57,30.83,27.33,1007.28,12.80,13.50,"$GNGGA,233028.087,4900.5167,N,00825.4499,E,0,0,,102.1,M,47.9,M,,*55",,,,
2021-12-23T00:30:52+01:00,58,30.86,27.29,1007.29,12.60,13.30,"$GNGGA,233048.087,4900.5167,N,00825.4499,E,0,0,,102.1,M,47.9,M,,*53",,,,
2021-12-23T00:31:12+01:00,59,30.89,27.29,1007.28,12.20,12.90,"$GNGGA,233108.087,4900.5167,N,00825.4499,E,0,0,,102.1,M,47.9,M,,*56",,,,
2021-12-23T00:31:32+01:00,60,30.92,27.20,1007.28,12.20,12.90,"$GNGGA,233128.087,4900.5167,N,00825.4499,E,0,0,,102.1,M,47.9,M,,*54",,,,
2021-12-23T00:31:52+01:00,61,30.94,27.21,1007.29,13.00,13.70,"$GNGGA,233148.099,4900.5167,N,00825.4499,E,0,0,,102.1,M,47.9,M,,*5D",,,,
2021-12-23T00:32:12+01:00,62,30.97,27.11,1007.28,13.20,13.90,"$GNGGA,233208.091,4900.5167,N,00825.4499,E,0,0,,102.1,M,47.9,M,,*52",,,,
2021-12-23T00:32:32+01:00,63,30.99,27.10,1007.27,13.70,14.40,"$GNGGA,233228.091,4900.5167,N,00825.4499,E,0,0,,102.1,M,47.9,M,,*50",,,,
2021-12-23T00:32:52+01:00,64,31.01,27.07,1007.26,13.40,14.10,"$GNGGA,233248.091,4900.5167,N,00825.4499,E,0,0,,102.1,M,47.9,M,,*56",,,,
2021-12-23T00:33:12+01:00,65,31.03,27.01,1007.25,13.30,14.00,"$GNGGA,233308.090,4900.5167,N,00825.4499,E,0,0,,102.1,M,47.9,M,,*52",,,,
2021-12-23T00:33:32+01:00,66,31.05,26.91,1007.25,13.40,14.10,"$GNGGA,233328.090,4900.5167,N,00825.4499,E,0,0,,102.1,M,47.9,M,,*50",,,,
2021-12-23T00:33:52+01:00,67,31.07,26.84,1007.24,13.20,13.90,"$GNGGA,233348.088,4900.5167,N,00825.4499,E,0,0,,102.1,M,47.9,M,,*5F",,,,
2021-12-23T00:34:12+01:00,68,31.09,26.71,1007.24,14.00,14.70,"$GNGGA,233408.088,4900.5167,N,00825.4499,E,0,0,,102.1,M,47.9,M,,*5C",,,,
2021-12-23T00:34:32+01:00,69,31.11,26.68,1007.24,13.40,14.50,"$GNGGA,233428.094,4900.5167,N,00825.4499,E,0,0,,102.1,M,47.9,M,,*53",,,,
2021-12-23T00:34:52+01:00,70,31.13,26.61,1007.23,12.70,13.40,"$GNGGA,233448.090,4900.5167,N,00825.4499,E,0,0,,102.1,M,47.9,M,,*51",,,,
2021-12-23T00:35:12+01:00,71,31.14,26.62,1007.24,12.10,12.80,"$GNGGA,233508.090,4900.5167,N,00825.4499,E,0,0,,102.1,M,47.9,M,,*54",,,,
2021-12-23T00:35:32+01:00,72,31.15,26.64,1007.22,12.00,12.70,"$GNGGA,233528.090,4900.5167,N,00825.4499,E,0,0,,102.1,M,47.9,M,,*56",,,,
2021-12-23T00:35:52+01:00,73,31.16,26.63,1007.21,12.80,14.00,"$GNGGA,233548.089,4900.5167,N,00825.4499,E,0,0,,102.1,M,47.9,M,,*58",,,,
2021-12-23T00:36:12+01:00,74,31.16,26.56,1007.20,12.90,14.20,"$GNGGA,233608.088,4900.5167,N,00825.4499,E,0,0,,102.1,M,47.9,M,,*5E",,,,
2021-12-23T00:36:32+01:00,75,31.16,26.57,1007.19,13.00,17.00,"$GNGGA,233628.088,4900.5167,N,00825.4499,E,0,0,,102.1,M,47.9,M,,*5C",,,,
2021-12-23T00:36:52+01:00,76,31.15,26.63,1007.18,13.10,16.00,"$GNGGA,233648.088,4900.5167,N,00825.4499,E,0,0,,102.1,M,47.9,M,,*5A",,,,
2021-12-23T00:37:11+01:00,77,31.14,26.63,1007.17,13.00,15.30,"$GNGGA,233707.304,4900.5167,N,00825.4499,E,0,0,,102.1,M,47.9,M,,*57",,,,
2021-12-23T00:37:31+01:00,78,31.14,26.68,1007.16,13.00,14.20,"$GNGGA,233727.095,4900.5167,N,00825.4499,E,0,0,,102.1,M,47.9,M,,*5E",,,,
2021-12-23T00:37:51+01:00,79,31.13,26.55,1007.14,12.20,13.80,"$GNGGA,233747.095,4900.5167,N,00825.4499,E,0,0,,102.1,M,47.9,M,,*58",,,,
2021-12-23T00:38:11+01:00,80,31.13,26.55,1007.14,12.80,14.70,"$GNGGA,233806.302,4900.5167,N,00825.4499,E,0,0,,102.1,M,47.9,M,,*5F",,,,
2021-12-23T00:38:30+01:00,81,31.12,26.56,1007.13,12.60,13.60,"$GNGGA,233826.091,4900.5167,N,00825.4499,E,0,0,,102.1,M,47.9,M,,*54",,,,
2021-12-23T00:38:49+01:00,82,31.12,26.54,1007.12,13.60,14.30,"$GNGGA,233845.306,4900.5167,N,00825.4499,E,0,0,,102.1,M,47.9,M,,*5C",,,,
2021-12-23T00:39:09+01:00,83,31.12,26.50,1007.12,13.70,14.30,"$GNGGA,233905.089,4900.5167,N,00825.4499,E,0,0,,102.1,M,47.9,M,,*5D",,,,
2021-12-23T00:39:29+01:00,84,31.13,26.50,1007.10,13.90,14.50,"$GNGGA,233925.094,4900.5167,N,00825.4499,E,0,0,,102.1,M,47.9,M,,*53",,,,
2021-12-23T00:39:49+01:00,85,31.15,26.40,1007.09,12.60,13.80,"$GNGGA,233945.094,4900.5167,N,00825.4499,E,0,0,,102.1,M,47.9,M,,*55",,,,
2021-12-23T00:40:09+01:00,86,31.18,26.43,1007.09,11.70,13.10,"$GNGGA,234005.089,4900.5167,N,00825.4499,E,0,0,,102.1,M,47.9,M,,*53",,,,
2021-12-23T00:40:29+01:00,87,31.22,26.33,1007.08,11.90,14.90,"$GNGGA,234025.089,4900.5167,N,00825.4499,E,0,0,,102.1,M,47.9,M,,*51",,,,
2021-12-23T00:40:49+01:00,88,31.25,26.18,1007.07,13.20,16.50,"$GNGGA,234045.089,4900.5167,N,00825.4499,E,0,0,,102.1,M,47.9,M,,*57",,,,
2021-12-23T00:41:09+01:00,89,31.29,26.20,1007.06,13.00,15.60,"$GNGGA,234105.306,4900.5167,N,00825.4499,E,0,0,,102.1,M,47.9,M,,*56",,,,
2021-12-23T00:41:29+01:00,90,31.33,26.17,1007.06,12.90,14.90,"$GNGGA,234125.089,4900.5167,N,00825.4499,E,0,0,,102.1,M,47.9,M,,*50",,,,
2021-12-23T00:41:49+01:00,91,31.36,26.13,1007.05,11.90,12.90,"$GNGGA,234145.089,4900.5167,N,00825.4499,E,0,0,,102.1,M,47.9,M,,*56",,,,
2021-12-23T00:42:09+01:00,92,31.38,26.06,1007.05,11.60,12.20,"$GNGGA,234205.084,4900.5167,N,00825.4499,E,0,0,,102.1,M,47.9,M,,*5C",,,,
2021-12-23T00:42:29+01:00,93,31.41,26.03,1007.05,11.90,12.50,"$GNGGA,234225.084,4900.5167,N,00825.4499,E,0,0,,102.1,M,47.9,M,,*5E",,,,
2021-12-23T00:42:49+01:00,94,31.43,25.99,1007.04,12.40,14.60,"$GNGGA,234245.084,4900.5167,N,00825.4499,E,0,0,,102.1,M,47.9,M,,*58",,,,
2021-12-23T00:43:09+01:00,95,31.43,25.97,1007.04,13.20,16.50,"$GNGGA,234305.084,4900.5167,N,00825.4499,E,0,0,,102.1,M,47.9,M,,*5D",,,,
2021-12-23T00:43:29+01:00,96,31.43,25.99,1007.04,12.10,17.30,"$GNGGA,234325.084,4900.5167,N,00825.4499,E,0,0,,102.1,M,47.9,M,,*5F",,,,
2021-12-23T00:43:48+01:00,97,31.42,26.11,1007.03,11.60,15.40,"$GNGGA,234344.302,4900.5167,N,00825.4499,E,0,0,,102.1,M,47.9,M,,*55",,,,
2021-12-23T00:44:08+01:00,98,31.41,26.14,1007.03,11.30,14.60,"$GNGGA,234404.088,4900.5167,N,00825.4499,E,0,0,,102.1,M,47.9,M,,*57",,,,
2021-12-23T00:44:28+01:00,99,31.41,26.17,1007.03,11.60,13.50,"$GNGGA,234424.099,4900.5167,N,00825.4499,E,0,0,,102.1,M,47.9,M,,*55",,,,
2021-12-23T00:44:47+01:00,100,31.42,26.17,1007.05,11.10,13.60,"$GNGGA,234443.304,4900.5167,N,00825.4499,E,0,0,,102.1,M,47.9,M,,*53",,,,
2021-12-23T00:45:07+01:00,101,31.44,26.17,1007.06,11.70,12.80,"$GNGGA,234503.100,4900.5167,N,00825.4499,E,0,0,,102.1,M,47.9,M,,*50",,,,
2021-12-23T00:45:27+01:00,102,31.46,26.10,1007.06,12.30,13.00,"$GNGGA,234523.306,4900.5167,N,00825.4499,E,0,0,,102.1,M,47.9,M,,*56",,,,
2021-12-23T00:45:47+01:00,103,31.49,26.08,1007.06,13.40,14.10,"$GNGGA,234543.088,4900.5167,N,00825.4499,E,0,0,,102.1,M,47.9,M,,*55",,,,
2021-12-23T00:46:06+01:00,104,31.52,26.05,1007.06,13.30,14.00,"$GNGGA,234602.302,4900.5167,N,00825.4499,E,0,0,,102.1,M,47.9,M,,*52",,,,
2021-12-23T00:46:26+01:00,105,31.55,25.98,1007.06,13.10,13.80,"$GNGGA,234622.090,4900.5167,N,00825.4499,E,0,0,,102.1,M,47.9,M,,*58",,,,
2021-12-23T00:46:46+01:00,106,31.58,25.97,1007.06,13.40,15.50,"$GNGGA,234642.086,4900.5167,N,00825.4499,E,0,0,,102.1,M,47.9,M,,*59",,,,
2021-12-23T00:47:06+01:00,107,31.61,25.97,1007.06,12.60,14.90,"$GNGGA,234702.097,4900.5167,N,00825.4499,E,0,0,,102.1,M,47.9,M,,*5C",,,,
2021-12-23T00:47:26+01:00,108,31.63,25.94,1007.05,13.60,15.10,"$GNGGA,234722.092,4900.5167,N,00825.4499,E,0,0,,102.1,M,47.9,M,,*5B",,,,
2021-12-23T00:47:46+01:00,109,31.64,25.91,1007.04,13.20,16.50,"$GNGGA,234742.089,4900.5167,N,00825.4499,E,0,0,,102.1,M,47.9,M,,*57",,,,
2021-12-23T00:48:06+01:00,110,31.65,25.97,1007.05,13.00,17.30,"$GNGGA,234802.089,4900.5167,N,00825.4499,E,0,0,,102.1,M,47.9,M,,*5C",,,,
2021-12-23T00:48:26+01:00,111,31.64,25.97,1007.04,11.40,15.90,"$GNGGA,234822.096,4900.5167,N,00825.4499,E,0,0,,102.1,M,47.9,M,,*50",,,,
2021-12-23T00:48:46+01:00,112,31.63,25.95,1007.05,11.20,11.90,"$GNGGA,234842.096,4900.5167,N,00825.4499,E,0,0,,102.1,M,47.9,M,,*56",,,,
2021-12-23T00:49:06+01:00,113,31.62,25.97,1007.06,11.70,13.40,"$GNGGA,234902.096,4900.5167,N,00825.4499,E,0,0,,102.1,M,47.9,M,,*53",,,,
2021-12-23T00:49:26+01:00,114,31.61,25.97,1007.06,12.10,14.40,"$GNGGA,234922.092,4900.5167,N,00825.4499,E,0,0,,102.1,M,47.9,M,,*55",,,,
2021-12-23T00:49:46+01:00,115,31.60,25.93,1007.05,11.80,13.80,"$GNGGA,234942.092,4900.5167,N,00825.4499,E,0,0,,102.1,M,47.9,M,,*53",,,,
2021-12-23T00:50:06+01:00,116,31.59,26.00,1007.05,11.90,13.10,"$GNGGA,235002.085,4900.5167,N,00825.4499,E,0,0,,102.1,M,47.9,M,,*59",,,,
2021-12-23T00:50:26+01:00,117,31.60,26.02,1007.04,12.40,13.10,"$GNGGA,235022.085,4900.5167,N,00825.4499,E,0,0,,102.1,M,47.9,M,,*5B",,,,
2021-12-23T00:50:46+01:00,118,31.61,25.92,1007.04,12.50,13.20,"$GNGGA,235042.084,4900.5167,N,00825.4499,E,0,0,,102.1,M,47.9,M,,*5C",,,,
2021-12-23T00:51:06+01:00,119,31.63,25.86,1007.04,12.50,13.20,"$GNGGA,235102.084,4900.5167,N,00825.4499,E,0,0,,102.1,M,47.9,M,,*59",,,,
2021-12-23T00:51:26+01:00,120,31.66,25.78,1007.04,12.10,12.80,"$GNGGA,235122.081,4900.5167,N,00825.4499,E,0,0,,102.1,M,47.9,M,,*5E",,,,
2021-12-23T00:51:46+01:00,121,31.69,25.77,1007.05,12.20,12.90,"$GNGGA,235142.081,4900.5167,N,00825.4499,E,0,0,,102.1,M,47.9,M,,*58",,,,
2021-12-23T00:52:06+01:00,122,31.71,25.75,1007.04,12.30,13.00,"$GNGGA,235202.081,4900.5167,N,00825.4499,E,0,0,,102.1,M,47.9,M,,*5F",,,,
2021-12-23T00:52:26+01:00,123,31.74,25.66,1007.04,12.30,13.40,"$GNGGA,235222.081,4900.5167,N,00825.4499,E,0,0,,102.1,M,47.9,M,,*5D",,,,
2021-12-23T00:52:46+01:00,124,31.77,25.69,1007.04,11.30,12.30,"$GNGGA,235242.081,4900.5167,N,00825.4499,E,0,0,,102.1,M,47.9,M,,*5B",,,,
2021-12-23T00:53:06+01:00,125,31.79,25.67,1007.03,11.30,12.80,"$GNGGA,235302.081,4900.5167,N,00825.4499,E,0,0,,102.1,M,47.9,M,,*5E",,,,
2021-12-23T00:53:26+01:00,126,31.80,25.62,1007.03,11.30,13.10,"$GNGGA,235322.081,4900.5167,N,00825.4499,E,0,0,,102.1,M,47.9,M,,*5C",,,,
2021-12-23T00:53:46+01:00,127,31.80,25.68,1007.02,12.50,15.00,"$GNGGA,235342.081,4900.5167,N,00825.4499,E,0,0,,102.1,M,47.9,M,,*5A",,,,
2021-12-23T00:54:06+01:00,128,31.79,25.72,1007.02,12.60,13.60,"$GNGGA,235402.081,4900.5167,N,00825.4499,E,0,0,,102.1,M,47.9,M,,*59",,,,
2021-12-23T00:54:26+01:00,129,31.78,25.74,1007.01,12.60,13.30,"$GNGGA,235422.081,4900.5167,N,00825.4499,E,0,0,,102.1,M,47.9,M,,*5B",,,,
2021-12-23T00:54:46+01:00,130,31.77,25.75,1007.00,12.50,13.20,"$GNGGA,235442.081,4900.5167,N,00825.4499,E,0,0,,102.1,M,47.9,M,,*5D",,,,
2021-12-23T00:55:06+01:00,131,31.75,25.77,1006.99,12.50,13.20,"$GNGGA,235502.081,4900.5167,N,00825.4499,E,0,0,,102.1,M,47.9,M,,*58",,,,
2021-12-23T00:55:26+01:00,132,31.74,25.78,1007.00,12.80,13.50,"$GNGGA,235522.081,4900.5167,N,00825.4499,E,0,0,,102.1,M,47.9,M,,*5A",,,,
2021-12-23T00:55:46+01:00,133,31.73,25.80,1006.98,12.00,13.00,"$GNGGA,235542.081,4900.5167,N,00825.4499,E,0,0,,102.1,M,47.9,M,,*5C",,,,
2021-12-23T00:56:06+01:00,134,31.71,25.80,1006.98,11.50,13.80,"$GNGGA,235602.081,4900.5167,N,00825.4499,E,0,0,,102.1,M,47.9,M,,*5B",,,,
2021-12-23T00:56:26+01:00,135,31.70,25.75,1006.97,10.90,12.70,"$GNGGA,235622.081,4900.5167,N,00825.4499,E,0,0,,102.1,M,47.9,M,,*59",,,,
2021-12-23T00:56:46+01:00,136,31.69,25.79,1006.96,11.50,13.60,"$GNGGA,235642.081,4900.5167,N,00825.4499,E,0,0,,102.1,M,47.9,M,,*5F",,,,
2021-12-23T00:57:06+01:00,137,31.68,25.80,1006.96,11.20,11.70,"$GNGGA,235702.081,4900.5167,N,00825.4499,E,0,0,,102.1,M,47.9,M,,*5A",,,,
2021-12-23T00:57:26+01:00,138,31.68,25.81,1006.96,11.60,12.20,"$GNGGA,235722.081,4900.5167,N,00825.4499,E,0,0,,102.1,M,47.9,M,,*58",,,,
2021-12-23T00:57:46+01:00,139,31.67,25.79,1006.95,11.50,12.10,"$GNGGA,235742.080,4900.5167,N,00825.4499,E,0,0,,102.1,M,47.9,M,,*5F",,,,
2021-12-23T00:58:06+01:00,140,31.67,25.81,1006.95,12.40,13.10,"$GNGGA,235802.080,4900.5167,N,00825.4499,E,0,0,,102.1,M,47.9,M,,*54",,,,
2021-12-23T00:58:26+01:00,141,31.67,25.77,1006.95,12.20,12.90,"$GNGGA,235822.080,4900.5167,N,00825.4499,E,0,0,,102.1,M,47.9,M,,*56",,,,
2021-12-23T00:58:46+01:00,142,31.68,25.76,1006.94,11.80,12.40,"$GNGGA,235842.080,4900.5167,N,00825.4499,E,0,0,,102.1,M,47.9,M,,*50",,,,
2021-12-23T00:59:06+01:00,143,31.70,25.67,1006.95,12.00,15.40,"$GNGGA,235902.080,4900.5167,N,00825.4499,E,0,0,,102.1,M,47.9,M,,*55",,,,
2021-12-23T00:59:26+01:00,144,31.74,25.60,1006.94,12.70,15.60,"$GNGGA,235922.080,4900.5167,N,00825.4499,E,0,0,,102.1,M,47.9,M,,*57",,,,
2021-12-23T00:59:46+01:00,145,31.77,25.51,1006.94,13.10,17.60,"$GNGGA,235942.080,4900.5167,N,00825.4499,E,0,0,,102.1,M,47.9,M,,*51",,,,
2021-12-23T01:00:06+01:00,146,31.81,25.52,1006.94,11.50,14.00,"$GNGGA,000002.080,4900.5167,N,00825.4499,E,0,0,,102.1,M,47.9,M,,*58",,,,
2021-12-23T01:00:26+01:00,147,31.84,25.48,1006.94,11.90,14.30,"$GNGGA,000022.080,4900.5167,N,00825.4499,E,0,0,,102.1,M,47.9,M,,*5A",,,,
2021-12-23T01:00:46+01:00,148,31.87,25.49,1006.94,10.80,11.90,"$GNGGA,000042.080,4900.5167,N,00825.4499,E,0,0,,102.1,M,47.9,M,,*5C",,,,
2021-12-23T01:01:06+01:00,149,31.90,25.45,1006.94,11.60,12.20,"$GNGGA,000102.080,4900.5167,N,00825.4499,E,0,0,,102.1,M,47.9,M,,*59",,,,
2021-12-23T01:01:26+01:00,150,31.93,25.45,1006.93,11.00,11.60,"$GNGGA,000122.080,4900.5167,N,00825.4499,E,0,0,,102.1,M,47.9,M,,*5B",,,,
2021-12-23T01:01:46+01:00,151,31.95,25.40,1006.92,11.90,12.50,"$GNGGA,000142.080,4900.5167,N,00825.4499,E,0,0,,102.1,M,47.9,M,,*5D",,,,
2021-12-23T01:02:06+01:00,152,31.96,25.39,1006.91,12.10,12.80,"$GNGGA,000202.080,4900.5167,N,00825.4499,E,0,0,,102.1,M,47.9,M,,*5A",,,,
2021-12-23T01:02:26+01:00,153,31.98,25.36,1006.90,11.70,12.70,"$GNGGA,000222.080,4900.5167,N,00825.4499,E,0,0,,102.1,M,47.9,M,,*58",,,,
2021-12-23T01:02:46+01:00,154,31.99,25.39,1006.89,12.10,14.20,"$GNGGA,000242.080,4900.5167,N,00825.4499,E,0,0,,102.1,M,47.9,M,,*5E",,,,
2021-12-23T01:03:06+01:00,155,32.00,25.33,1006.89,12.80,15.60,"$GNGGA,000302.080,4900.5167,N,00825.4499,E,0,0,,102.1,M,47.9,M,,*5B",,,,
2021-12-23T01:03:26+01:00,156,32.01,25.35,1006.88,12.50,14.70,"$GNGGA,000322.080,4900.5167,N,00825.4499,E,0,0,,102.1,M,47.9,M,,*59",,,,
2021-12-23T01:03:46+01:00,157,32.01,25.33,1006.87,12.00,13.70,"$GNGGA,000342.080,4900.5167,N,00825.4499,E,0,0,,102.1,M,47.9,M,,*5F",,,,
2021-12-23T01:04:05+01:00,158,32.00,25.41,1006.87,10.90,14.10,"$GNGGA,000401.299,4900.5167,N,00825.4499,E,0,0,,102.1,M,47.9,M,,*55",,,,
2021-12-23T01:04:24+01:00,159,31.98,25.42,1006.86,11.70,16.00,"$GNGGA,000420.300,4900.5167,N,00825.4499,E,0,0,,102.1,M,47.9,M,,*57",,,,
2021-12-23T01:04:44+01:00,160,31.97,25.42,1006.85,11.90,14.60,"$GNGGA,000440.098,4900.5167,N,00825.4499,E,0,0,,102.1,M,47.9,M,,*53",,,,
2021-12-23T01:05:04+01:00,161,31.96,25.44,1006.85,12.70,13.30,"$GNGGA,000500.094,4900.5167,N,00825.4499,E,0,0,,102.1,M,47.9,M,,*5A",,,,
2021-12-23T01:05:23+01:00,162,31.94,25.44,1006.84,12.50,13.20,"$GNGGA,000519.304,4900.5167,N,00825.4499,E,0,0,,102.1,M,47.9,M,,*58",,,,
2021-12-23T01:05:43+01:00,163,31.93,25.45,1006.82,12.30,13.00,"$GNGGA,000539.294,4900.5167,N,00825.4499,E,0,0,,102.1,M,47.9,M,,*52",,,,
2021-12-23T01:06:04+01:00,164,31.91,25.48,1006.81,12.20,13.40,"$GNGGA,000600.103,4900.5167,N,00825.4499,E,0,0,,102.1,M,47.9,M,,*56",,,,
2021-12-23T01:06:24+01:00,165,31.90,25.50,1006.80,11.60,12.20,"$GNGGA,000620.103,4900.5167,N,00825.4499,E,0,0,,102.1,M,47.9,M,,*54",,,,
2021-12-23T01:06:44+01:00,166,31.89,25.49,1006.80,11.50,12.10,"$GNGGA,000640.103,4900.5167,N,00825.4499,E,0,0,,102.1,M,47.9,M,,*52",,,,
2021-12-23T01:07:04+01:00,167,31.88,25.50,1006.80,11.00,12.40,"$GNGGA,000700.103,4900.5167,N,00825.4499,E,0,0,,102.1,M,47.9,M,,*57",,,,
2021-12-23T01:07:24+01:00,168,31.87,25.53,1006.80,10.80,12.10,"$GNGGA,000720.103,4900.5167,N,00825.4499,E,0,0,,102.1,M,47.9,M,,*55",,,,
2021-12-23T01:07:44+01:00,169,31.86,25.55,1006.80,10.50,12.70,"$GNGGA,000740.103,4900.5167,N,00825.4499,E,0,0,,102.1,M,47.9,M,,*53",,,,
2021-12-23T01:08:04+01:00,170,31.86,25.53,1006.80,11.50,12.00,"$GNGGA,000800.103,4900.5167,N,00825.4499,E,0,0,,102.1,M,47.9,M,,*58",,,,
2021-12-23T01:08:24+01:00,171,31.86,25.54,1006.79,11.80,12.30,"$GNGGA,000820.103,4900.5167,N,00825.4499,E,0,0,,102.1,M,47.9,M,,*5A",,,,
2021-12-23T01:08:44+01:00,172,31.86,25.53,1006.80,11.70,12.30,"$GNGGA,000840.103,4900.5167,N,00825.4499,E,0,0,,102.1,M,47.9,M,,*5C",,,,
2021-12-23T01:09:04+01:00,173,31.85,25.55,1006.80,10.30,10.90,"$GNGGA,000900.103,4900.5167,N,00825.4499,E,0,0,,102.1,M,47.9,M,,*59",,,,
2021-12-23T01:09:24+01:00,174,31.85,25.55,1006.80,10.80,11.90,"$GNGGA,000920.103,4900.5167,N,00825.4499,E,0,0,,102.1,M,47.9,M,,*5B",,,,
2021-12-23T01:09:44+01:00,175,31.85,25.54,1006.80,11.30,13.20,"$GNGGA,000940.103,4900.5167,N,00825.4499,E,0,0,,102.1,M,47.9,M,,*5D",,,,
2021-12-23T01:10:04+01:00,176,31.84,25.52,1006.80,11.70,14.30,"$GNGGA,001000.103,4900.5167,N,00825.4499,E,0,0,,102.1,M,47.9,M,,*51",,,,
2021-12-23T01:10:24+01:00,177,31.84,25.53,1006.80,11.60,12.90,"$GNGGA,001020.103,4900.5167,N,00825.4499,E,0,0,,102.1,M,47.9,M,,*53",,,,
2021-12-23T01:10:44+01:00,178,31.85,25.53,1006.81,11.90,13.10,"$GNGGA,001040.103,4900.5167,N,00825.4499,E,0,0,,102.1,M,47.9,M,,*55",,,,
2021-12-23T01:11:04+01:00,179,31.88,25.47,1006.80,12.60,13.70,"$GNGGA,001100.103,4900.5167,N,00825.4499,E,0,0,,102.1,M,47.9,M,,*50",,,,
2021-12-23T01:11:24+01:00,180,31.91,25.44,1006.79,12.00,14.30,"$GNGGA,001120.103,4900.5167,N,00825.4499,E,0,0,,102.1,M,47.9,M,,*52",,,,
2021-12-23T01:11:44+01:00,181,31.95,25.40,1006.78,11.30,13.80,"$GNGGA,001140.103,4900.5167,N,00825.4499,E,0,0,,102.1,M,47.9,M,,*54",,,,
2021-12-23T01:12:04+01:00,182,31.98,25.36,1006.76,10.10,11.40,"$GNGGA,001200.103,4900.5167,N,00825.4499,E,0,0,,102.1,M,47.9,M,,*53",,,,
2021-12-23T01:12:24+01:00,183,32.02,25.33,1006.75,10.70,11.40,"$GNGGA,001220.103,4900.5167,N,00825.4499,E,0,0,,102.1,M,47.9,M,,*51",,,,
2021-12-23T01:12:44+01:00,184,32.05,25.29,1006.74,10.60,11.20,"$GNGGA,001240.103,4900.5167,N,00825.4499,E,0,0,,102.1,M,47.9,M,,*57",,,,
2021-12-23T01:13:04+01:00,185,32.08,25.22,1006.73,11.70,13.70,"$GNGGA,001300.103,4900.5167,N,00825.4499,E,0,0,,102.1,M,47.9,M,,*52",,,,
2021-12-23T01:13:24+01:00,186,32.10,25.19,1006.73,11.00,11.90,"$GNGGA,001320.103,4900.5167,N,00825.4499,E,0,0,,102.1,M,47.9,M,,*50",,,,
2021-12-23T01:13:44+01:00,187,32.13,25.21,1006.73,10.70,13.10,"$GNGGA,001340.103,4900.5167,N,00825.4499,E,0,0,,102.1,M,47.9,M,,*56",,,,
2021-12-23T01:14:04+01:00,188,32.16,25.15,1006.73,10.40,11.00,"$GNGGA,001400.103,4900.5167,N,00825.4499,E,0,0,,102.1,M,47.9,M,,*55",,,,
2021-12-23T01:14:24+01:00,189,32.17,25.20,1006.71,10.70,11.80,"$GNGGA,001420.103,4900.5167,N,00825.4499,E,0,0,,102.1,M,47.9,M,,*57",,,,
2021-12-23T01:14:44+01:00,190,32.19,25.16,1006.71,11.20,11.80,"$GNGGA,001440.103,4900.5167,N,00825.4499,E,0,0,,102.1,M,47.9,M,,*51",,,,
2021-12-23T01:15:04+01:00,191,32.21,25.17,1006.71,11.30,11.90,"$GNGGA,001500.103,4900.5167,N,00825.4499,E,0,0,,102.1,M,47.9,M,,*54",,,,
2021-12-23T01:15:24+01:00,192,32.21,25.20,1006.70,11.00,11.60,"$GNGGA,001520.103,4900.5167,N,00825.4499,E,0,0,,102.1,M,47.9,M,,*56",,,,
2021-12-23T01:15:44+01:00,193,32.22,25.15,1006.69,10.50,12.00,"$GNGGA,001540.103,4900.5167,N,00825.4499,E,0,0,,102.1,M,47.9,M,,*50",,,,
2021-12-23T01:16:04+01:00,194,32.22,25.18,1006.69,10.00,13.20,"$GNGGA,001600.103,4900.5167,N,00825.4499,E,0,0,,102.1,M,47.9,M,,*57",,,,
2021-12-23T01:16:24+01:00,195,32.21,25.18,1006.68,10.60,14.20,"$GNGGA,001620.103,4900.5167,N,00825.4499,E,0,0,,102.1,M,47.9,M,,*55",,,,
2021-12-23T01:16:44+01:00,196,32.21,25.22,1006.68,10.70,12.10,"$GNGGA,001640.103,4900.5167,N,00825.4499,E,0,0,,102.1,M,47.9,M,,*53",,,,
2021-12-23T01:17:04+01:00,197,32.19,25.23,1006.68,11.10,12.30,"$GNGGA,001700.103,4900.5167,N,00825.4499,E,0,0,,102.1,M,47.9,M,,*56",,,,
2021-12-23T01:17:24+01:00,198,32.17,25.27,1006.68,11.10,12.00,"$GNGGA,001720.085,4900.5167,N,00825.4499,E,0,0,,102.1,M,47.9,M,,*5B",,,,
2021-12-23T01:17:44+01:00,199,32.15,25.29,1006.68,11.70,12.40,"$GNGGA,001740.096,4900.5167,N,00825.4499,E,0,0,,102.1,M,47.9,M,,*5F",,,,
2021-12-23T01:18:04+01:00,200,32.12,25.31,1006.67,12.70,13.40,"$GNGGA,001800.081,4900.5167,N,00825.4499,E,0,0,,102.1,M,47.9,M,,*52",,,,
2021-12-23T01:18:23+01:00,201,32.10,25.31,1006.67,12.70,13.40,"$GNGGA,001819.306,4900.5167,N,00825.4499,E,0,0,,102.1,M,47.9,M,,*56",,,,
2021-12-23T01:18:43+01:00,202,32.10,25.33,1006.66,12.00,12.70,"$GNGGA,001839.312,4900.5167,N,00825.4499,E,0,0,,102.1,M,47.9,M,,*51",,,,
2021-12-23T01:19:04+01:00,203,32.10,25.32,1006.66,11.00,11.60,"$GNGGA,001900.084,4900.5167,N,00825.4499,E,0,0,,102.1,M,47.9,M,,*56",,,,
2021-12-23T01:19:24+01:00,204,32.12,25.30,1006.66,10.70,11.30,"$GNGGA,001920.099,4900.5167,N,00825.4499,E,0,0,,102.1,M,47.9,M,,*58",,,,
2021-12-23T01:19:43+01:00,205,32.14,25.24,1006.65,10.80,11.40,"$GNGGA,001939.300,4900.5167,N,00825.4499,E,0,0,,102.1,M,47.9,M,,*53",,,,
2021-12-23T01:20:03+01:00,206,32.16,25.21,1006.64,10.20,10.80,"$GNGGA,001959.301,4900.5167,N,00825.4499,E,0,0,,102.1,M,47.9,M,,*54",,,,
2021-12-23T01:20:22+01:00,207,32.17,25.24,1006.63,9.70,10.80,"$GNGGA,002018.302,4900.5167,N,00825.4499,E,0,0,,102.1,M,47.9,M,,*58",,,,
2021-12-23T01:20:41+01:00,208,32.19,25.21,1006.63,9.50,11.10,"$GNGGA,002037.308,4900.5167,N,00825.4499,E,0,0,,102.1,M,47.9,M,,*5F",,,,
2021-12-23T01:21:02+01:00,209,32.21,25.23,1006.63,9.50,10.00,"$GNGGA,002058.094,4900.5167,N,00825.4499,E,0,0,,102.1,M,47.9,M,,*50",,,,
2021-12-23T01:21:22+01:00,210,32.22,25.23,1006.61,9.60,10.10,"$GNGGA,002118.093,4900.5167,N,00825.4499,E,0,0,,102.1,M,47.9,M,,*52",,,,
2021-12-23T01:21:42+01:00,211,32.23,25.23,1006.62,10.60,11.20,"$GNGGA,002138.095,4900.5167,N,00825.4499,E,0,0,,102.1,M,47.9,M,,*56",,,,
2021-12-23T01:22:01+01:00,212,32.23,25.22,1006.61,11.00,11.60,"$GNGGA,002157.307,4900.5167,N,00825.4499,E,0,0,,102.1,M,47.9,M,,*57",,,,
2021-12-23T01:22:21+01:00,213,32.22,25.26,1006.62,11.00,11.60,"$GNGGA,002217.308,4900.5167,N,00825.4499,E,0,0,,102.1,M,47.9,M,,*5F",,,,
2021-12-23T01:22:41+01:00,214,32.21,25.26,1006.60,10.20,13.30,"$GNGGA,002236.304,4900.5167,N,00825.4499,E,0,0,,102.1,M,47.9,M,,*50",,,,
2021-12-23T01:23:01+01:00,215,32.20,25.31,1006.59,9.90,12.80,"$GNGGA,002257.099,4900.5167,N,00825.4499,E,0,0,,102.1,M,47.9,M,,*50",,,,
2021-12-23T01:23:21+01:00,216,32.18,25.33,1006.59,10.90,12.40,"$GNGGA,002317.304,4900.5167,N,00825.4499,E,0,0,,102.1,M,47.9,M,,*52",,,,
2021-12-23T01:23:41+01:00,217,32.17,25.34,1006.58,10.50,11.30,"$GNGGA,002336.301,4900.5167,N,00825.4499,E,0,0,,102.1,M,47.9,M,,*54",,,,
2021-12-23T01:24:00+01:00,218,32.15,25.39,1006.58,10.60,11.20,"$GNGGA,002356.095,4900.5167,N,00825.4499,E,0,0,,102.1,M,47.9,M,,*5C",,,,
2021-12-23T01:24:19+01:00,219,32.14,25.38,1006.57,9.70,10.20,"$GNGGA,002415.310,4900.5167,N,00825.4499,E,0,0,,102.1,M,47.9,M,,*52",,,,
2021-12-23T01:24:39+01:00,220,32.13,25.40,1006.57,10.00,10.60,"$GNGGA,002435.296,4900.5167,N,00825.4499,E,0,0,,102.1,M,47.9,M,,*5F",,,,
2021-12-23T01:24:59+01:00,221,32.12,25.40,1006.56,10.80,11.60,"$GNGGA,002455.099,4900.5167,N,00825.4499,E,0,0,,102.1,M,47.9,M,,*54",,,,
2021-12-23T01:25:18+01:00,222,32.11,25.42,1006.55,11.30,12.30,"$GNGGA,002514.305,4900.5167,N,00825.4499,E,0,0,,102.1,M,47.9,M,,*56",,,,
2021-12-23T01:25:38+01:00,223,32.11,25.43,1006.54,11.20,13.70,"$GNGGA,002534.099,4900.5167,N,00825.4499,E,0,0,,102.1,M,47.9,M,,*52",,,,
2021-12-23T01:25:58+01:00,224,32.10,25.44,1006.54,10.20,12.60,"$GNGGA,002554.086,4900.5167,N,00825.4499,E,0,0,,102.1,M,47.9,M,,*5A",,,,
2021-12-23T01:26:17+01:00,225,32.10,25.44,1006.53,9.60,12.40,"$GNGGA,002613.311,4900.5167,N,00825.4499,E,0,0,,102.1,M,47.9,M,,*57",,,,
2021-12-23T01:26:37+01:00,226,32.09,25.45,1006.52,9.10,10.20,"$GNGGA,002633.094,4900.5167,N,00825.4499,E,0,0,,102.1,M,47.9,M,,*5B",,,,
2021-12-23T01:26:57+01:00,227,32.09,25.48,1006.51,9.30,10.50,"$GNGGA,002653.311,4900.5167,N,00825.4499,E,0,0,,102.1,M,47.9,M,,*53",,,,
2021-12-23T01:27:17+01:00,228,32.08,25.50,1006.50,10.20,10.80,"$GNGGA,002713.302,4900.5167,N,00825.4499,E,0,0,,102.1,M,47.9,M,,*54",,,,
2021-12-23T01:27:37+01:00,229,32.07,25.52,1006.49,10.80,11.40,"$GNGGA,002733.096,4900.5167,N,00825.4499,E,0,0,,102.1,M,47.9,M,,*58",,,,
2021-12-23T01:27:57+01:00,230,32.06,25.52,1006.48,10.40,11.00,"$GNGGA,002753.096,4900.5167,N,00825.4499,E,0,0,,102.1,M,47.9,M,,*5E",,,,
2021-12-23T01:28:17+01:00,231,32.05,25.52,1006.46,10.40,11.30,"$GNGGA,002813.094,4900.5167,N,00825.4499,E,0,0,,102.1,M,47.9,M,,*57",,,,
2021-12-23T01:28:37+01:00,232,32.04,25.52,1006.45,10.30,11.10,"$GNGGA,002833.094,4900.5167,N,00825.4499,E,0,0,,102.1,M,47.9,M,,*55",,,,
2021-12-23T01:28:57+01:00,233,32.04,25.50,1006.44,10.70,11.30,"$GNGGA,002853.094,4900.5167,N,00825.4499,E,0,0,,102.1,M,47.9,M,,*53",,,,
2021-12-23T01:29:17+01:00,234,32.04,25.49,1006.43,10.30,10.90,"$GNGGA,002913.094,4900.5167,N,00825.4499,E,0,0,,102.1,M,47.9,M,,*56",,,,
2021-12-23T01:29:37+01:00,235,32.03,25.54,1006.42,10.40,11.00,"$GNGGA,002933.094,4900.5167,N,00825.4499,E,0,0,,102.1,M,47.9,M,,*54",,,,
2021-12-23T01:29:57+01:00,236,32.03,25.55,1006.41,10.60,11.20,"$GNGGA,002953.094,4900.5167,N,00825.4499,E,0,0,,102.1,M,47.9,M,,*52",,,,
2021-12-23T01:30:17+01:00,237,32.03,25.55,1006.40,10.90,11.50,"$GNGGA,003013.094,4900.5167,N,00825.4499,E,0,0,,102.1,M,47.9,M,,*5E",,,,
2021-12-23T01:30:37+01:00,238,32.03,25.59,1006.38,11.10,11.70,"$GNGGA,003033.086,4900.5167,N,00825.4499,E,0,0,,102.1,M,47.9,M,,*5F",,,,
2021-12-23T01:30:57+01:00,239,32.03,25.54,1006.38,10.40,11.00,"$GNGGA,003053.086,4900.5167,N,00825.4499,E,0,0,,102.1,M,47.9,M,,*59",,,,
2021-12-23T01:31:17+01:00,240,32.03,25.59,1006.36,10.00,11.60,"$GNGGA,003113.086,4900.5167,N,00825.4499,E,0,0,,102.1,M,47.9,M,,*5C",,,,
2021-12-23T01:31:37+01:00,241,32.03,25.61,1006.34,9.70,12.90,"$GNGGA,003133.086,4900.5167,N,00825.4499,E,0,0,,102.1,M,47.9,M,,*5E",,,,
2021-12-23T01:31:57+01:00,242,32.03,25.60,1006.33,11.20,12.70,"$GNGGA,003153.086,4900.5167,N,00825.4499,E,0,0,,102.1,M,47.9,M,,*58",,,,
2021-12-23T01:32:17+01:00,243,32.03,25.63,1006.33,11.30,11.90,"$GNGGA,003213.086,4900.5167,N,00825.4499,E,0,0,,102.1,M,47.9,M,,*5F",,,,
2021-12-23T01:32:37+01:00,244,32.03,25.65,1006.32,11.90,15.20,"$GNGGA,003233.086,4900.5167,N,00825.4499,E,0,0,,102.1,M,47.9,M,,*5D",,,,
2021-12-23T01:32:57+01:00,245,32.03,25.61,1006.31,10.70,13.60,"$GNGGA,003253.086,4900.5167,N,00825.4499,E,0,0,,102.1,M,47.9,M,,*5B",,,,
2021-12-23T01:33:17+01:00,246,32.03,25.60,1006.31,10.80,13.90,"$GNGGA,003313.086,4900.5167,N,00825.4499,E,0,0,,102.1,M,47.9,M,,*5E",,,,
2021-12-23T01:33:37+01:00,247,32.03,25.55,1006.30,10.60,11.70,"$GNGGA,003333.086,4900.5167,N,00825.4499,E,0,0,,102.1,M,47.9,M,,*5C",,,,
2021-12-23T01:33:57+01:00,248,32.04,25.54,1006.29,11.20,13.50,"$GNGGA,003353.305,4900.5167,N,00825.4499,E,0,0,,102.1,M,47.9,M,,*52",,,,
2021-12-23T01:34:18+01:00,249,32.07,25.51,1006.27,11.30,15.10,"$GNGGA,003414.088,4900.5167,N,00825.4499,E,0,0,,102.1,M,47.9,M,,*50",,,,
2021-12-23T01:34:38+01:00,250,32.10,25.49,1006.26,11.10,14.70,"$GNGGA,003434.083,4900.5167,N,00825.4499,E,0,0,,102.1,M,47.9,M,,*59",,,,
2021-12-23T01:34:58+01:00,251,32.14,25.46,1006.26,10.30,12.30,"$GNGGA,003454.090,4900.5167,N,00825.4499,E,0,0,,102.1,M,47.9,M,,*5D",,,,
2021-12-23T01:35:18+01:00,252,32.19,25.40,1006.24,9.90,12.20,"$GNGGA,003514.087,4900.5167,N,00825.4499,E,0,0,,102.1,M,47.9,M,,*5E",,,,
2021-12-23T01:35:38+01:00,253,32.23,25.35,1006.24,10.00,11.70,"$GNGGA,003534.087,4900.5167,N,00825.4499,E,0,0,,102.1,M,47.9,M,,*5C",,,,
2021-12-23T01:35:58+01:00,254,32.26,25.27,1006.23,10.60,13.20,"$GNGGA,003554.086,4900.5167,N,00825.4499,E,0,0,,102.1,M,47.9,M,,*5B",,,,
2021-12-23T01:36:17+01:00,255,32.28,25.26,1006.24,10.40,11.40,"$GNGGA,003613.311,4900.5167,N,00825.4499,E,0,0,,102.1,M,47.9,M,,*56",,,,
2021-12-23T01:36:37+01:00,256,32.28,25.31,1006.25,10.20,10.80,"$GNGGA,003633.096,4900.5167,N,00825.4499,E,0,0,,102.1,M,47.9,M,,*58",,,,
2021-12-23T01:36:57+01:00,257,32.28,25.32,1006.25,10.00,10.60,"$GNGGA,003653.093,4900.5167,N,00825.4499,E,0,0,,102.1,M,47.9,M,,*5B",,,,
2021-12-23T01:37:17+01:00,258,32.27,25.35,1006.26,9.90,11.10,"$GNGGA,003712.308,4900.5167,N,00825.4499,E,0,0,,102.1,M,47.9,M,,*5E",,,,
2021-12-23T01:37:35+01:00,259,32.25,25.37,1006.26,10.00,12.30,"$GNGGA,003731.304,4900.5167,N,00825.4499,E,0,0,,102.1,M,47.9,M,,*53",,,,
2021-12-23T01:37:54+01:00,260,32.24,25.36,1006.26,10.00,11.70,"$GNGGA,003750.311,4900.5167,N,00825.4499,E,0,0,,102.1,M,47.9,M,,*50",,,,
2021-12-23T01:38:14+01:00,261,32.23,25.37,1006.26,10.90,12.30,"$GNGGA,003810.094,4900.5167,N,00825.4499,E,0,0,,102.1,M,47.9,M,,*55",,,,
2021-12-23T01:38:35+01:00,262,32.21,25.36,1006.26,11.50,12.10,"$GNGGA,003831.000,4900.5141,N,00825.6008,E,0,3,,208.4,M,47.9,M,,*5E",,,,
2021-12-23T01:38:55+01:00,263,32.20,25.39,1006.25,11.30,11.90,"$GNGGA,003851.000,4900.5155,N,00825.5844,E,1,4,3.56,203.6,M,47.9,M,,*4F",,,,
2021-12-23T01:39:16+01:00,264,32.19,25.41,1006.24,10.80,11.40,"$GNGGA,003912.000,4900.5190,N,00825.5888,E,1,4,3.57,195.8,M,47.9,M,,*43",,,,
2021-12-23T01:39:36+01:00,265,32.18,25.40,1006.23,10.30,10.90,"$GNGGA,003932.000,4900.5221,N,00825.5966,E,1,4,3.57,194.4,M,47.9,M,,*44",,,,
2021-12-23T01:39:57+01:00,266,32.17,25.41,1006.22,10.80,11.50,"$GNGGA,003952.000,4900.5193,N,00825.5791,E,1,4,3.57,190.0,M,47.9,M,,*4E",,,,
2021-12-23T01:40:18+01:00,267,32.16,25.43,1006.21,10.50,11.00,"$GNGGA,004013.000,4900.5206,N,00825.5677,E,1,4,3.57,186.4,M,47.9,M,,*40",,,,
2021-12-23T01:40:38+01:00,268,32.14,25.44,1006.20,11.40,13.90,"$GNGGA,004033.000,4900.5197,N,00825.5609,E,1,4,3.58,185.8,M,47.9,M,,*40",,,,
2021-12-23T01:40:57+01:00,269,32.14,25.45,1006.18,10.40,12.50,"$GNGGA,004053.000,4900.5213,N,00825.5792,E,1,3,6.54,185.6,M,47.9,M,,*4A",,,,
2021-12-23T01:41:18+01:00,270,32.13,25.45,1006.16,11.40,13.80,"$GNGGA,004114.000,4900.5203,N,00825.5728,E,1,3,6.54,185.9,M,47.9,M,,*47",,,,
2021-12-23T01:41:38+01:00,271,32.12,25.47,1006.16,10.20,12.10,"$GNGGA,004134.000,4900.5210,N,00825.5637,E,1,3,6.56,185.8,M,47.9,M,,*4B",,,,
2021-12-23T01:41:58+01:00,272,32.11,25.48,1006.15,10.50,11.60,"$GNGGA,004154.000,4900.5207,N,00825.5667,E,1,3,6.57,185.6,M,47.9,M,,*41",,,,
2021-12-23T01:42:19+01:00,273,32.11,25.42,1006.15,10.30,12.10,"$GNGGA,004214.000,4900.5198,N,00825.5503,E,1,3,6.58,185.6,M,47.9,M,,*4D",,,,
2021-12-23T01:42:38+01:00,274,32.10,25.37,1006.15,11.40,12.00,"$GNGGA,004234.000,4900.5179,N,00825.5109,E,1,3,6.59,185.7,M,47.9,M,,*4E",,,,
2021-12-23T01:42:58+01:00,275,32.10,25.32,1006.15,11.30,11.90,"$GNGGA,004254.000,4900.5188,N,00825.5468,E,1,3,6.60,185.7,M,47.9,M,,*4E",,,,
2021-12-23T01:43:18+01:00,276,32.09,25.28,1006.16,11.30,11.90,"$GNGGA,004314.000,4900.5216,N,00825.5635,E,1,3,6.60,185.7,M,47.9,M,,*45",,,,
2021-12-23T01:43:38+01:00,277,32.08,25.21,1006.16,10.80,11.40,"$GNGGA,004334.000,4900.5217,N,00825.5673,E,1,3,6.61,185.8,M,47.9,M,,*4A",,,,
2021-12-23T01:43:59+01:00,278,32.07,25.03,1006.16,12.10,12.80,"$GNGGA,004354.000,4900.5141,N,00825.4154,E,1,4,3.41,186.1,M,47.9,M,,*45",,,,
2021-12-23T01:44:19+01:00,279,32.06,24.84,1006.15,14.00,14.80,"$GNGGA,004415.000,4900.5109,N,00825.3132,E,0,3,,187.2,M,47.9,M,,*50",,,,
2021-12-23T01:44:39+01:00,280,32.05,24.75,1006.14,15.10,15.90,"$GNGGA,004435.000,4900.5051,N,00825.1922,E,0,4,,188.1,M,47.9,M,,*5E",,,,
2021-12-23T01:44:59+01:00,281,32.05,24.59,1006.13,14.80,15.60,"$GNGGA,004455.000,4900.5138,N,00825.4742,E,1,4,3.43,189.4,M,47.9,M,,*44",,,,
2021-12-23T01:45:20+01:00,282,32.03,24.47,1006.13,14.20,15.50,"$GNGGA,004515.000,4900.4134,N,00825.2571,E,1,4,3.44,191.7,M,47.9,M,,*45",,,,
2021-12-23T01:45:40+01:00,283,32.02,24.43,1006.11,14.60,15.70,"$GNGGA,004535.000,4900.2817,N,00824.9137,E,0,4,,194.9,M,47.9,M,,*52",,,,
2021-12-23T01:45:59+01:00,284,32.02,24.33,1006.10,16.20,19.80,"$GNGGA,004555.000,4900.5166,N,00825.5072,E,0,4,,176.4,M,47.9,M,,*50",,,,
2021-12-23T01:46:20+01:00,285,32.01,24.18,1006.08,17.50,21.90,"$GNGGA,004616.000,4900.4764,N,00825.2249,E,0,4,,180.6,M,47.9,M,,*57",,,,
2021-12-23T01:46:41+01:00,286,32.01,24.05,1006.07,18.70,22.60,"$GNGGA,004636.000,4900.4408,N,00824.9963,E,0,4,,172.7,M,47.9,M,,*59",,,,
2021-12-23T01:47:01+01:00,287,32.00,23.86,1006.07,19.40,22.50,"$GNGGA,004656.000,4900.4810,N,00825.3177,E,0,4,,181.6,M,47.9,M,,*51",,,,
2021-12-23T01:47:22+01:00,288,32.00,23.74,1006.06,21.00,25.40,"$GNGGA,004717.000,4900.5176,N,00825.5079,E,0,4,,178.4,M,47.9,M,,*50",,,,
2021-12-23T01:47:42+01:00,289,31.99,23.68,1006.05,20.60,25.10,"$GNGGA,004737.000,4900.4772,N,00825.2932,E,0,4,,180.6,M,47.9,M,,*55",,,,
2021-12-23T01:48:02+01:00,290,31.99,23.60,1006.05,21.10,25.00,"$GNGGA,004757.000,4900.4967,N,00825.4119,E,0,4,,181.3,M,47.9,M,,*5A",,,,
2021-12-23T01:48:23+01:00,291,31.98,23.51,1006.04,20.30,21.40,"$GNGGA,004818.000,4900.4528,N,00825.1312,E,0,4,,173.9,M,47.9,M,,*52",,,,
2021-12-23T01:48:43+01:00,292,31.98,23.49,1006.05,20.70,21.80,"$GNGGA,004838.000,4900.4803,N,00825.3272,E,0,4,,177.0,M,47.9,M,,*5C",,,,
2021-12-23T01:49:03+01:00,293,31.98,23.39,1006.05,20.90,22.00,"$GNGGA,004858.000,4900.5104,N,00825.4606,E,0,4,,182.8,M,47.9,M,,*57",,,,
2021-12-23T01:49:24+01:00,294,31.97,23.20,1006.04,22.30,24.40,"$GNGGA,004919.000,4900.4650,N,00825.2092,E,0,4,,170.5,M,47.9,M,,*59",,,,
2021-12-23T01:49:44+01:00,295,31.97,23.10,1006.04,24.70,27.80,"$GNGGA,004939.000,4900.4882,N,00825.3708,E,0,4,,176.0,M,47.9,M,,*5C",,,,
2021-12-23T01:50:04+01:00,296,31.96,23.01,1006.04,25.50,29.30,"$GNGGA,004959.000,4900.4986,N,00825.4422,E,0,4,,178.6,M,47.9,M,,*5B",,,,
2021-12-23T01:50:25+01:00,297,31.96,22.95,1006.04,25.40,27.50,"$GNGGA,005020.000,4900.5116,N,00825.4978,E,0,4,,182.3,M,47.9,M,,*5F",,,,
2021-12-23T01:50:45+01:00,298,31.95,22.89,1006.05,23.60,24.80,"$GNGGA,005040.000,4900.4658,N,00825.2335,E,0,4,,164.3,M,47.9,M,,*58",,,,
2021-12-23T01:51:05+01:00,299,31.95,22.89,1006.05,24.40,25.70,"$GNGGA,005100.000,4900.5132,N,00825.4855,E,0,4,,181.2,M,47.9,M,,*56",,,,
2021-12-23T01:51:26+01:00,300,31.95,22.70,1006.04,25.70,26.90,"$GNGGA,005121.000,4900.4826,N,00825.2807,E,0,4,,161.0,M,47.9,M,,*55",,,,
2021-12-23T01:51:46+01:00,301,31.95,22.63,1006.05,28.40,30.20,"$GNGGA,005141.000,4900.4581,N,00825.0494,E,0,4,,140.4,M,47.9,M,,*50",,,,
2021-12-23T01:52:06+01:00,302,31.95,22.33,1006.04,32.00,34.50,"$GNGGA,005201.000,4900.5020,N,00825.4518,E,0,4,,177.9,M,47.9,M,,*50",,,,
2021-12-23T01:52:27+01:00,303,31.96,22.05,1006.04,34.20,38.70,"$GNGGA,005222.000,4900.3313,N,00824.3683,E,0,1,,202.1,M,47.9,M,,*5F",,,,
2021-12-23T01:52:47+01:00,304,31.96,21.95,1006.04,33.70,39.90,"$GNGGA,005242.000,4900.1864,N,00824.5980,E,0,0,,197.5,M,47.9,M,,*50",,,,
2021-12-23T01:53:08+01:00,305,31.97,21.99,1006.04,33.30,36.50,"$GNGGA,005303.000,4900.1864,N,00824.5980,E,0,0,,197.5,M,47.9,M,,*54",,,,
2021-12-23T01:53:28+01:00,306,31.98,21.98,1006.04,31.00,33.50,"$GNGGA,005323.000,4900.1921,N,00824.5943,E,0,2,,197.2,M,47.9,M,,*5C",,,,
2021-12-23T01:53:48+01:00,307,31.99,22.00,1006.04,30.90,32.50,"$GNGGA,005343.000,4900.5233,N,00825.5954,E,0,4,,183.8,M,47.9,M,,*58",,,,
2021-12-23T01:54:09+01:00,308,31.99,22.09,1006.04,28.90,33.50,"$GNGGA,005404.000,4900.1871,N,00824.5979,E,0,0,,294.2,M,-48.8,M,,*72",,,,
2021-12-23T01:54:29+01:00,309,32.00,22.16,1006.05,30.10,33.70,"$GNGGA,005424.000,4900.1871,N,00824.5979,E,0,0,,197.5,M,47.9,M,,*54",,,,
2021-12-23T01:54:49+01:00,310,32.00,22.17,1006.04,32.40,36.20,"$GNGGA,005443.995,4900.1871,N,00824.5979,E,0,0,,197.5,M,47.9,M,,*50",,,,
2021-12-23T01:55:10+01:00,311,32.00,22.15,1006.04,34.30,36.10,"$GNGGA,005505.000,4900.4759,N,00824.5644,E,0,3,,197.7,M,47.9,M,,*56",,,,
2021-12-23T01:55:30+01:00,312,32.00,22.10,1006.04,35.50,37.50,"$GNGGA,005525.000,4900.5350,N,00825.7040,E,0,4,,184.3,M,47.9,M,,*58",,,,
2021-12-23T01:55:50+01:00,313,32.01,22.15,1006.04,32.80,36.60,"$GNGGA,005545.000,4900.5320,N,00825.6608,E,0,4,,189.5,M,47.9,M,,*59",,,,
2021-12-23T01:56:11+01:00,314,32.01,22.15,1006.04,30.50,34.00,"$GNGGA,005606.000,4900.4841,N,00824.5222,E,0,2,,201.0,M,47.9,M,,*5E",,,,
2021-12-23T01:56:31+01:00,315,32.02,22.16,1006.03,29.60,32.40,"$GNGGA,005626.000,4900.4726,N,00824.5589,E,0,3,,197.6,M,47.9,M,,*5F",,,,
2021-12-23T01:56:51+01:00,316,32.02,22.16,1006.02,30.30,33.50,"$GNGGA,005646.000,4900.4754,N,00824.5973,E,0,3,,197.5,M,47.9,M,,*56",,,,
2021-12-23T01:57:12+01:00,317,32.03,22.21,1006.02,32.20,37.70,"$GNGGA,005707.000,4900.4786,N,00824.5987,E,0,3,,197.5,M,47.9,M,,*56",,,,
2021-12-23T01:57:32+01:00,318,32.03,22.25,1006.00,32.70,35.10,"$GNGGA,005727.000,4900.4867,N,00824.5995,E,0,3,,197.5,M,47.9,M,,*57",,,,
2021-12-23T01:57:52+01:00,319,32.03,22.28,1005.99,32.20,33.90,"$GNGGA,005747.000,4900.4840,N,00824.5985,E,0,0,,197.5,M,47.9,M,,*56",,,,
2021-12-23T01:58:16+01:00,320,32.04,22.34,1005.98,32.20,33.90,"$GNGGA,005811.000,4900.1878,N,00824.5980,E,0,0,,197.5,M,47.9,M,,*51",,,,
2021-12-23T01:58:36+01:00,321,32.05,22.34,1005.96,32.20,35.30,"$GNGGA,005831.000,4900.1878,N,00824.5980,E,0,0,,197.5,M,47.9,M,,*53",,,,
2021-12-23T01:58:56+01:00,322,32.06,22.38,1005.94,32.10,36.40,"$GNGGA,005851.000,4900.1878,N,00824.5980,E,0,0,,197.5,M,47.9,M,,*55",,,,
2021-12-23T01:59:17+01:00,323,32.06,22.40,1005.92,31.40,39.00,"$GNGGA,005912.000,4900.1878,N,00824.5980,E,0,0,,197.5,M,47.9,M,,*53",,,,
2021-12-23T01:59:37+01:00,324,32.06,22.47,1005.92,32.30,36.80,"$GNGGA,005932.000,4900.1878,N,00824.5980,E,0,0,,197.5,M,47.9,M,,*51",,,,
2021-12-23T01:59:57+01:00,325,32.06,22.49,1005.90,32.90,37.00,"$GNGGA,005952.000,4900.1876,N,00824.5980,E,0,0,,197.5,M,47.9,M,,*59",,,,
2021-12-23T02:00:18+01:00,326,32.06,22.53,1005.88,33.00,34.70,"$GNGGA,010013.000,4900.1874,N,00824.5980,E,0,0,,197.5,M,47.9,M,,*53",,,,
2021-12-23T02:00:38+01:00,327,32.06,22.53,1005.87,32.50,35.60,"$GNGGA,010033.000,4900.3227,N,00824.6168,E,0,3,,197.6,M,47.9,M,,*52",,,,
2021-12-23T02:00:58+01:00,328,32.06,22.53,1005.87,31.20,34.20,"$GNGGA,010053.000,4900.3217,N,00824.6200,E,0,3,,197.5,M,47.9,M,,*59",,,,
2021-12-23T02:01:19+01:00,329,32.07,22.55,1005.86,29.50,34.20,"$GNGGA,010114.000,4900.3193,N,00824.5437,E,0,3,,197.9,M,47.9,M,,*59",,,,
2021-12-23T02:01:39+01:00,330,32.08,22.54,1005.85,29.30,33.50,"$GNGGA,010134.000,4900.3039,N,00824.5514,E,0,3,,197.8,M,47.9,M,,*5B",,,,
2021-12-23T02:01:59+01:00,331,32.08,22.61,1005.84,30.00,34.40,"$GNGGA,010154.000,4900.3012,N,00824.5530,E,0,3,,197.8,M,47.9,M,,*52",,,,
2021-12-23T02:02:20+01:00,332,32.09,22.63,1005.83,31.10,34.60,"$GNGGA,010215.000,4900.3084,N,00824.5501,E,0,3,,197.8,M,47.9,M,,*59",,,,
2021-12-23T02:02:40+01:00,333,32.09,22.65,1005.83,30.20,33.70,"$GNGGA,010235.000,4900.3030,N,00824.5531,E,0,3,,197.8,M,47.9,M,,*57",,,,
2021-12-23T02:03:00+01:00,334,32.09,22.69,1005.83,31.60,36.00,"$GNGGA,010255.000,4900.5222,N,00825.5420,E,0,4,,189.5,M,47.9,M,,*53",,,,
2021-12-23T02:03:21+01:00,335,32.09,22.70,1005.83,32.70,34.40,"$GNGGA,010316.000,4900.5065,N,00825.1427,E,0,3,,185.5,M,47.9,M,,*5C",,,,
2021-12-23T02:03:41+01:00,336,32.09,22.72,1005.83,32.60,37.90,"$GNGGA,010336.000,4900.5169,N,00825.3666,E,1,4,3.86,171.1,M,47.9,M,,*4C",,,,
2021-12-23T02:04:01+01:00,337,32.09,22.73,1005.85,32.30,36.80,"$GNGGA,010356.000,4900.5243,N,00825.5056,E,0,4,,133.5,M,47.9,M,,*52",,,,
2021-12-23T02:04:22+01:00,338,32.09,22.72,1005.85,30.50,39.10,"$GNGGA,010417.000,4900.5059,N,00825.1566,E,0,4,,131.4,M,47.9,M,,*58",,,,
2021-12-23T02:04:42+01:00,339,32.09,22.78,1005.86,31.80,34.40,"$GNGGA,010437.000,4900.4865,N,00824.8173,E,0,4,,123.3,M,47.9,M,,*50",,,,
2021-12-23T02:05:02+01:00,340,32.09,22.82,1005.86,30.50,32.10,"$GNGGA,010457.000,4900.4665,N,00824.4621,E,0,0,,122.4,M,47.9,M,,*56",,,,
2021-12-23T02:05:23+01:00,341,32.09,22.89,1005.87,30.90,32.50,"$GNGGA,010518.000,4900.4963,N,00824.9255,E,0,2,,125.3,M,47.9,M,,*5D",,,,
2021-12-23T02:05:43+01:00,342,32.09,22.92,1005.87,29.60,31.40,"$GNGGA,010538.000,4900.4894,N,00824.8262,E,0,2,,133.7,M,47.9,M,,*50",,,,
2021-12-23T02:06:03+01:00,343,32.09,22.90,1005.87,29.30,33.20,"$GNGGA,010558.000,4900.4973,N,00824.9602,E,0,3,,129.8,M,47.9,M,,*58",,,,
2021-12-23T02:06:24+01:00,344,32.09,22.89,1005.85,29.20,37.10,"$GNGGA,010619.000,4900.4961,N,00824.9595,E,0,3,,129.8,M,47.9,M,,*50",,,,
2021-12-23T02:06:44+01:00,345,32.09,22.90,1005.85,29.70,36.20,"$GNGGA,010639.000,4900.4966,N,00824.9587,E,0,3,,129.9,M,47.9,M,,*57",,,,
2021-12-23T02:07:04+01:00,346,32.10,22.89,1005.84,30.00,39.10,"$GNGGA,010659.000,4900.5000,N,00824.9966,E,0,2,,133.3,M,47.9,M,,*5A",,,,
2021-12-23T02:07:25+01:00,347,32.10,22.88,1005.83,30.60,37.50,"$GNGGA,010720.000,4900.5231,N,00825.4888,E,0,0,,106.1,M,47.9,M,,*5E",,,,
2021-12-23T02:07:45+01:00,348,32.10,22.95,1005.82,30.40,38.00,"$GNGGA,010740.000,4900.4919,N,00824.8790,E,0,2,,113.9,M,47.9,M,,*5D",,,,
2021-12-23T02:08:05+01:00,349,32.10,22.96,1005.81,30.80,37.70,"$GNGGA,010800.000,4900.4948,N,00824.9648,E,0,3,,129.6,M,47.9,M,,*50",,,,
2021-12-23T02:08:26+01:00,350,32.10,22.95,1005.80,30.70,37.20,"$GNGGA,010821.000,4900.4978,N,00824.9647,E,0,3,,129.6,M,47.9,M,,*5F",,,,
2021-12-23T02:08:46+01:00,351,32.10,23.02,1005.80,30.40,35.50,"$GNGGA,010841.000,4900.4938,N,00824.9664,E,0,2,,129.3,M,47.9,M,,*58",,,,
2021-12-23T02:09:06+01:00,352,32.10,23.02,1005.79,29.70,32.70,"$GNGGA,010901.000,4900.4906,N,00824.8465,E,0,2,,102.1,M,47.9,M,,*59",,,,
2021-12-23T02:09:27+01:00,353,32.10,23.04,1005.79,29.30,30.80,"$GNGGA,010922.000,4900.4921,N,00824.8833,E,0,2,,104.1,M,47.9,M,,*54",,,,
2021-12-23T02:09:47+01:00,354,32.10,23.03,1005.79,30.60,32.60,"$GNGGA,010942.000,4900.5040,N,00825.0614,E,0,2,,135.8,M,47.9,M,,*54",,,,
2021-12-23T02:10:07+01:00,355,32.10,23.05,1005.78,30.00,32.20,"$GNGGA,011002.000,4900.4923,N,00824.9664,E,0,0,,129.6,M,47.9,M,,*5B",,,,
2021-12-23T02:10:28+01:00,356,32.09,23.05,1005.78,30.00,31.60,"$GNGGA,011023.000,4900.4923,N,00824.9664,E,0,0,,129.6,M,47.9,M,,*58",,,,
2021-12-23T02:10:48+01:00,357,32.09,23.08,1005.78,29.60,31.60,"$GNGGA,011043.000,4900.5180,N,00825.4208,E,0,3,,109.6,M,47.9,M,,*5D",,,,
2021-12-23T02:11:08+01:00,358,32.09,23.08,1005.76,30.20,33.60,"$GNGGA,011103.000,4900.5152,N,00825.3836,E,0,3,,79.9,M,47.9,M,,*6E",,,,
2021-12-23T02:11:29+01:00,359,32.10,23.06,1005.76,30.80,36.20,"$GNGGA,011124.000,4900.5122,N,00825.3462,E,0,3,,75.9,M,47.9,M,,*6D",,,,
2021-12-23T02:11:49+01:00,360,32.10,23.09,1005.74,29.70,33.70,"$GNGGA,011144.000,4900.5121,N,00825.3215,E,6,3,8.09,74.4,M,47.9,M,,*7B",,,,
2021-12-23T02:12:09+01:00,361,32.10,23.24,1005.74,30.60,34.70,"$GNGGA,011204.000,4900.5096,N,00825.3132,E,0,0,,76.4,M,47.9,M,,*6F",,,,
2021-12-23T02:12:30+01:00,362,32.10,23.37,1005.74,29.10,33.70,"$GNGGA,011225.000,4900.5255,N,00825.4864,E,0,4,,140.8,M,47.9,M,,*50",,,,
2021-12-23T02:12:50+01:00,363,32.11,23.24,1005.73,28.90,35.00,"$GNGGA,011245.000,4900.5216,N,00825.4436,E,0,4,,142.4,M,47.9,M,,*54",,,,
2021-12-23T02:13:10+01:00,364,32.11,23.23,1005.73,28.50,30.70,"$GNGGA,011305.000,4900.5200,N,00825.4392,E,0,4,,142.2,M,47.9,M,,*59",,,,
2021-12-23T02:13:31+01:00,365,32.11,23.24,1005.74,29.80,32.90,"$GNGGA,011326.000,4900.5197,N,00825.4059,E,0,4,,140.7,M,47.9,M,,*56",,,,
2021-12-23T02:13:51+01:00,366,32.11,23.27,1005.74,29.60,32.40,"$GNGGA,011346.000,4900.5211,N,00825.4351,E,0,4,,140.4,M,47.9,M,,*55",,,,
2021-12-23T02:14:11+01:00,367,32.11,23.31,1005.75,31.00,33.00,"$GNGGA,011406.000,4900.5194,N,00825.4517,E,0,4,,140.6,M,47.9,M,,*5E",,,,
2021-12-23T02:14:32+01:00,368,32.12,23.39,1005.74,30.40,32.00,"$GNGGA,011427.000,4900.5191,N,00825.4630,E,0,4,,140.3,M,47.9,M,,*5B",,,,
2021-12-23T02:14:52+01:00,369,32.12,23.43,1005.75,31.80,33.40,"$GNGGA,011447.000,4900.5206,N,00825.4587,E,0,4,,140.4,M,47.9,M,,*58",,,,
2021-12-23T02:15:12+01:00,370,32.12,23.44,1005.75,32.80,39.60,"$GNGGA,011507.000,4900.5221,N,00825.4559,E,0,4,,139.9,M,47.9,M,,*58",,,,
2021-12-23T02:15:33+01:00,371,32.13,23.43,1005.75,32.70,39.30,"$GNGGA,011528.000,4900.5227,N,00825.4814,E,0,4,,141.3,M,47.9,M,,*52",,,,
2021-12-23T02:15:53+01:00,372,32.13,23.44,1005.75,30.50,39.30,"$GNGGA,011548.000,4900.5212,N,00825.4962,E,0,4,,143.1,M,47.9,M,,*52",,,,
2021-12-23T02:16:13+01:00,373,32.13,23.51,1005.74,28.50,32.80,"$GNGGA,011608.000,4900.5234,N,00825.4868,E,0,4,,144.1,M,47.9,M,,*5D",,,,
2021-12-23T02:16:34+01:00,374,32.14,23.52,1005.74,28.30,31.00,"$GNGGA,011629.000,4900.5259,N,00825.4920,E,0,4,,144.2,M,47.9,M,,*5B",,,,
2021-12-23T02:16:54+01:00,375,32.14,23.49,1005.74,29.10,30.60,"$GNGGA,011649.000,4900.5260,N,00825.4664,E,0,4,,144.9,M,47.9,M,,*53",,,,
2021-12-23T02:17:14+01:00,376,32.15,23.52,1005.74,30.20,31.80,"$GNGGA,011709.000,4900.5232,N,00825.4814,E,0,4,,148.1,M,47.9,M,,*5C",,,,
2021-12-23T02:17:35+01:00,377,32.15,23.50,1005.74,29.90,31.40,"$GNGGA,011730.000,4900.5233,N,00825.5272,E,0,4,,151.4,M,47.9,M,,*51",,,,
2021-12-23T02:17:55+01:00,378,32.15,23.47,1005.74,30.10,31.70,"$GNGGA,011750.000,4900.5368,N,00825.6181,E,0,4,,153.7,M,47.9,M,,*55",,,,
2021-12-23T02:18:15+01:00,379,32.15,23.51,1005.73,28.60,30.20,"$GNGGA,011810.000,4900.5368,N,00825.6447,E,0,4,,157.0,M,47.9,M,,*52",,,,
2021-12-23T02:18:36+01:00,380,32.15,23.53,1005.72,28.20,35.70,"$GNGGA,011831.000,4900.5386,N,00825.6415,E,0,4,,161.8,M,47.9,M,,*5B",,,,
2021-12-23T02:18:56+01:00,381,32.14,23.54,1005.73,29.00,37.90,"$GNGGA,011851.000,4900.5237,N,00825.5590,E,0,4,,160.6,M,47.9,M,,*56",,,,
2021-12-23T02:19:16+01:00,382,32.15,23.57,1005.73,29.10,36.90,"$GNGGA,011911.000,4900.5249,N,00825.5389,E,0,4,,163.7,M,47.9,M,,*56",,,,
2021-12-23T02:19:37+01:00,383,32.15,23.64,1005.73,28.90,32.30,"$GNGGA,011932.000,4900.5264,N,00825.5187,E,0,4,,166.4,M,47.9,M,,*52",,,,
2021-12-23T02:19:57+01:00,384,32.15,23.64,1005.74,27.10,28.40,"$GNGGA,011952.000,4900.5254,N,00825.4912,E,0,4,,168.3,M,47.9,M,,*5B",,,,
2021-12-23T02:20:17+01:00,385,32.15,23.62,1005.74,26.70,28.10,"$GNGGA,012012.000,4900.5265,N,00825.5056,E,0,4,,171.0,M,47.9,M,,*54",,,,
2021-12-23T02:20:38+01:00,386,32.15,23.63,1005.75,28.30,30.80,"$GNGGA,012033.000,4900.5299,N,00825.4978,E,0,4,,176.5,M,47.9,M,,*52",,,,
2021-12-23T02:20:59+01:00,387,32.16,23.61,1005.76,28.20,33.80,"$GNGGA,012054.000,4900.5348,N,00825.5347,E,0,4,,181.5,M,47.9,M,,*51",,,,
2021-12-23T02:21:19+01:00,388,32.16,23.61,1005.77,27.80,33.00,"$GNGGA,012114.000,4900.5328,N,00825.5375,E,0,4,,184.0,M,47.9,M,,*53",,,,
2021-12-23T02:21:40+01:00,389,32.16,23.59,1005.78,27.20,31.70,"$GNGGA,012135.000,4901.2628,N,00829.7897,E,0,3,,143.1,M,47.9,M,,*57",,,,
2021-12-23T02:22:00+01:00,390,32.16,23.65,1005.79,28.30,32.50,"$GNGGA,012155.000,4901.2439,N,00829.6945,E,0,3,,143.1,M,47.9,M,,*5C",,,,
2021-12-23T02:22:20+01:00,391,32.16,23.68,1005.79,29.30,32.00,"$GNGGA,012215.000,4901.2029,N,00829.4485,E,0,3,,143.4,M,47.9,M,,*58",,,,
2021-12-23T02:22:41+01:00,392,32.15,23.75,1005.79,30.50,34.70,"$GNGGA,012236.000,4901.1393,N,00829.0649,E,0,3,,143.6,M,47.9,M,,*5C",,,,
2021-12-23T02:23:01+01:00,393,32.15,23.74,1005.78,29.80,32.90,"$GNGGA,012256.000,4901.0485,N,00828.5409,E,0,3,,142.7,M,47.9,M,,*59",,,,
2021-12-23T02:23:21+01:00,394,32.15,23.70,1005.78,29.00,31.90,"$GNGGA,012316.000,4900.9753,N,00828.1044,E,0,3,,142.4,M,47.9,M,,*56",,,,
2021-12-23T02:23:42+01:00,395,32.15,23.72,1005.78,27.80,29.20,"$GNGGA,012337.000,4900.8955,N,00827.6473,E,0,3,,142.3,M,47.9,M,,*53",,,,
2021-12-23T02:24:02+01:00,396,32.15,23.79,1005.78,26.60,28.00,"$GNGGA,012357.000,4900.8122,N,00827.1755,E,0,3,,142.3,M,47.9,M,,*5D",,,,
2021-12-23T02:24:22+01:00,397,32.15,23.81,1005.78,26.60,30.10,"$GNGGA,012417.000,4900.7239,N,00826.6912,E,0,3,,142.1,M,47.9,M,,*51",,,,
2021-12-23T02:24:43+01:00,398,32.15,23.79,1005.78,26.70,31.90,"$GNGGA,012438.000,4900.5165,N,00825.4464,E,1,4,2.45,141.2,M,47.9,M,,*42",,,,
2021-12-23T02:25:03+01:00,399,32.15,23.79,1005.77,28.40,31.80,"$GNGGA,012458.000,4900.5168,N,00825.4488,E,1,4,2.45,144.1,M,47.9,M,,*4D",,,,
2021-12-23T02:25:23+01:00,400,32.15,23.82,1005.78,27.60,29.00,"$GNGGA,012518.000,4900.5155,N,00825.4302,E,1,4,2.45,149.1,M,47.9,M,,*4E",,,,
2021-12-23T02:25:44+01:00,401,32.15,23.78,1005.77,26.00,27.40,"$GNGGA,012539.000,4900.5182,N,00825.4377,E,1,4,2.45,154.8,M,47.9,M,,*40",,,,
2021-12-23T02:26:04+01:00,402,32.15,23.87,1005.77,25.70,27.00,"$GNGGA,012559.000,4900.5134,N,00825.4479,E,1,3,5.01,158.9,M,47.9,M,,*4F",,,,
2021-12-23T02:26:24+01:00,403,32.15,23.86,1005.76,26.40,29.60,"$GNGGA,012619.000,4900.5359,N,00825.5420,E,1,4,4.81,164.6,M,47.9,M,,*42",,,,
2021-12-23T02:26:45+01:00,404,32.15,23.84,1005.76,27.30,28.70,"$GNGGA,012640.000,4900.5557,N,00825.6076,E,1,3,6.64,172.0,M,47.9,M,,*4D",,,,
2021-12-23T02:27:05+01:00,405,32.15,23.93,1005.76,27.40,28.80,"$GNGGA,012700.000,4900.5545,N,00825.6553,E,0,3,,176.3,M,47.9,M,,*55",,,,
2021-12-23T02:27:26+01:00,406,32.15,23.93,1005.75,27.70,29.60,"$GNGGA,012721.000,4900.5790,N,00825.7209,E,0,3,,180.1,M,47.9,M,,*5E",,,,
2021-12-23T02:27:46+01:00,407,32.15,23.98,1005.74,28.00,30.40,"$GNGGA,012741.000,4900.6487,N,00825.7807,E,0,0,,181.8,M,47.9,M,,*51",,,,
2021-12-23T02:28:06+01:00,408,32.16,23.97,1005.73,28.00,30.30,"$GNGGA,012801.000,4900.6361,N,00825.7812,E,0,0,,181.7,M,47.9,M,,*5E",,,,
2021-12-23T02:28:27+01:00,409,32.16,23.94,1005.73,27.10,28.50,"$GNGGA,012822.000,4900.6345,N,00825.7799,E,0,0,,181.7,M,47.9,M,,*55",,,,
2021-12-23T02:28:47+01:00,410,32.15,23.96,1005.72,27.20,30.50,"$GNGGA,012842.000,4900.6340,N,00825.7795,E,0,0,,181.7,M,47.9,M,,*5A",,,,
2021-12-23T02:29:07+01:00,411,32.16,23.98,1005.73,27.00,33.50,"$GNGGA,012902.000,4900.6333,N,00825.7789,E,0,0,,181.7,M,47.9,M,,*56",,,,
2021-12-23T02:29:28+01:00,412,32.16,23.98,1005.73,27.60,35.10,"$GNGGA,012923.000,4900.6330,N,00825.7787,E,0,0,,181.6,M,47.9,M,,*59",,,,
2021-12-23T02:29:48+01:00,413,32.16,24.01,1005.74,27.20,31.10,"$GNGGA,012943.000,4900.5036,N,00825.5107,E,0,3,,280.8,M,47.9,M,,*5A",,,,
2021-12-23T02:30:08+01:00,414,32.16,24.07,1005.74,25.80,28.40,"$GNGGA,013003.000,4900.4358,N,00824.9620,E,0,3,,260.2,M,47.9,M,,*57",,,,
2021-12-23T02:30:29+01:00,415,32.16,24.08,1005.74,25.10,26.40,"$GNGGA,013024.000,4900.3231,N,00824.2124,E,0,3,,250.2,M,47.9,M,,*50",,,,
2021-12-23T02:30:49+01:00,416,32.16,24.08,1005.75,25.30,26.70,"$GNGGA,013044.000,4900.5696,N,00825.8009,E,0,3,,181.2,M,47.9,M,,*53",,,,
2021-12-23T02:31:09+01:00,417,32.16,24.08,1005.75,25.20,26.50,"$GNGGA,013104.000,4900.5684,N,00825.8013,E,0,3,,181.2,M,47.9,M,,*5E",,,,
2021-12-23T02:31:30+01:00,418,32.16,24.09,1005.73,25.60,27.20,"$GNGGA,013125.000,4900.5686,N,00825.8012,E,0,3,,181.2,M,47.9,M,,*5E",,,,
2021-12-23T02:31:50+01:00,419,32.16,24.04,1005.73,24.90,32.70,"$GNGGA,013145.000,4900.5841,N,00825.7957,E,0,3,,181.3,M,47.9,M,,*5B",,,,
2021-12-23T02:32:10+01:00,420,32.16,24.09,1005.72,25.80,34.80,"$GNGGA,013205.000,4900.5787,N,00825.7976,E,0,3,,181.3,M,47.9,M,,*5A",,,,
2021-12-23T02:32:31+01:00,421,32.16,24.11,1005.72,25.60,32.50,"$GNGGA,013226.000,4900.5719,N,00825.8000,E,0,3,,181.3,M,47.9,M,,*5B",,,,
2021-12-23T02:32:51+01:00,422,32.16,24.08,1005.73,25.50,31.00,"$GNGGA,013246.000,4900.5632,N,00825.8030,E,0,3,,181.3,M,47.9,M,,*56",,,,
2021-12-23T02:33:11+01:00,423,32.16,24.06,1005.73,25.60,32.50,"$GNGGA,013306.000,4900.5669,N,00825.8017,E,0,3,,181.3,M,47.9,M,,*58",,,,
2021-12-23T02:33:32+01:00,424,32.16,24.08,1005.73,27.00,34.00,"$GNGGA,013327.000,4900.5664,N,00825.8018,E,0,3,,181.3,M,47.9,M,,*59",,,,
2021-12-23T02:33:52+01:00,425,32.16,24.10,1005.71,28.00,35.60,"$GNGGA,013347.000,4900.5700,N,00825.8006,E,0,3,,181.3,M,47.9,M,,*53",,,,
2021-12-23T02:34:12+01:00,426,32.17,24.06,1005.71,27.70,33.20,"$GNGGA,013407.000,4900.5691,N,00825.8009,E,0,3,,181.3,M,47.9,M,,*56",,,,
2021-12-23T02:34:33+01:00,427,32.17,24.04,1005.71,27.00,30.60,"$GNGGA,013428.000,4900.5700,N,00825.8006,E,0,3,,181.3,M,47.9,M,,*5D",,,,
2021-12-23T02:34:53+01:00,428,32.17,24.05,1005.69,25.10,26.40,"$GNGGA,013448.000,4900.5668,N,00825.8016,E,0,3,,181.3,M,47.9,M,,*55",,,,
2021-12-23T02:35:13+01:00,429,32.18,24.12,1005.69,25.60,26.90,"$GNGGA,013508.000,4900.5676,N,00825.8014,E,0,3,,181.3,M,47.9,M,,*5D",,,,
2021-12-23T02:35:34+01:00,430,32.18,24.11,1005.68,25.50,27.50,"$GNGGA,013529.000,4900.5670,N,00825.8016,E,0,3,,181.4,M,47.9,M,,*5D",,,,
2021-12-23T02:35:54+01:00,431,32.18,24.13,1005.67,26.80,28.20,"$GNGGA,013549.000,4900.5671,N,00825.8015,E,0,3,,181.4,M,47.9,M,,*59",,,,
2021-12-23T02:36:14+01:00,432,32.18,24.16,1005.66,27.40,28.80,"$GNGGA,013609.000,4900.5689,N,00825.8009,E,0,3,,181.4,M,47.9,M,,*54",,,,
2021-12-23T02:36:35+01:00,433,32.18,24.21,1005.65,27.00,28.40,"$GNGGA,013630.000,4900.5671,N,00825.8015,E,0,3,,181.4,M,47.9,M,,*54",,,,
2021-12-23T02:36:55+01:00,434,32.18,24.24,1005.65,24.50,27.50,"$GNGGA,013650.000,4900.5641,N,00825.8025,E,0,3,,181.4,M,47.9,M,,*52",,,,
2021-12-23T02:37:15+01:00,435,32.18,24.24,1005.65,26.70,31.20,"$GNGGA,013710.000,4900.5414,N,00825.6442,E,0,4,,166.6,M,47.9,M,,*52",,,,
2021-12-23T02:37:36+01:00,436,32.18,24.21,1005.66,26.10,30.60,"$GNGGA,013731.000,4900.5348,N,00825.5831,E,0,4,,150.8,M,47.9,M,,*5F",,,,
2021-12-23T02:37:56+01:00,437,32.18,24.15,1005.65,28.30,33.70,"$GNGGA,013751.000,4900.5371,N,00825.5893,E,0,3,,157.3,M,47.9,M,,*50",,,,
2021-12-23T02:38:16+01:00,438,32.19,24.15,1005.65,26.90,30.20,"$GNGGA,013811.000,4900.5306,N,00825.5197,E,0,4,,154.5,M,47.9,M,,*54",,,,
2021-12-23T02:38:37+01:00,439,32.19,24.23,1005.64,28.10,32.20,"$GNGGA,013832.000,4900.5282,N,00825.4492,E,0,4,,144.8,M,47.9,M,,*55",,,,
2021-12-23T02:38:57+01:00,440,32.18,24.29,1005.64,27.50,28.80,"$GNGGA,013852.000,4900.5243,N,00825.4723,E,0,4,,134.5,M,47.9,M,,*5D",,,,
