DATA 127.0.0.1: { Id: 'A1', pm25: 0.00, pm10: 0.00, temp: 0.00, hum: 0.00, atm: 0.00 , loc: $GNGGA,000024.264,4900.5169,N,00825.4379,E,0,0,,102.1,M,47.9,M,,*53 }
CONNECTED: 127.0.0.1:54109
CLOSED: 127.0.0.1 54109
DATA 127.0.0.1: { Id: 'A1', pm25: 0.00, pm10: 0.00, temp: 0.00, hum: 0.00, atm: 1.00 , loc: $GNGGA,000041.264,4900.5169,N,00825.4379,E,0,0,,102.1,M,47.9,M,,*50 }
DATA 127.0.0.1: { Id: 'A1', pm25: 0.00, pm10: 0.00, temp: 0.00, hum: 0.00, atm: 2.00 , loc: $GNGGA,000058.264,4900.5169,N,00825.4379,E,0,0,,102.1,M,47.9,M,,*58 }
DATA 127.0.0.1: { Id: 'A1', pm25: 0.00, pm10: 0.00, temp: 0.00, hum: 0.00, atm: 3.00 , loc: $GNGGA,000115.264,4900.5169,N,00825.4379,E,0,0,,102.1,M,47.9,M,,*50 }
DATA 127.0.0.1: { Id: 'A1', pm25: 0.00, pm10: 0.00, temp: 0.00, hum: 0.00, atm: 4.00 , loc: $GNGGA,000132.264,4900.5169,N,00825.4379,E,0,0,,102.1,M,47.9,M,,*55 }
DATA 127.0.0.1: { Id: 'A1', pm25: 0.00, pm10: 0.00, temp: 0.00, hum: 0.00, atm: 5.00 , loc: $GNGGA,000149.264,4900.5169,N,00825.4379,E,0,0,,102.1,M,47.9,M,,*59 }
DATA 127.0.0.1: { Id: 'A1', pm25: 0.00, pm10: 0.00, temp: 0.00, hum: 0.00, atm: 6.00 , loc: $GNGGA,000206.264,4900.5169,N,00825.4379,E,0,0,,102.1,M,47.9,M,,*51 }
DATA 127.0.0.1: { Id: 'A1', pm25: 0.00, pm10: 0.00, temp: 0.00, hum: 0.00, atm: 7.00 , loc: $GNGGA,000223.264,4900.5169,N,00825.4379,E,0,0,,102.1,M,47.9,M,,*56 }
DATA 127.0.0.1: { Id: 'A1', pm25: 0.00, pm10: 0.00, temp: 0.00, hum: 0.00, atm: 8.00 , loc: $GNGGA,000240.264,4900.5169,N,00825.4379,E,0,0,,102.1,M,47.9,M,,*53 }
DATA 127.0.0.1: { Id: 'A1', pm25: 0.00, pm10: 0.00, temp: 0.00, hum: 0.00, atm: 9.00 , loc: $GNGGA,000257.264,4900.5169,N,00825.4379,E,0,0,,102.1,M,47.9,M,,*55 }
DATA 127.0.0.1: { Id: 'A1', pm25: 0.00, pm10: 0.00, temp: 0.00, hum: 0.00, atm: 10.00 , loc: $GNGGA,000315.264,4900.5169,N,00825.4379,E,0,0,,102.1,M,47.9,M,,*52 }
DATA 127.0.0.1: { Id: 'A1', pm25: 0.00, pm10: 0.00, temp: 0.00, hum: 0.00, atm: 11.00 , loc: $GNGGA,000335.264,4900.5169,N,00825.4379,E,0,0,,102.1,M,47.9,M,,*50 }
CONNECTED: 127.0.0.1:49347
DATA 127.0.0.1: { Id: 'A1', pm25: 0.00, pm10: 0.00, temp: 0.00, hum: 0.00, atm: 12.00 , loc: $GNGGA,000352.264,4900.5169,N,00825.4379,E,0,0,,102.1,M,47.9,M,,*51 }
DATA 127.0.0.1: SSH-2.0-OpenSSH_7.6p1 Ubuntu-4ubuntu0.5

CLOSED: 127.0.0.1 49347
CONNECTED: 127.0.0.1:49349
CLOSED: 127.0.0.1 49349
CONNECTED: 127.0.0.1:49351
DATA 127.0.0.1: SSH-2.0-Renci.SshNet.SshClient.0.0.1

DATA 127.0.0.1: { Id: 'A1', pm25: 0.00, pm10: 0.00, temp: 0.00, hum: 0.00, atm: 13.00 , loc: $GNGGA,000415.264,4900.5169,N,00825.4379,E,0,0,,102.1,M,47.9,M,,*55 }
DATA 127.0.0.1: { Id: 'A1', pm25: 0.00, pm10: 0.00, temp: 0.00, hum: 0.00, atm: 14.00 , loc: $GNGGA,000432.264,4900.5169,N,00825.4379,E,0,0,,102.1,M,47.9,M,,*50 }
DATA 127.0.0.1: { Id: 'A1', pm25: 0.00, pm10: 0.00, temp: 0.00, hum: 0.00, atm: 15.00 , loc: $GNGGA,000448.469,4900.5169,N,00825.4379,E,0,0,,102.1,M,47.9,M,,*56 }
DATA 127.0.0.1: { Id: 'A1', pm25: 0.00, pm10: 0.00, temp: 0.00, hum: 0.00, atm: 16.00 , loc: $GNGGA,120512.259,4900.5169,N,00825.4379,E,0,0,,102.1,M,47.9,M,,*5E }
DATA 127.0.0.1: { Id: 'A1', pm25: 0.00, pm10: 0.00, temp: 0.00, hum: 0.00, atm: 17.00 , loc: $GNGGA,120529.259,4900.5169,N,00825.4379,E,0,0,,102.1,M,47.9,M,,*56 }
DATA 127.0.0.1: { Id: 'A1', pm25: 0.00, pm10: 0.00, temp: 0.00, hum: 0.00, atm: 18.00 , loc: $GNGGA,120546.259,4900.5169,N,00825.4379,E,0,0,,102.1,M,47.9,M,,*5F }
DATA 127.0.0.1: { Id: 'A1', pm25: 0.00, pm10: 0.00, temp: 0.00, hum: 0.00, atm: 19.00 , loc: $GNGGA,120603.259,4900.5169,N,00825.4379,E,0,0,,102.1,M,47.9,M,,*5D }
DATA 127.0.0.1: { Id: 'A1', pm25: 0.00, pm10: 0.00, temp: 0.00, hum: 0.00, atm: 20.00 , loc: $GNGGA,120620.259,4900.5169,N,00825.4379,E,0,0,,102.1,M,47.9,M,,*5C }
DATA 127.0.0.1: { Id: 'A1', pm25: 0.00, pm10: 0.00, temp: 0.00, hum: 0.00, atm: 21.00 , loc: $GNGGA,120637.259,4900.5169,N,00825.4379,E,0,0,,102.1,M,47.9,M,,*5A }
DATA 127.0.0.1: { Id: 'A1', pm25: 0.00, pm10: 0.00, temp: 0.00, hum: 0.00, atm: 22.00 , loc: $GNGGA,120654.259,4900.5169,N,00825.4379,E,0,0,,102.1,M,47.9,M,,*5F }
DATA 127.0.0.1: { Id: 'A1', pm25: 0.00, pm10: 0.00, temp: 0.00, hum: 0.00, atm: 23.00 , loc: $GNGGA,120711.259,4900.5169,N,00825.4379,E,0,0,,102.1,M,47.9,M,,*5F }
DATA 127.0.0.1: { Id: 'A1', pm25: 0.00, pm10: 0.00, temp: 0.00, hum: 0.00, atm: 24.00 , loc: $GNGGA,120728.259,4900.5169,N,00825.4379,E,0,0,,102.1,M,47.9,M,,*55 }
DATA 127.0.0.1: { Id: 'A1', pm25: 0.00, pm10: 0.00, temp: 0.00, hum: 0.00, atm: 25.00 , loc: $GNGGA,120745.259,4900.5169,N,00825.4379,E,0,0,,102.1,M,47.9,M,,*5E }
DATA 127.0.0.1: { Id: 'A1', pm25: 0.00, pm10: 0.00, temp: 0.00, hum: 0.00, atm: 26.00 , loc: $GNGGA,120802.259,4900.5169,N,00825.4379,E,0,0,,102.1,M,47.9,M,,*52 }
DATA 127.0.0.1: { Id: 'A1', pm25: 0.00, pm10: 0.00, temp: 0.00, hum: 0.00, atm: 27.00 , loc: $GNGGA,120819.259,4900.5169,N,00825.4379,E,0,0,,102.1,M,47.9,M,,*58 }
DATA 127.0.0.1: { Id: 'A1', pm25: 0.00, pm10: 0.00, temp: 0.00, hum: 0.00, atm: 28.00 , loc: $GNGGA,120836.259,4900.5169,N,00825.4379,E,0,0,,102.1,M,47.9,M,,*55 }
DATA 127.0.0.1: { Id: 'A1', pm25: 0.00, pm10: 0.00, temp: 0.00, hum: 0.00, atm: 29.00 , loc: $GNGGA,120853.259,4900.5169,N,00825.4379,E,0,0,,102.1,M,47.9,M,,*56 }
DATA 127.0.0.1: { Id: 'A1', pm25: 0.00, pm10: 0.00, temp: 0.00, hum: 0.00, atm: 30.00 , loc: $GNGGA,120910.259,4900.5169,N,00825.4379,E,0,0,,102.1,M,47.9,M,,*50 }
DATA 127.0.0.1: { Id: 'A1', pm25: 0.00, pm10: 0.00, temp: 0.00, hum: 0.00, atm: 31.00 , loc: $GNGGA,120927.259,4900.5169,N,00825.4379,E,0,0,,102.1,M,47.9,M,,*54 }
DATA 127.0.0.1: { Id: 'A1', pm25: 0.00, pm10: 0.00, temp: 0.00, hum: 0.00, atm: 32.00 , loc: $GNGGA,120944.259,4900.5169,N,00825.4379,E,0,0,,102.1,M,47.9,M,,*51 }
DATA 127.0.0.1: { Id: 'A1', pm25: 0.00, pm10: 0.00, temp: 0.00, hum: 0.00, atm: 33.00 , loc: $GNGGA,121001.259,4900.5169,N,00825.4379,E,0,0,,102.1,M,47.9,M,,*58 }
DATA 127.0.0.1: { Id: 'A1', pm25: 0.00, pm10: 0.00, temp: 0.00, hum: 0.00, atm: 34.00 , loc: $GNGGA,121018.093,4900.5169,N,00825.4379,E,0,0,,102.1,M,47.9,M,,*54 }
DATA 127.0.0.1: { Id: 'A1', pm25: 0.00, pm10: 0.00, temp: 0.00, hum: 0.00, atm: 35.00 , loc: $GNGGA,121035.308,4900.5169,N,00825.4379,E,0,0,,102.1,M,47.9,M,,*5A }
DATA 127.0.0.1: { Id: 'A1', pm25: 0.00, pm10: 0.00, temp: 0.00, hum: 0.00, atm: 36.00 , loc: $GNGGA,121053.097,4900.5169,N,00825.4379,E,0,0,,102.1,M,47.9,M,,*5F }
DATA 127.0.0.1: { Id: 'A1', pm25: 0.00, pm10: 0.00, temp: 0.00, hum: 0.00, atm: 37.00 , loc: $GNGGA,121110.094,4900.5169,N,00825.4379,E,0,0,,102.1,M,47.9,M,,*5A }
DATA 127.0.0.1: { Id: 'A1', pm25: 0.00, pm10: 0.00, temp: 0.00, hum: 0.00, atm: 38.00 , loc: $GNGGA,121126.310,4900.5169,N,00825.4379,E,0,0,,102.1,M,47.9,M,,*50 }
DATA 127.0.0.1: { Id: 'A1', pm25: 0.00, pm10: 0.00, temp: 0.00, hum: 0.00, atm: 39.00 , loc: $GNGGA,121144.306,4900.5169,N,00825.4379,E,0,0,,102.1,M,47.9,M,,*53 }
CONNECTED: 127.0.0.1:60391
CLOSED: 127.0.0.1 60391
DATA 127.0.0.1: { Id: 'A1', pm25: 0.00, pm10: 0.00, temp: 0.00, hum: 0.00, atm: 40.00 , loc: $GNGGA,121201.095,4900.5169,N,00825.4379,E,0,0,,102.1,M,47.9,M,,*58 }
DATA 127.0.0.1: { Id: 'A1', pm25: 0.00, pm10: 0.00, temp: 0.00, hum: 0.00, atm: 41.00 , loc: $GNGGA,121218.095,4900.5169,N,00825.4379,E,0,0,,102.1,M,47.9,M,,*50 }
DATA 127.0.0.1: { Id: 'A1', pm25: 0.00, pm10: 0.00, temp: 0.00, hum: 0.00, atm: 42.00 , loc: $GNGGA,121235.095,4900.5169,N,00825.4379,E,0,0,,102.1,M,47.9,M,,*5F }
DATA 127.0.0.1: { Id: 'A1', pm25: 0.00, pm10: 0.00, temp: 0.00, hum: 0.00, atm: 43.00 , loc: $GNGGA,121252.095,4900.5169,N,00825.4379,E,0,0,,102.1,M,47.9,M,,*5E }
DATA 127.0.0.1: { Id: 'A1', pm25: 0.00, pm10: 0.00, temp: 0.00, hum: 0.00, atm: 44.00 , loc: $GNGGA,121309.094,4900.5169,N,00825.4379,E,0,0,,102.1,M,47.9,M,,*50 }
DATA 127.0.0.1: { Id: 'A1', pm25: 0.00, pm10: 0.00, temp: 0.00, hum: 0.00, atm: 45.00 , loc: $GNGGA,121326.094,4900.5169,N,00825.4379,E,0,0,,102.1,M,47.9,M,,*5D }
DATA 127.0.0.1: { Id: 'A1', pm25: 0.00, pm10: 0.00, temp: 0.00, hum: 0.00, atm: 46.00 , loc: $GNGGA,121344.094,4900.5169,N,00825.4379,E,0,0,,102.1,M,47.9,M,,*59 }
DATA 127.0.0.1: { Id: 'A1', pm25: 0.00, pm10: 0.00, temp: 0.00, hum: 0.00, atm: 47.00 , loc: $GNGGA,121400.312,4900.5169,N,00825.4379,E,0,0,,102.1,M,47.9,M,,*53 }
CONNECTED: 127.0.0.1:53922
CLOSED: 127.0.0.1 53922
CONNECTED: 127.0.0.1:53924
CONNECTED: 127.0.0.1:53926
CLOSED: 127.0.0.1 53924
CLOSED: 127.0.0.1 53926
DATA 127.0.0.1: { Id: 'A1', pm25: 0.00, pm10: 0.00, temp: 0.00, hum: 0.00, atm: 48.00 , loc: $GNGGA,121418.097,4900.5169,N,00825.4379,E,0,0,,102.1,M,47.9,M,,*54 }
DATA 127.0.0.1: { Id: 'A1', pm25: 0.00, pm10: 0.00, temp: 0.00, hum: 0.00, atm: 49.00 , loc: $GNGGA,121435.093,4900.5169,N,00825.4379,E,0,0,,102.1,M,47.9,M,,*5F }
DATA 127.0.0.1: { Id: 'A1', pm25: 0.00, pm10: 0.00, temp: 0.00, hum: 0.00, atm: 50.00 , loc: $GNGGA,121452.097,4900.5169,N,00825.4379,E,0,0,,102.1,M,47.9,M,,*5A }
DATA 127.0.0.1: { Id: 'A1', pm25: 0.00, pm10: 0.00, temp: 0.00, hum: 0.00, atm: 51.00 , loc: $GNGGA,121508.305,4900.5169,N,00825.4379,E,0,0,,102.1,M,47.9,M,,*5C }
DATA 127.0.0.1: { Id: 'A1', pm25: 0.00, pm10: 0.00, temp: 0.00, hum: 0.00, atm: 52.00 , loc: $GNGGA,121526.089,4900.5169,N,00825.4379,E,0,0,,102.1,M,47.9,M,,*57 }
DATA 127.0.0.1: { Id: 'A1', pm25: 0.00, pm10: 0.00, temp: 0.00, hum: 0.00, atm: 53.00 , loc: $GNGGA,121543.102,4900.5169,N,00825.4379,E,0,0,,102.1,M,47.9,M,,*56 }
DATA 127.0.0.1: { Id: 'A1', pm25: 0.00, pm10: 0.00, temp: 0.00, hum: 0.00, atm: 54.00 , loc: $GNGGA,121600.094,4900.5169,N,00825.4379,E,0,0,,102.1,M,47.9,M,,*5C }
DATA 127.0.0.1: { Id: 'A1', pm25: 0.00, pm10: 0.00, temp: 0.00, hum: 0.00, atm: 55.00 , loc: $GNGGA,121619.305,4900.5169,N,00825.4379,E,0,0,,102.1,M,47.9,M,,*5F }
DATA 127.0.0.1: { Id: 'A1', pm25: 0.00, pm10: 0.00, temp: 0.00, hum: 0.00, atm: 56.00 , loc: $GNGGA,121637.091,4900.5169,N,00825.4379,E,0,0,,102.1,M,47.9,M,,*5D }
DATA 127.0.0.1: { Id: 'A1', pm25: 0.00, pm10: 0.00, temp: 0.00, hum: 0.00, atm: 57.00 , loc: $GNGGA,121656.000,4900.4237,N,00826.3045,E,1,3,7.14,102.0,M,47.9,M,,*4C }
DATA 127.0.0.1: { Id: 'A1', pm25: 0.00, pm10: 0.00, temp: 0.00, hum: 0.00, atm: 58.00 , loc: $GNGGA,121714.000,4900.4221,N,00826.3018,E,1,3,7.06,101.9,M,47.9,M,,*4D }
DATA 127.0.0.1: { Id: 'A1', pm25: 0.00, pm10: 0.00, temp: 0.00, hum: 0.00, atm: 59.00 , loc: $GNGGA,121733.000,4900.4234,N,00826.3037,E,1,3,6.97,102.0,M,47.9,M,,*42 }
DATA 127.0.0.1: { Id: 'A1', pm25: 0.00, pm10: 0.00, temp: 0.00, hum: 0.00, atm: 60.00 , loc: $GNGGA,121752.000,4900.4216,N,00826.2999,E,1,3,6.90,102.0,M,47.9,M,,*4E }
DATA 127.0.0.1: { Id: 'A1', pm25: 0.00, pm10: 0.00, temp: 0.00, hum: 0.00, atm: 61.00 , loc: $GNGGA,121811.000,4900.4128,N,00826.2899,E,1,3,6.82,102.3,M,47.9,M,,*49 }
DATA 127.0.0.1: { Id: 'A1', pm25: 0.00, pm10: 0.00, temp: 0.00, hum: 0.00, atm: 62.00 , loc: $GNGGA,121829.000,4900.4184,N,00826.2980,E,1,3,6.74,102.6,M,47.9,M,,*41 }
DATA 127.0.0.1: { Id: 'A1', pm25: 0.00, pm10: 0.00, temp: 0.00, hum: 0.00, atm: 63.00 , loc: $GNGGA,121847.000,4900.4197,N,00826.2988,E,1,3,6.67,102.5,M,47.9,M,,*42 }
DATA 127.0.0.1: { Id: 'A1', pm25: 0.00, pm10: 0.00, temp: 0.00, hum: 0.00, atm: 64.00 , loc: $GNGGA,121906.000,4900.4108,N,00826.2843,E,1,3,6.59,102.7,M,47.9,M,,*49 }
DATA 127.0.0.1: { Id: 'A1', pm25: 0.00, pm10: 0.00, temp: 0.00, hum: 0.00, atm: 65.00 , loc: $GNGGA,121925.000,4900.4056,N,00826.2818,E,1,3,6.52,102.9,M,47.9,M,,*49 }
DATA 127.0.0.1: { Id: 'A1', pm25: 0.00, pm10: 0.00, temp: 0.00, hum: 0.00, atm: 66.00 , loc: $GNGGA,121943.000,4900.4116,N,00826.2892,E,1,3,6.45,102.8,M,47.9,M,,*49 }
DATA 127.0.0.1: { Id: 'A1', pm25: 0.00, pm10: 0.00, temp: 0.00, hum: 0.00, atm: 67.00 , loc: $GNGGA,122002.000,4900.4134,N,00826.2952,E,1,3,41.26,102.9,M,47.9,M,,*7C }
DATA 127.0.0.1: { Id: 'A1', pm25: 0.00, pm10: 0.00, temp: 0.00, hum: 0.00, atm: 68.00 , loc: $GNGGA,122020.000,4900.4222,N,00826.3048,E,1,3,6.31,102.8,M,47.9,M,,*4F }
DATA 127.0.0.1: { Id: 'A1', pm25: 0.00, pm10: 0.00, temp: 0.00, hum: 0.00, atm: 69.00 , loc: $GNGGA,122038.000,4900.4240,N,00826.3059,E,1,3,39.99,102.7,M,47.9,M,,*73 }
DATA 127.0.0.1: { Id: 'A1', pm25: 0.00, pm10: 0.00, temp: 0.00, hum: 0.00, atm: 70.00 , loc: $GNGGA,122056.000,4900.4238,N,00826.3055,E,1,3,6.18,102.4,M,47.9,M,,*4E }
DATA 127.0.0.1: { Id: 'A1', pm25: 0.00, pm10: 0.00, temp: 0.00, hum: 0.00, atm: 71.00 , loc: $GNGGA,122115.000,4900.4164,N,00826.2983,E,1,3,6.12,102.6,M,47.9,M,,*49 }
DATA 127.0.0.1: { Id: 'A1', pm25: 0.00, pm10: 0.00, temp: 0.00, hum: 0.00, atm: 72.00 , loc: $GNGGA,122134.000,4900.4123,N,00826.2889,E,1,3,6.05,102.9,M,47.9,M,,*4B }
DATA 127.0.0.1: { Id: 'A1', pm25: 0.00, pm10: 0.00, temp: 0.00, hum: 0.00, atm: 73.00 , loc: $GNGGA,122152.000,4900.4178,N,00826.3004,E,1,3,5.99,103.0,M,47.9,M,,*47 }
DATA 127.0.0.1: { Id: 'A1', pm25: 0.00, pm10: 0.00, temp: 0.00, hum: 0.00, atm: 74.00 , loc: $GNGGA,122211.000,4900.4200,N,00826.3024,E,1,3,5.94,102.8,M,47.9,M,,*49 }
DATA 127.0.0.1: { Id: 'A1', pm25: 0.00, pm10: 0.00, temp: 0.00, hum: 0.00, atm: 75.00 , loc: $GNGGA,122236.000,4900.4206,N,00826.3039,E,1,3,5.85,102.9,M,47.9,M,,*47 }
CLOSED: 127.0.0.1 49351
DATA 127.0.0.1: { Id: 'A1', pm25: 0.00, pm10: 0.00, temp: 0.00, hum: 0.00, atm: 75.00 , loc: $GNGGA,122319.000,4900.4208,N,00826.3087,E,1,3,5.72,103.0,M,47.9,M,,*40 }
DATA 127.0.0.1: { Id: 'A1', pm25: 0.00, pm10: 0.00, temp: 0.00, hum: 0.00, atm: 76.00 , loc: $GNGGA,122339.000,4900.4178,N,00826.3015,E,1,3,5.66,103.0,M,47.9,M,,*48 }
DATA 127.0.0.1: { Id: 'A1', pm25: 0.00, pm10: 0.00, temp: 0.00, hum: 0.00, atm: 77.00 , loc: $GNGGA,122358.000,4900.4186,N,00826.2982,E,1,3,5.61,103.2,M,47.9,M,,*4D }
CONNECTED: 127.0.0.1:61573
DATA 127.0.0.1: SSH-2.0-Renci.SshNet.SshClient.0.0.1

DATA 127.0.0.1: { Id: 'A1', pm25: 0.00, pm10: 0.00, temp: 0.00, hum: 0.00, atm: 78.00 , loc: $GNGGA,122417.000,4900.4247,N,00826.2944,E,1,4,3.78,137.6,M,47.9,M,,*4F }
CONNECTED: 127.0.0.1:61577
CLOSED: 127.0.0.1 61577
DATA 127.0.0.1: { Id: 'A1', pm25: 0.00, pm10: 0.00, temp: 0.00, hum: 0.00, atm: 79.00 , loc: $GNGGA,122442.000,4900.4243,N,00826.2956,E,1,4,3.79,137.8,M,47.9,M,,*47 }
DATA 127.0.0.1: { Id: 'A1', pm25: 0.00, pm10: 0.00, temp: 0.00, hum: 0.00, atm: 80.00 , loc: $GNGGA,122502.000,4900.4267,N,00826.2967,E,1,4,3.80,137.2,M,47.9,M,,*4A }
DATA 127.0.0.1: { Id: 'A1', pm25: 0.00, pm10: 0.00, temp: 0.00, hum: 0.00, atm: 81.00 , loc: $GNGGA,122522.000,4900.4265,N,00826.2886,E,1,4,3.80,137.4,M,47.9,M,,*42 }
DATA 127.0.0.1: { Id: 'A1', pm25: 0.00, pm10: 0.00, temp: 0.00, hum: 0.00, atm: 82.00 , loc: $GNGGA,122540.000,4900.4580,N,00826.2909,E,1,4,5.55,136.9,M,47.9,M,,*4E }
DATA 127.0.0.1: { Id: 'A1', pm25: 0.00, pm10: 0.00, temp: 0.00, hum: 0.00, atm: 83.00 , loc: $GNGGA,122559.000,4900.4436,N,00826.2947,E,1,4,3.81,136.2,M,47.9,M,,*44 }
DATA 127.0.0.1: { Id: 'A1', pm25: 0.00, pm10: 0.00, temp: 0.00, hum: 0.00, atm: 84.00 , loc: $GNGGA,122618.000,4900.4605,N,00826.3119,E,1,5,2.21,132.4,M,47.9,M,,*4A }
DATA 127.0.0.1: { Id: 'A1', pm25: 0.00, pm10: 0.00, temp: 0.00, hum: 0.00, atm: 85.00 , loc: $GNGGA,122635.000,4900.4245,N,00826.2879,E,1,5,2.21,125.7,M,47.9,M,,*4E }
CONNECTED: 127.0.0.1:61581
DATA 127.0.0.1: SSH-2.0-ssh2js1.4.0

DATA 127.0.0.1: { Id: 'A1', pm25: 0.00, pm10: 0.00, temp: 0.00, hum: 0.00, atm: 86.00 , loc: $GNGGA,122654.000,4900.4068,N,00826.2841,E,1,4,3.82,123.0,M,47.9,M,,*47 }
CLOSED: 127.0.0.1 61581
CONNECTED: 127.0.0.1:61584
CLOSED: 127.0.0.1 61584
DATA 127.0.0.1: { Id: 'A1', pm25: 0.00, pm10: 0.00, temp: 0.00, hum: 0.00, atm: 87.00 , loc: $GNGGA,122711.000,4900.4067,N,00826.2956,E,1,5,2.40,119.4,M,47.9,M,,*4C }
DATA 127.0.0.1: { Id: 'A1', pm25: 0.00, pm10: 0.00, temp: 0.00, hum: 0.00, atm: 88.00 , loc: $GNGGA,122729.000,4900.4207,N,00826.3145,E,1,5,2.41,116.4,M,47.9,M,,*46 }
DATA 127.0.0.1: { Id: 'A1', pm25: 0.00, pm10: 0.00, temp: 0.00, hum: 0.00, atm: 89.00 , loc: $GNGGA,122746.000,4900.4267,N,00826.3206,E,1,5,2.41,115.8,M,47.9,M,,*42 }
DATA 127.0.0.1: { Id: 'A1', pm25: 0.00, pm10: 0.00, temp: 0.00, hum: 0.00, atm: 90.00 , loc: $GNGGA,122803.000,4900.4370,N,00826.3249,E,1,4,2.52,114.5,M,47.9,M,,*4F }
DATA 127.0.0.1: { Id: 'A1', pm25: 0.00, pm10: 0.00, temp: 0.00, hum: 0.00, atm: 91.00 , loc: $GNGGA,122821.000,4900.4333,N,00826.3340,E,1,4,2.52,113.2,M,47.9,M,,*40 }
DATA 127.0.0.1: { Id: 'A1', pm25: 0.00, pm10: 0.00, temp: 0.00, hum: 0.00, atm: 92.00 , loc: $GNGGA,122840.000,4900.4105,N,00826.3246,E,1,5,2.41,112.9,M,47.9,M,,*4E }
DATA 127.0.0.1: { Id: 'A1', pm25: 0.00, pm10: 0.00, temp: 0.00, hum: 0.00, atm: 93.00 , loc: $GNGGA,122858.000,4900.4156,N,00826.2898,E,1,6,1.74,113.5,M,47.9,M,,*42 }
DATA 127.0.0.1: { Id: 'A1', pm25: 0.00, pm10: 0.00, temp: 0.00, hum: 0.00, atm: 94.00 , loc: $GNGGA,122916.000,4900.4248,N,00826.2919,E,1,5,2.41,113.1,M,47.9,M,,*4F }
DATA 127.0.0.1: { Id: 'A1', pm25: 0.00, pm10: 0.00, temp: 0.00, hum: 0.00, atm: 95.00 , loc: $GNGGA,122934.000,4900.4218,N,00826.3273,E,1,6,1.74,109.3,M,47.9,M,,*43 }
DATA 127.0.0.1: { Id: 'A1', pm25: 0.00, pm10: 0.00, temp: 0.00, hum: 0.00, atm: 96.00 , loc: $GNGGA,122954.000,4900.4400,N,00826.3378,E,1,5,3.31,108.8,M,47.9,M,,*4A }
DATA 127.0.0.1: { Id: 'A1', pm25: 0.00, pm10: 0.00, temp: 0.00, hum: 0.00, atm: 97.00 , loc: $GNGGA,123014.000,4900.4704,N,00826.3472,E,1,6,1.96,105.4,M,47.9,M,,*41 }
DATA 127.0.0.1: { Id: 'A1', pm25: 0.00, pm10: 0.00, temp: 0.00, hum: 0.00, atm: 98.00 , loc: $GNGGA,123032.000,4900.5007,N,00826.3642,E,1,6,1.74,105.4,M,47.9,M,,*4D }
CONNECTED: 127.0.0.1:54722
CLOSED: 127.0.0.1 54722
CONNECTED: 127.0.0.1:54724
CLOSED: 127.0.0.1 54724
DATA 127.0.0.1: { Id: 'A1', pm25: 0.00, pm10: 0.00, temp: 0.00, hum: 0.00, atm: 99.00 , loc: $GNGGA,123051.000,4900.5282,N,00826.3676,E,1,6,1.95,109.2,M,47.9,M,,*45 }
DATA 127.0.0.1: { Id: 'A1', pm25: 0.00, pm10: 0.00, temp: 0.00, hum: 0.00, atm: 100.00 , loc: $GNGGA,123113.000,4900.5367,N,00826.3223,E,1,6,1.74,105.1,M,47.9,M,,*4C }
DATA 127.0.0.1: { Id: 'A1', pm25: 0.00, pm10: 0.00, temp: 0.00, hum: 0.00, atm: 101.00 , loc: $GNGGA,123132.000,4900.5389,N,00826.2804,E,1,6,1.74,103.4,M,47.9,M,,*42 }
DATA 127.0.0.1: { Id: 'A1', pm25: 0.00, pm10: 0.00, temp: 0.00, hum: 0.00, atm: 102.00 , loc: $GNGGA,123149.000,4900.5239,N,00826.2796,E,1,6,1.74,105.5,M,47.9,M,,*47 }
DATA 127.0.0.1: { Id: 'A1', pm25: 0.00, pm10: 0.00, temp: 0.00, hum: 0.00, atm: 103.00 , loc: $GNGGA,123207.000,4900.5342,N,00826.2791,E,1,6,1.74,107.6,M,47.9,M,,*45 }
DATA 127.0.0.1: { Id: 'A1', pm25: 0.00, pm10: 0.00, temp: 0.00, hum: 0.00, atm: 104.00 , loc: $GNGGA,123224.000,4900.5391,N,00826.2749,E,1,6,1.74,109.1,M,47.9,M,,*46 }
DATA 127.0.0.1: { Id: 'A1', pm25: 0.00, pm10: 0.00, temp: 0.00, hum: 0.00, atm: 105.00 , loc: $GNGGA,123242.000,4900.5327,N,00826.2668,E,1,6,1.74,114.6,M,47.9,M,,*42 }
DATA 127.0.0.1: { Id: 'A1', pm25: 0.00, pm10: 0.00, temp: 0.00, hum: 0.00, atm: 106.00 , loc: $GNGGA,123259.000,4900.5118,N,00826.2720,E,1,6,1.74,117.3,M,47.9,M,,*4D }
DATA 127.0.0.1: { Id: 'A1', pm25: 0.00, pm10: 0.00, temp: 0.00, hum: 0.00, atm: 107.00 , loc: $GNGGA,123317.000,4900.4822,N,00826.2588,E,1,5,2.39,118.3,M,47.9,M,,*41 }
DATA 127.0.0.1: { Id: 'A1', pm25: 0.00, pm10: 0.00, temp: 0.00, hum: 0.00, atm: 108.00 , loc: $GNGGA,123334.000,4900.4871,N,00826.2278,E,1,4,5.91,118.4,M,47.9,M,,*4D }
DATA 127.0.0.1: { Id: 'A1', pm25: 0.00, pm10: 0.00, temp: 0.00, hum: 0.00, atm: 109.00 , loc: $GNGGA,123352.000,4900.5036,N,00826.2055,E,6,2,99.99,117.9,M,47.9,M,,*74 }
DATA 127.0.0.1: { Id: 'A1', pm25: 0.00, pm10: 0.00, temp: 0.00, hum: 0.00, atm: 110.00 , loc: $GNGGA,123409.000,4900.5120,N,00826.1906,E,0,2,,118.0,M,47.9,M,,*59 }
DATA 127.0.0.1: { Id: 'A1', pm25: 0.00, pm10: 0.00, temp: 0.00, hum: 0.00, atm: 111.00 , loc: $GNGGA,123427.000,4900.5120,N,00826.1906,E,0,0,,118.0,M,47.9,M,,*57 }
DATA 127.0.0.1: { Id: 'A1', pm25: 0.00, pm10: 0.00, temp: 0.00, hum: 0.00, atm: 112.00 , loc: $GNGGA,123445.000,4900.5120,N,00826.1906,E,0,0,,118.0,M,47.9,M,,*53 }
DATA 127.0.0.1: { Id: 'A1', pm25: 0.00, pm10: 0.00, temp: 0.00, hum: 0.00, atm: 113.00 , loc: $GNGGA,123502.000,4900.5120,N,00826.1906,E,0,0,,118.0,M,47.9,M,,*51 }
DATA 127.0.0.1: { Id: 'A1', pm25: 0.00, pm10: 0.00, temp: 0.00, hum: 0.00, atm: 114.00 , loc: $GNGGA,123519.000,4900.5120,N,00826.1906,E,0,0,,118.0,M,47.9,M,,*5B }
DATA 127.0.0.1: { Id: 'A1', pm25: 0.00, pm10: 0.00, temp: 0.00, hum: 0.00, atm: 115.00 , loc: $GNGGA,123536.000,4900.5120,N,00826.1906,E,0,0,,118.0,M,47.9,M,,*56 }
DATA 127.0.0.1: { Id: 'A1', pm25: 0.00, pm10: 0.00, temp: 0.00, hum: 0.00, atm: 116.00 , loc: $GNGGA,123553.000,4900.5120,N,00826.1906,E,0,0,,118.0,M,47.9,M,,*55 }
DATA 127.0.0.1: { Id: 'A1', pm25: 0.00, pm10: 0.00, temp: 0.00, hum: 0.00, atm: 117.00 , loc: $GNGGA,123610.000,4900.5120,N,00826.1906,E,0,0,,118.0,M,47.9,M,,*51 }
DATA 127.0.0.1: { Id: 'A1', pm25: 0.00, pm10: 0.00, temp: 0.00, hum: 0.00, atm: 118.00 , loc: $GNGGA,123627.000,4900.5079,N,00826.1963,E,0,0,,117.9,M,47.9,M,,*5D }
DATA 127.0.0.1: { Id: 'A1', pm25: 0.00, pm10: 0.00, temp: 0.00, hum: 0.00, atm: 119.00 , loc: $GNGGA,123644.000,4900.5079,N,00826.1963,E,0,0,,117.9,M,47.9,M,,*58 }
DATA 127.0.0.1: { Id: 'A1', pm25: 0.00, pm10: 0.00, temp: 0.00, hum: 0.00, atm: 120.00 , loc: $GNGGA,123701.000,4900.5079,N,00826.1963,E,0,0,,117.9,M,47.9,M,,*58 }
DATA 127.0.0.1: { Id: 'A1', pm25: 0.00, pm10: 0.00, temp: 0.00, hum: 0.00, atm: 121.00 , loc: $GNGGA,123719.000,4900.5079,N,00826.1963,E,0,0,,117.9,M,47.9,M,,*51 }
DATA 127.0.0.1: { Id: 'A1', pm25: 0.00, pm10: 0.00, temp: 0.00, hum: 0.00, atm: 122.00 , loc: $GNGGA,123736.000,4900.5079,N,00826.1963,E,0,0,,117.9,M,47.9,M,,*5C }
DATA 127.0.0.1: { Id: 'A1', pm25: 0.00, pm10: 0.00, temp: 0.00, hum: 0.00, atm: 123.00 , loc: $GNGGA,123754.000,4900.5079,N,00826.1963,E,0,0,,117.9,M,47.9,M,,*58 }
CONNECTED: 127.0.0.1:52975
CLOSED: 127.0.0.1 52975
DATA 127.0.0.1: { Id: 'A1', pm25: 0.00, pm10: 0.00, temp: 0.00, hum: 0.00, atm: 124.00 , loc: $GNGGA,123811.000,4900.5049,N,00826.2006,E,0,0,,117.9,M,47.9,M,,*5C }
DATA 127.0.0.1: { Id: 'A1', pm25: 0.00, pm10: 0.00, temp: 0.00, hum: 0.00, atm: 125.00 , loc: $GNGGA,123829.000,4900.5049,N,00826.2006,E,0,0,,117.9,M,47.9,M,,*57 }
DATA 127.0.0.1: { Id: 'A1', pm25: 0.00, pm10: 0.00, temp: 0.00, hum: 0.00, atm: 126.00 , loc: $GNGGA,123848.000,4900.5049,N,00826.2006,E,0,0,,117.9,M,47.9,M,,*50 }
DATA 127.0.0.1: { Id: 'A1', pm25: 0.00, pm10: 0.00, temp: 0.00, hum: 0.00, atm: 127.00 , loc: $GNGGA,123906.000,4900.5049,N,00826.2006,E,0,0,,117.9,M,47.9,M,,*5B }
DATA 127.0.0.1: { Id: 'A1', pm25: 0.00, pm10: 0.00, temp: 0.00, hum: 0.00, atm: 128.00 , loc: $GNGGA,123924.000,4900.5049,N,00826.2006,E,0,0,,117.9,M,47.9,M,,*5B }
DATA 127.0.0.1: { Id: 'A1', pm25: 0.00, pm10: 0.00, temp: 0.00, hum: 0.00, atm: 129.00 , loc: $GNGGA,123942.000,4900.5049,N,00826.2006,E,0,0,,117.9,M,47.9,M,,*5B }
DATA 127.0.0.1: { Id: 'A1', pm25: 0.00, pm10: 0.00, temp: 0.00, hum: 0.00, atm: 130.00 , loc: $GNGGA,123959.000,4900.4972,N,00826.2114,E,0,0,,117.9,M,47.9,M,,*53 }
DATA 127.0.0.1: { Id: 'A1', pm25: 0.00, pm10: 0.00, temp: 0.00, hum: 0.00, atm: 131.00 , loc: $GNGGA,124017.000,4900.4972,N,00826.2114,E,0,0,,117.9,M,47.9,M,,*57 }
CONNECTED: 127.0.0.1:52982
CLOSED: 127.0.0.1 52982
CONNECTED: 127.0.0.1:52984
CLOSED: 127.0.0.1 52984
DATA 127.0.0.1: { Id: 'A1', pm25: 0.00, pm10: 0.00, temp: 0.00, hum: 0.00, atm: 132.00 , loc: $GNGGA,124035.000,4900.4972,N,00826.2114,E,0,0,,117.9,M,47.9,M,,*57 }
CONNECTED: 127.0.0.1:52986
CLOSED: 127.0.0.1 52986
DATA 127.0.0.1: { Id: 'A1', pm25: 0.00, pm10: 0.00, temp: 0.00, hum: 0.00, atm: 133.00 , loc: $GNGGA,124052.000,4900.4972,N,00826.2114,E,0,0,,117.9,M,47.9,M,,*56 }
DATA 127.0.0.1: { Id: 'A1', pm25: 0.00, pm10: 0.00, temp: 0.00, hum: 0.00, atm: 134.00 , loc: $GNGGA,124109.000,4900.4972,N,00826.2114,E,0,0,,117.9,M,47.9,M,,*59 }
DATA 127.0.0.1: { Id: 'A1', pm25: 0.00, pm10: 0.00, temp: 0.00, hum: 0.00, atm: 135.00 , loc: $GNGGA,124128.000,4900.4972,N,00826.2114,E,0,0,,117.9,M,47.9,M,,*5A }