AT

OK
AT+GPS=1

OK
AT+LOCATION=2
+LOCATION: GPS NOT FIX NOW
+CME ERROR: 52
AT+GPSRD=10

OK
+GPSRD:$GNGGA,234203.094,4900.5220,N,00825.4413,E,0,3,,152.0,M,47.9,M,,*5E
$GPGSA,A,1,20,25,05,,,,,,,,,,,,*1E
$BDGSA,A,1,,,,,,,,,,,,,,,*0F
$GPGSV,3,1,12,26,64,292,,18,61,164,,29,46,066,,31,39,217,*7F
$GPGSV,3,2,12,16,24,302,,05,22,064,25,25,19,128,26,20,12,036,29*74
$GPGSV,3,3,12,04,04,306,,27,04,260,,23,03,152,,09,02,339,*7C
$BDGSV,1,1,00*68
$GNRMC,234203.094,V,4900.5220,N,00825.4413,E,0.488,188.23,081121,,,N*5B
$GNVTG,188.23,T,,M,0.488,N,0.905,K,N*24
+GPSRD:$GNGGA,234213.094,4900.5236,N,00825.4360,E,0,3,,152.0,M,47.9,M,,*5B
$GPGSA,A,1,20,25,05,,,,,,,,,,,,*1E
$BDGSA,A,1,,,,,,,,,,,,,,,*0F
$GPGSV,3,1,12,26,64,292,,18,62,164,,29,46,066,,31,39,217,*7C
$GPGSV,3,2,12,16,25,302,,05,22,064,25,25,19,128,25,20,12,035,29*75
$GPGSV,3,3,12,04,04,306,,27,04,260,,23,03,151,,09,02,339,*7F
$BDGSV,1,1,00*68
$GNRMC,234213.094,V,4900.5236,N,00825.4360,E,0.235,13.41,081121,,,N*69
$GNVTG,13.41,T,,M,0.235,N,0.436,K,N*1E
+GPSRD:$GNGGA,234223.094,4900.5216,N,00825.4234,E,0,3,,152.0,M,47.9,M,,*5A
$GPGSA,A,1,20,25,05,,,,,,,,,,,,*1E
$BDGSA,A,1,,,,,,,,,,,,,,,*0F
$GPGSV,3,1,12,26,65,292,,18,62,164,,29,45,066,,31,38,217,*7F
$GPGSV,3,2,12,16,25,302,,05,22,064,25,25,19,128,25,20,12,035,29*75
$GPGSV,3,3,12,27,05,260,,04,04,306,,23,03,151,,09,02,339,*7E
$BDGSV,1,1,00*68
$GNRMC,234223.094,V,4900.5216,N,00825.4234,E,0.312,329.15,081121,,,N*57
$GNVTG,329.15,T,,M,0.312,N,0.577,K,N*25
+GPSRD:$GNGGA,234233.094,4900.5212,N,00825.4250,E,0,3,,152.0,M,47.9,M,,*5D
$GPGSA,A,1,20,25,05,,,,,,,,,,,,*1E
$BDGSA,A,1,,,,,,,,,,,,,,,*0F
$GPGSV,3,1,12,26,65,292,,18,62,164,,29,45,066,,31,38,217,*7F
$GPGSV,3,2,12,16,25,302,,05,22,064,25,25,19,128,25,20,12,035,27*7B
$GPGSV,3,3,12,27,05,260,,04,04,306,,23,03,151,,09,02,339,*7E
$BDGSV,1,1,00*68
$GNRMC,234233.094,V,4900.5212,N,00825.4250,E,0.680,147.40,081121,,,N*54
$GNVTG,147.40,T,,M,0.680,N,1.260,K,N*21
+GPSRD:$GNGGA,234243.094,4900.5226,N,00825.4370,E,0,3,,152.0,M,47.9,M,,*5E
$GPGSA,A,1,20,25,05,,,,,,,,,,,,*1E
$BDGSA,A,1,,,,,,,,,,,,,,,*0F
$GPGSV,3,1,12,26,65,292,,18,62,164,,29,45,066,,31,38,217,*7F
$GPGSV,3,2,12,16,25,302,,05,22,064,24,25,19,128,24,20,12,035,27*7B
$GPGSV,3,3,12,27,05,260,,04,04,306,,23,03,151,,09,02,339,*7E
$BDGSV,1,1,00*68
$GNRMC,234243.094,V,4900.5226,N,00825.4370,E,0.456,322.36,081121,,,N*5E
$GNVTG,322.36,T,,M,0.456,N,0.844,K,N*25
+GPSRD:$GNGGA,234253.094,4900.5223,N,00825.4408,E,0,3,,152.0,M,47.9,M,,*52
$GPGSA,A,1,20,25,05,,,,,,,,,,,,*1E
$BDGSA,A,1,,,,,,,,,,,,,,,*0F
$GPGSV,3,1,12,26,65,292,,18,62,164,,29,45,066,,31,38,217,*7F
$GPGSV,3,2,12,16,25,302,,05,22,064,24,25,19,128,22,20,12,035,27*7D
$GPGSV,3,3,12,27,05,260,,04,04,306,,23,03,151,,09,02,339,*7E
$BDGSV,1,1,00*68
$GNRMC,234253.094,V,4900.5223,N,00825.4408,E,0.249,354.96,081121,,,N*51
$GNVTG,354.96,T,,M,0.249,N,0.462,K,N*2E
+GPSRD:$GNGGA,234303.094,4900.5211,N,00825.4249,E,0,3,,152.0,M,47.9,M,,*54
$GPGSA,A,1,20,25,05,,,,,,,,,,,,*1E
$BDGSA,A,1,,,,,,,,,,,,,,,*0F
$GPGSV,3,1,12,26,65,292,,18,62,164,,29,45,066,,31,38,217,*7F
$GPGSV,3,2,12,16,25,302,,05,22,064,24,25,19,128,22,20,12,035,26*7C
$GPGSV,3,3,12,27,05,260,,04,04,306,,23,03,151,,09,02,339,*7E
$BDGSV,1,1,00*68
$GNRMC,234303.094,V,4900.5211,N,00825.4249,E,0.080,339.25,081121,,,N*53
$GNVTG,339.25,T,,M,0.080,N,0.148,K,N*27
+GPSRD:$GNGGA,234313.094,4900.5193,N,00825.4321,E,0,3,,152.0,M,47.9,M,,*53
$GPGSA,A,1,20,25,05,,,,,,,,,,,,*1E
$BDGSA,A,1,,,,,,,,,,,,,,,*0F
$GPGSV,3,1,12,26,65,292,,18,62,164,,29,45,066,23,31,38,217,*7E
$GPGSV,3,2,12,16,25,302,,05,22,063,25,25,19,128,23,20,12,035,27*7A
$GPGSV,3,3,12,27,05,260,,04,04,305,,23,03,151,,09,02,339,*7D
$BDGSV,1,1,00*68
$GNRMC,234313.094,V,4900.5193,N,00825.4321,E,0.154,149.03,081121,,,N*5D
$GNVTG,149.03,T,,M,0.154,N,0.286,K,N*2F
+GPSRD:$GNGGA,234323.094,4900.5212,N,00825.4259,E,0,3,,152.0,M,47.9,M,,*54
$GPGSA,A,1,20,25,05,,,,,,,,,,,,*1E
$BDGSA,A,1,,,,,,,,,,,,,,,*0F
$GPGSV,3,1,12,26,65,292,,18,62,164,,29,45,066,23,31,38,217,*7E
$GPGSV,3,2,12,16,25,302,,05,22,063,25,25,19,128,22,20,12,035,27*7B
$GPGSV,3,3,12,27,05,260,,04,04,305,,23,03,151,,09,02,338,*7C
$BDGSV,1,1,00*68
$GNRMC,234323.094,V,4900.5212,N,00825.4259,E,0.378,200.46,081121,,,N*59
$GNVTG,200.46,T,,M,0.378,N,0.700,K,N*27
+GPSRD:$GNGGA,234333.094,4900.5224,N,00825.4258,E,0,3,,152.0,M,47.9,M,,*51
$GPGSA,A,1,20,25,05,,,,,,,,,,,,*1E
$BDGSA,A,1,,,,,,,,,,,,,,,*0F
$GPGSV,3,1,12,26,65,291,,18,62,163,,29,45,066,20,31,38,217,*79
$GPGSV,3,2,12,16,25,302,,05,22,063,25,25,18,129,25,20,11,035,26*7E
$GPGSV,3,3,12,27,05,261,,23,04,151,,04,04,305,,09,02,338,*7A
$BDGSV,1,1,00*68
$GNRMC,234333.094,V,4900.5224,N,00825.4258,E,0.296,50.22,081121,,,N*68
$GNVTG,50.22,T,,M,0.296,N,0.548,K,N*1D
+GPSRD:$GNGGA,234343.094,4900.5205,N,00825.4233,E,0,3,,152.0,M,47.9,M,,*58
$GPGSA,A,1,20,25,05,,,,,,,,,,,,*1E
$BDGSA,A,1,,,,,,,,,,,,,,,*0F
$GPGSV,3,1,12,26,65,291,,18,62,163,,29,45,067,22,31,38,216,*7B
$GPGSV,3,2,12,16,25,302,,05,22,063,25,25,18,129,26,20,11,035,26*7D
$GPGSV,3,3,12,27,05,261,,23,04,151,,04,04,305,,09,02,338,*7A
$BDGSV,1,1,00*68
$GNRMC,234343.094,V,4900.5205,N,00825.4233,E,0.259,342.62,081121,,,N*56
$GNVTG,342.62,T,,M,0.259,N,0.479,K,N*29
+GPSRD:$GNGGA,234353.094,4900.5235,N,00825.4351,E,0,3,,152.0,M,47.9,M,,*5F
$GPGSA,A,1,20,25,05,,,,,,,,,,,,*1E
$BDGSA,A,1,,,,,,,,,,,,,,,*0F
$GPGSV,3,1,12,26,65,291,,18,62,163,,29,45,067,25,31,38,216,*7C
$GPGSV,3,2,12,16,25,302,,05,22,063,27,25,18,129,25,20,11,035,23*79
$GPGSV,3,3,12,27,05,261,,23,04,151,,04,04,305,,09,02,338,*7A
$BDGSV,1,1,00*68
$GNRMC,234353.094,V,4900.5235,N,00825.4351,E,0.430,4.07,081121,,,N*5A
$GNVTG,4.07,T,,M,0.430,N,0.797,K,N*21
+GPSRD:$GNGGA,234404.000,4900.5231,N,00825.4342,E,1,4,5.87,131.2,M,47.9,M,,*44
$GPGSA,A,3,20,25,29,05,,,,,,,,,5.94,5.87,0.94*06
$BDGSA,A,3,,,,,,,,,,,,,5.94,5.87,0.94*1C
$GPGSV,3,1,12,26,65,291,,18,62,163,,29,45,067,26,31,38,216,*7F
$GPGSV,3,2,12,16,25,302,,05,22,063,27,25,18,129,24,20,11,035,23*78
$GPGSV,3,3,12,27,05,261,,23,04,151,,04,04,305,,09,02,338,*7A
$BDGSV,1,1,00*68
$GNRMC,234404.000,A,4900.5231,N,00825.4342,E,0.921,53.47,081121,,,A*77
$GNVTG,53.47,T,,M,0.921,N,1.707,K,A*1D
+GPSRD:$GNGGA,234414.000,4900.5221,N,00825.4448,E,1,4,5.88,128.0,M,47.9,M,,*4C
$GPGSA,A,3,20,25,29,05,,,,,,,,,5.95,5.88,0.94*08
$BDGSA,A,3,,,,,,,,,,,,,5.95,5.88,0.94*12
$GPGSV,4,1,13,26,65,291,,18,62,163,21,29,45,067,25,31,38,216,*79
$GPGSV,4,2,13,37,32,162,,16,25,302,17,05,22,063,28,25,18,129,24*72
$GPGSV,4,3,13,20,11,035,21,27,05,261,,23,04,151,,04,04,305,*78
$GPGSV,4,4,13,09,02,338,*48
$BDGSV,1,1,00*68
$GNRMC,234414.000,A,4900.5221,N,00825.4448,E,0.844,149.85,081121,,,A*4C
$GNVTG,149.85,T,,M,0.844,N,1.564,K,A*2C
+GPSRD:$GNGGA,234424.000,4900.5207,N,00825.4360,E,1,4,5.89,125.0,M,47.9,M,,*4A
$GPGSA,A,3,20,25,29,05,,,,,,,,,5.96,5.89,0.94*0A
$BDGSA,A,3,,,,,,,,,,,,,5.96,5.89,0.94*10
$GPGSV,4,1,13,26,65,291,,18,62,163,18,29,45,067,24,31,38,216,*72
$GPGSV,4,2,13,39,31,158,,16,25,302,17,05,22,063,29,25,18,129,23*70
$GPGSV,4,3,13,20,11,035,19,27,05,261,,23,04,151,,04,04,305,*73
$GPGSV,4,4,13,09,02,338,*48
$BDGSV,1,1,00*68
$GNRMC,234424.000,A,4900.5207,N,00825.4360,E,1.011,231.00,081121,,,A*4E
$GNVTG,231.00,T,,M,1.011,N,1.873,K,A*2F
AT+GPSRD=0

OK
AT+LOCATION=2

49.008803,8.423523

OK
AT+LOCATION=2

49.008712,8.424392

OK
AT+LOCATION=2

49.008727,8.424547

OK
AT+LOCATION=1

+CME ERROR: 50
Dns,fail,try url

failure, pelase check your network!

AT+LOCATION=2

49.008720,8.424230

OK
