created_at,entry_id,field1,field2,field3,field4,field5,field6,latitude,longitude,elevation,status
2021-12-21T17:39:51+01:00,1,29.44,28.47,1009.58,251.60,329.50,"$GNGGA,163947.000,4900.5280,N,00825.4756,E,0,3,,136.6,M,47.9,M,,*55",,,,
2021-12-21T17:40:12+01:00,2,29.24,28.51,1009.59,253.60,327.00,"$GNGGA,164008.000,4900.5222,N,00825.4509,E,1,4,3.13,128.1,M,47.9,M,,*41",,,,
2021-12-21T17:40:33+01:00,3,29.12,28.38,1009.60,252.40,332.40,"$GNGGA,164029.000,4900.5220,N,00825.4055,E,1,4,3.13,120.7,M,47.9,M,,*42",,,,
2021-12-21T17:41:18+01:00,4,29.89,27.98,1009.60,241.20,307.60,"$GNGGA,164114.096,4900.5280,N,00825.4771,E,0,0,,140.8,M,47.9,M,,*5A",,,,
2021-12-21T17:41:39+01:00,5,29.67,28.11,1009.61,245.20,320.30,"$GNGGA,164134.096,4900.5110,N,00825.4728,E,0,2,,140.4,M,47.9,M,,*50",,,,
2021-12-21T17:41:58+01:00,6,29.52,28.04,1009.61,241.90,332.70,"$GNGGA,164154.101,4900.5761,N,00825.5021,E,0,2,,139.9,M,47.9,M,,*55",,,,
2021-12-21T17:42:19+01:00,7,29.44,27.95,1009.62,245.00,344.80,"$GNGGA,164214.000,4900.5300,N,00825.4070,E,1,5,2.68,181.8,M,47.9,M,,*42",,,,
2021-12-21T17:42:39+01:00,8,29.39,27.83,1009.64,246.30,327.80,"$GNGGA,164234.000,4900.5321,N,00825.3523,E,1,5,2.68,158.7,M,47.9,M,,*4C",,,,
2021-12-21T17:42:59+01:00,9,29.36,27.82,1009.64,246.80,312.20,"$GNGGA,164255.000,4900.5219,N,00825.4330,E,1,4,3.90,98.3,M,47.9,M,,*7C",,,,
2021-12-21T17:43:19+01:00,10,29.35,27.78,1009.65,246.30,305.50,"$GNGGA,164315.000,4900.5151,N,00825.4452,E,1,4,3.91,97.1,M,47.9,M,,*79",,,,
2021-12-21T17:43:41+01:00,11,29.36,27.72,1009.65,244.10,319.10,"$GNGGA,164336.000,4900.5172,N,00825.4371,E,1,5,2.07,96.9,M,47.9,M,,*79",,,,
2021-12-21T17:44:02+01:00,12,29.38,27.66,1009.65,244.30,319.80,"$GNGGA,164357.000,4900.5199,N,00825.4361,E,1,5,2.07,97.0,M,47.9,M,,*72",,,,
2021-12-21T17:44:22+01:00,13,29.40,27.61,1009.66,242.50,303.50,"$GNGGA,164417.000,4900.5182,N,00825.4494,E,1,5,2.70,97.6,M,47.9,M,,*70",,,,
2021-12-21T17:44:42+01:00,14,29.42,27.61,1009.67,238.90,298.70,"$GNGGA,164437.000,4900.5197,N,00825.4381,E,1,6,1.81,98.2,M,47.9,M,,*70",,,,
2021-12-21T17:45:03+01:00,15,29.45,27.57,1009.68,238.20,297.00,"$GNGGA,164458.000,4900.5201,N,00825.4378,E,1,6,1.81,98.9,M,47.9,M,,*78",,,,
2021-12-21T17:45:23+01:00,16,29.48,27.53,1009.68,238.50,322.50,"$GNGGA,164518.000,4900.5190,N,00825.4592,E,1,5,2.71,98.9,M,47.9,M,,*7B",,,,
2021-12-21T17:45:42+01:00,17,29.51,27.46,1009.68,235.60,326.80,"$GNGGA,164538.000,4900.5174,N,00825.4631,E,1,4,3.94,98.8,M,47.9,M,,*73",,,,
2021-12-21T17:46:04+01:00,18,29.54,27.45,1009.68,231.50,330.60,"$GNGGA,164559.000,4900.5183,N,00825.4603,E,1,5,2.72,99.0,M,47.9,M,,*7C",,,,
2021-12-21T17:46:24+01:00,19,29.57,27.43,1009.68,232.00,316.70,"$GNGGA,164619.000,4900.5171,N,00825.4614,E,1,5,2.72,99.1,M,47.9,M,,*71",,,,
2021-12-21T17:46:44+01:00,20,29.60,27.37,1009.69,229.10,303.80,"$GNGGA,164639.000,4900.5156,N,00825.4488,E,1,5,2.72,99.2,M,47.9,M,,*72",,,,
2021-12-21T17:47:04+01:00,21,29.63,27.31,1009.69,235.10,305.10,"$GNGGA,164659.000,4900.5196,N,00825.4357,E,1,6,1.83,99.2,M,47.9,M,,*73",,,,
2021-12-21T17:47:24+01:00,22,29.65,27.32,1009.70,239.10,309.70,"$GNGGA,164719.000,4900.5242,N,00825.4283,E,1,6,1.83,99.1,M,47.9,M,,*77",,,,
2021-12-21T17:47:44+01:00,23,29.68,27.32,1009.69,239.30,313.60,"$GNGGA,164739.000,4900.5220,N,00825.4295,E,1,5,2.74,98.2,M,47.9,M,,*7C",,,,
2021-12-21T17:48:04+01:00,24,29.70,27.29,1009.69,229.00,311.90,"$GNGGA,164759.000,4900.5231,N,00825.4342,E,1,5,2.74,96.3,M,47.9,M,,*7E",,,,
2021-12-21T17:48:25+01:00,25,29.73,27.28,1009.69,226.00,303.20,"$GNGGA,164820.000,4900.5242,N,00825.4420,E,1,4,3.98,94.8,M,47.9,M,,*73",,,,
2021-12-21T17:48:45+01:00,26,29.75,27.24,1009.69,227.90,305.50,"$GNGGA,164840.000,4900.5261,N,00825.4468,E,1,5,2.75,95.2,M,47.9,M,,*70",,,,
2021-12-21T17:49:05+01:00,27,29.77,27.24,1009.69,229.20,294.00,"$GNGGA,164900.000,4900.5238,N,00825.4532,E,1,5,2.75,95.5,M,47.9,M,,*70",,,,
2021-12-21T17:49:26+01:00,28,29.79,27.24,1009.68,235.20,306.40,"$GNGGA,164921.000,4900.5214,N,00825.4450,E,1,5,2.76,95.6,M,47.9,M,,*78",,,,
2021-12-21T17:49:46+01:00,29,29.80,27.21,1009.68,241.30,308.50,"$GNGGA,164941.000,4900.5207,N,00825.4531,E,1,6,1.85,95.8,M,47.9,M,,*78",,,,
2021-12-21T17:50:06+01:00,30,29.82,27.19,1009.69,245.90,312.00,"$GNGGA,165001.000,4900.5199,N,00825.4480,E,1,6,1.85,96.8,M,47.9,M,,*78",,,,
2021-12-21T17:50:27+01:00,31,29.83,27.17,1009.69,243.00,298.80,"$GNGGA,165022.000,4900.5156,N,00825.4492,E,1,6,2.02,95.1,M,47.9,M,,*7F",,,,
2021-12-21T17:50:47+01:00,32,29.84,27.17,1009.68,241.30,303.50,"$GNGGA,165042.000,4900.5180,N,00825.4471,E,1,5,3.38,92.5,M,47.9,M,,*77",,,,
2021-12-21T17:51:07+01:00,33,29.85,27.15,1009.68,234.30,299.60,"$GNGGA,165102.000,4900.5192,N,00825.4358,E,1,6,3.39,91.6,M,47.9,M,,*7F",,,,
2021-12-21T17:51:28+01:00,34,29.86,27.13,1009.68,229.40,301.90,"$GNGGA,165123.000,4900.5196,N,00825.4402,E,1,7,1.82,93.8,M,47.9,M,,*7F",,,,
2021-12-21T17:51:48+01:00,35,29.88,27.12,1009.69,226.50,302.70,"$GNGGA,165143.000,4900.5189,N,00825.4402,E,1,7,1.82,93.1,M,47.9,M,,*7E",,,,
2021-12-21T17:52:08+01:00,36,29.89,27.10,1009.68,227.60,308.70,"$GNGGA,165203.000,4900.5185,N,00825.4454,E,1,7,1.83,93.8,M,47.9,M,,*7E",,,,
2021-12-21T17:52:29+01:00,37,29.91,27.08,1009.68,220.40,294.80,"$GNGGA,165224.000,4900.5165,N,00825.4520,E,1,7,2.05,92.6,M,47.9,M,,*75",,,,
2021-12-21T17:52:49+01:00,38,29.92,27.08,1009.68,218.20,294.60,"$GNGGA,165244.000,4900.5160,N,00825.4503,E,1,7,1.83,91.7,M,47.9,M,,*78",,,,
2021-12-21T17:53:09+01:00,39,29.94,27.03,1009.68,223.30,298.60,"$GNGGA,165304.000,4900.5173,N,00825.4449,E,1,6,3.45,93.4,M,47.9,M,,*78",,,,
2021-12-21T17:53:30+01:00,40,29.95,27.02,1009.68,228.80,314.00,"$GNGGA,165325.000,4900.5180,N,00825.4464,E,1,8,1.82,92.2,M,47.9,M,,*78",,,,
2021-12-21T17:53:50+01:00,41,29.97,27.04,1009.67,227.80,305.60,"$GNGGA,165345.000,4900.5173,N,00825.4458,E,1,8,1.83,91.9,M,47.9,M,,*74",,,,
2021-12-21T17:54:10+01:00,42,29.98,26.97,1009.67,222.50,308.70,"$GNGGA,165405.000,4900.5187,N,00825.4409,E,1,8,1.83,91.3,M,47.9,M,,*72",,,,
2021-12-21T17:54:31+01:00,43,29.99,26.93,1009.68,223.90,299.50,"$GNGGA,165426.000,4900.5157,N,00825.4254,E,1,7,2.58,92.5,M,47.9,M,,*7F",,,,
2021-12-21T17:54:51+01:00,44,29.99,26.96,1009.69,224.20,304.70,"$GNGGA,165446.000,4900.5154,N,00825.4315,E,1,8,2.09,94.1,M,47.9,M,,*77",,,,
2021-12-21T17:55:11+01:00,45,30.00,27.01,1009.69,227.20,295.80,"$GNGGA,165506.000,4900.5174,N,00825.4316,E,1,8,2.09,93.3,M,47.9,M,,*76",,,,
2021-12-21T17:55:32+01:00,46,30.01,27.01,1009.69,221.20,297.00,"$GNGGA,165527.000,4900.5174,N,00825.4304,E,1,7,3.52,95.1,M,47.9,M,,*72",,,,
2021-12-21T17:55:52+01:00,47,30.02,26.99,1009.70,222.20,298.30,"$GNGGA,165547.000,4900.5164,N,00825.4356,E,1,7,3.53,98.8,M,47.9,M,,*77",,,,
2021-12-21T17:56:13+01:00,48,30.03,26.95,1009.70,218.20,292.30,"$GNGGA,165608.000,4900.5163,N,00825.4369,E,1,7,3.54,99.2,M,47.9,M,,*78",,,,
2021-12-21T17:56:34+01:00,49,30.04,26.96,1009.70,220.00,287.30,"$GNGGA,165629.000,4900.5176,N,00825.4485,E,1,7,2.60,98.4,M,47.9,M,,*7B",,,,
2021-12-21T17:57:00+01:00,50,30.04,26.95,1009.71,219.10,276.20,"$GNGGA,165655.000,4900.5184,N,00825.4399,E,1,7,2.60,99.1,M,47.9,M,,*73",,,,
2021-12-21T17:57:20+01:00,51,30.05,26.96,1009.72,214.90,276.10,"$GNGGA,165715.000,4900.5182,N,00825.4405,E,1,7,2.60,99.6,M,47.9,M,,*75",,,,
2021-12-21T17:57:41+01:00,52,30.05,26.95,1009.73,212.80,278.70,"$GNGGA,165736.000,4900.5202,N,00825.4626,E,1,8,2.14,96.1,M,47.9,M,,*78",,,,
2021-12-21T17:58:01+01:00,53,30.06,26.94,1009.72,212.40,283.60,"$GNGGA,165756.000,4900.5181,N,00825.4614,E,1,8,2.14,94.5,M,47.9,M,,*71",,,,
2021-12-21T17:58:21+01:00,54,30.07,26.92,1009.71,224.10,286.10,"$GNGGA,165816.000,4900.5160,N,00825.4314,E,1,7,2.61,91.9,M,47.9,M,,*74",,,,
2021-12-21T17:58:42+01:00,55,30.07,26.93,1009.72,224.90,285.30,"$GNGGA,165837.000,4900.5176,N,00825.4347,E,1,7,3.62,92.5,M,47.9,M,,*7B",,,,
2021-12-21T17:59:02+01:00,56,30.07,26.93,1009.71,222.30,293.60,"$GNGGA,165857.000,4900.5185,N,00825.4350,E,1,7,3.63,93.0,M,47.9,M,,*72",,,,
2021-12-21T17:59:22+01:00,57,30.08,26.91,1009.72,216.90,284.20,"$GNGGA,165917.000,4900.5203,N,00825.4344,E,1,7,2.62,91.7,M,47.9,M,,*7A",,,,
2021-12-21T17:59:43+01:00,58,30.08,26.90,1009.72,214.10,284.50,"$GNGGA,165938.000,4900.5211,N,00825.4449,E,1,7,3.66,90.2,M,47.9,M,,*7F",,,,
2021-12-21T18:00:03+01:00,59,30.09,26.88,1009.72,212.40,277.00,"$GNGGA,165958.000,4900.5172,N,00825.4218,E,1,7,2.62,89.7,M,47.9,M,,*75",,,,
2021-12-21T18:00:23+01:00,60,30.09,26.89,1009.73,208.40,285.50,"$GNGGA,170018.000,4900.5183,N,00825.4345,E,1,6,2.77,89.4,M,47.9,M,,*7D",,,,
2021-12-21T18:00:44+01:00,61,30.11,26.88,1009.72,212.10,283.40,"$GNGGA,170039.000,4900.5169,N,00825.4264,E,1,6,2.78,90.9,M,47.9,M,,*72",,,,
2021-12-21T18:01:05+01:00,62,30.12,26.86,1009.73,217.90,293.70,"$GNGGA,170100.000,4900.5152,N,00825.4254,E,1,6,3.71,93.3,M,47.9,M,,*73",,,,
2021-12-21T18:01:25+01:00,63,30.13,26.82,1009.74,213.20,288.80,"$GNGGA,170120.000,4900.5168,N,00825.4363,E,1,6,3.72,94.7,M,47.9,M,,*7D",,,,
2021-12-21T18:01:46+01:00,64,30.13,26.85,1009.74,216.20,295.10,"$GNGGA,170141.000,4900.5191,N,00825.4521,E,1,6,3.73,97.4,M,47.9,M,,*7D",,,,
2021-12-21T18:02:06+01:00,65,30.14,26.83,1009.74,220.50,292.90,"$GNGGA,170201.000,4900.5206,N,00825.4520,E,1,7,1.94,98.0,M,47.9,M,,*77",,,,
2021-12-21T18:02:26+01:00,66,30.14,26.84,1009.74,231.40,295.10,"$GNGGA,170221.000,4900.5194,N,00825.4520,E,1,7,1.95,98.4,M,47.9,M,,*78",,,,
2021-12-21T18:02:47+01:00,67,30.15,26.83,1009.75,228.30,292.30,"$GNGGA,170242.000,4900.5200,N,00825.4500,E,1,7,1.95,98.5,M,47.9,M,,*70",,,,
2021-12-21T18:03:07+01:00,68,30.15,26.82,1009.76,222.80,284.90,"$GNGGA,170302.000,4900.5206,N,00825.4538,E,1,7,1.96,100.8,M,47.9,M,,*46",,,,
2021-12-21T18:03:27+01:00,69,30.16,26.79,1009.77,214.50,287.00,"$GNGGA,170322.000,4900.5210,N,00825.4507,E,1,6,2.03,101.0,M,47.9,M,,*48",,,,
2021-12-21T18:03:48+01:00,70,30.17,26.81,1009.77,214.90,286.20,"$GNGGA,170343.000,4900.5200,N,00825.4515,E,1,5,2.10,101.2,M,47.9,M,,*4E",,,,
2021-12-21T18:04:08+01:00,71,30.17,26.79,1009.78,216.90,293.30,"$GNGGA,170403.000,4900.5198,N,00825.4478,E,1,6,2.01,104.3,M,47.9,M,,*42",,,,
2021-12-21T18:04:28+01:00,72,30.18,26.76,1009.78,212.90,278.60,"$GNGGA,170423.000,4900.5202,N,00825.4429,E,1,7,1.98,106.9,M,47.9,M,,*4E",,,,
2021-12-21T18:04:49+01:00,73,30.19,26.76,1009.78,208.40,271.90,"$GNGGA,170444.000,4900.5197,N,00825.4393,E,1,7,1.98,106.8,M,47.9,M,,*47",,,,
2021-12-21T18:05:09+01:00,74,30.19,26.77,1009.79,209.90,271.80,"$GNGGA,170504.000,4900.5196,N,00825.4415,E,1,7,1.99,106.5,M,47.9,M,,*46",,,,
2021-12-21T18:05:29+01:00,75,30.20,26.75,1009.79,218.20,282.30,"$GNGGA,170524.000,4900.5203,N,00825.4444,E,1,7,1.99,106.8,M,47.9,M,,*42",,,,
2021-12-21T18:05:50+01:00,76,30.21,26.76,1009.79,226.70,291.60,"$GNGGA,170545.000,4900.5198,N,00825.4448,E,1,7,2.00,105.5,M,47.9,M,,*45",,,,
2021-12-21T18:06:10+01:00,77,30.21,26.78,1009.79,227.40,280.70,"$GNGGA,170605.000,4900.5190,N,00825.4518,E,1,7,2.00,105.2,M,47.9,M,,*49",,,,
2021-12-21T18:06:30+01:00,78,30.22,26.75,1009.79,222.30,292.00,"$GNGGA,170625.000,4900.5201,N,00825.4541,E,1,7,2.01,104.2,M,47.9,M,,*4C",,,,
2021-12-21T18:06:51+01:00,79,30.23,26.74,1009.79,219.30,294.80,"$GNGGA,170646.000,4900.5203,N,00825.4426,E,1,6,3.92,103.0,M,47.9,M,,*44",,,,
2021-12-21T18:07:11+01:00,80,30.23,26.72,1009.80,218.00,300.00,"$GNGGA,170706.000,4900.5207,N,00825.4529,E,1,6,3.93,102.4,M,47.9,M,,*4F",,,,
2021-12-21T18:07:31+01:00,81,30.23,26.74,1009.80,222.60,293.30,"$GNGGA,170726.000,4900.5168,N,00825.4467,E,1,6,2.86,100.3,M,47.9,M,,*4C",,,,
2021-12-21T18:07:52+01:00,82,30.24,26.72,1009.80,228.70,294.60,"$GNGGA,170747.000,4900.5183,N,00825.4484,E,1,6,2.87,97.6,M,47.9,M,,*78",,,,
2021-12-21T18:08:14+01:00,83,30.25,26.74,1009.81,227.50,302.00,"$GNGGA,170809.000,4900.5191,N,00825.4488,E,1,6,2.87,95.0,M,47.9,M,,*76",,,,
2021-12-21T18:08:34+01:00,84,30.26,26.72,1009.82,223.90,294.30,"$GNGGA,170829.000,4900.5189,N,00825.4563,E,1,6,2.88,94.6,M,47.9,M,,*71",,,,
2021-12-21T18:08:55+01:00,85,30.27,26.73,1009.82,220.40,296.40,"$GNGGA,170850.000,4900.5180,N,00825.4530,E,1,7,2.04,92.8,M,47.9,M,,*7D",,,,
2021-12-21T18:09:15+01:00,86,30.27,26.72,1009.82,220.90,290.40,"$GNGGA,170910.000,4900.5201,N,00825.4582,E,1,7,2.05,93.2,M,47.9,M,,*71",,,,
2021-12-21T18:09:35+01:00,87,30.27,26.71,1009.83,216.10,288.30,"$GNGGA,170930.000,4900.5201,N,00825.4513,E,1,7,2.05,93.8,M,47.9,M,,*71",,,,
2021-12-21T18:09:56+01:00,88,30.27,26.71,1009.84,214.30,281.80,"$GNGGA,170951.000,4900.5151,N,00825.4332,E,1,7,2.06,93.9,M,47.9,M,,*77",,,,
2021-12-21T18:10:16+01:00,89,30.27,26.71,1009.84,209.90,285.10,"$GNGGA,171011.000,4900.5171,N,00825.4614,E,1,7,2.07,93.9,M,47.9,M,,*79",,,,
2021-12-21T18:10:36+01:00,90,30.28,26.68,1009.85,215.10,290.30,"$GNGGA,171031.000,4900.5163,N,00825.4477,E,1,7,2.07,93.4,M,47.9,M,,*72",,,,
2021-12-21T18:10:57+01:00,91,30.28,26.66,1009.85,215.70,294.10,"$GNGGA,171052.000,4900.5163,N,00825.4588,E,1,7,2.08,93.4,M,47.9,M,,*79",,,,
2021-12-21T18:11:17+01:00,92,30.29,26.65,1009.86,217.50,279.50,"$GNGGA,171112.000,4900.5165,N,00825.4583,E,1,7,2.08,93.5,M,47.9,M,,*70",,,,
2021-12-21T18:11:38+01:00,93,30.30,26.63,1009.86,213.10,269.70,"$GNGGA,171133.000,4900.5147,N,00825.4540,E,1,7,2.09,93.0,M,47.9,M,,*78",,,,
2021-12-21T18:11:59+01:00,94,30.30,26.63,1009.87,208.50,268.30,"$GNGGA,171154.000,4900.5174,N,00825.4663,E,1,7,2.09,94.0,M,47.9,M,,*7C",,,,
2021-12-21T18:12:19+01:00,95,30.30,26.65,1009.88,207.20,273.10,"$GNGGA,171214.000,4900.5204,N,00825.4628,E,1,7,2.10,94.6,M,47.9,M,,*7E",,,,
2021-12-21T18:12:39+01:00,96,30.30,26.64,1009.89,206.40,270.50,"$GNGGA,171234.000,4900.5205,N,00825.4500,E,1,5,2.96,96.4,M,47.9,M,,*78",,,,
2021-12-21T18:13:00+01:00,97,30.31,26.63,1009.90,204.70,270.80,"$GNGGA,171255.000,4900.5192,N,00825.4593,E,1,5,2.96,99.1,M,47.9,M,,*72",,,,
2021-12-21T18:13:20+01:00,98,30.31,26.63,1009.91,209.10,274.00,"$GNGGA,171315.000,4900.5180,N,00825.4631,E,1,5,2.97,101.5,M,47.9,M,,*4A",,,,
2021-12-21T18:13:41+01:00,99,30.31,26.63,1009.91,213.10,272.00,"$GNGGA,171336.000,4900.5196,N,00825.4697,E,1,5,2.97,105.0,M,47.9,M,,*41",,,,
2021-12-21T18:14:02+01:00,100,30.32,26.62,1009.92,217.50,268.90,"$GNGGA,171357.000,4900.5197,N,00825.4669,E,1,5,2.98,106.7,M,47.9,M,,*4D",,,,
2021-12-21T18:14:22+01:00,101,30.32,26.62,1009.92,217.80,279.30,"$GNGGA,171417.000,4900.5197,N,00825.4678,E,1,5,2.98,106.6,M,47.9,M,,*4F",,,,
2021-12-21T18:14:42+01:00,102,30.32,26.65,1009.91,214.80,286.60,"$GNGGA,171437.000,4900.5183,N,00825.4660,E,1,6,2.96,107.1,M,47.9,M,,*4A",,,,
2021-12-21T18:15:03+01:00,103,30.32,26.62,1009.92,205.70,290.60,"$GNGGA,171458.000,4900.5173,N,00825.4676,E,1,5,2.99,112.0,M,47.9,M,,*42",,,,
2021-12-21T18:15:24+01:00,104,30.33,26.60,1009.93,205.00,277.10,"$GNGGA,171519.000,4900.5189,N,00825.4607,E,1,5,2.99,114.5,M,47.9,M,,*46",,,,
2021-12-21T18:15:44+01:00,105,30.33,26.57,1009.93,212.00,276.20,"$GNGGA,171539.000,4900.5198,N,00825.4700,E,1,6,4.30,115.2,M,47.9,M,,*42",,,,
2021-12-21T18:16:05+01:00,106,30.33,26.60,1009.93,214.10,276.40,"$GNGGA,171600.000,4900.5232,N,00825.5023,E,1,6,2.99,114.3,M,47.9,M,,*4A",,,,
2021-12-21T18:16:25+01:00,107,30.34,26.60,1009.95,212.40,278.70,"$GNGGA,171620.000,4900.5211,N,00825.5025,E,1,6,2.99,113.4,M,47.9,M,,*4F",,,,
2021-12-21T18:16:45+01:00,108,30.34,26.57,1009.95,201.70,274.40,"$GNGGA,171640.000,4900.5187,N,00825.4866,E,1,7,2.18,110.3,M,47.9,M,,*47",,,,
2021-12-21T18:17:06+01:00,109,30.34,26.57,1009.95,204.20,261.80,"$GNGGA,171701.000,4900.5181,N,00825.4697,E,1,6,2.65,109.4,M,47.9,M,,*41",,,,
2021-12-21T18:17:27+01:00,110,30.34,26.60,1009.96,204.50,263.20,"$GNGGA,171722.000,4900.5148,N,00825.4542,E,1,5,7.57,108.9,M,47.9,M,,*45",,,,
2021-12-21T18:17:47+01:00,111,30.34,26.59,1009.96,209.10,259.30,"$GNGGA,171742.000,4900.5139,N,00825.4562,E,1,6,3.01,108.5,M,47.9,M,,*4F",,,,
2021-12-21T18:18:08+01:00,112,30.34,26.60,1009.97,207.90,264.40,"$GNGGA,171803.000,4900.5186,N,00825.4748,E,1,7,2.21,109.1,M,47.9,M,,*4C",,,,
2021-12-21T18:18:28+01:00,113,30.33,26.62,1009.97,207.20,257.90,"$GNGGA,171823.000,4900.5185,N,00825.4844,E,1,6,4.42,110.5,M,47.9,M,,*40",,,,
2021-12-21T18:18:48+01:00,114,30.33,26.61,1009.97,204.10,255.60,"$GNGGA,171843.000,4900.5153,N,00825.4665,E,1,5,3.22,109.7,M,47.9,M,,*48",,,,
2021-12-21T18:19:09+01:00,115,30.33,26.60,1009.98,201.30,254.60,"$GNGGA,171904.000,4900.5125,N,00825.4486,E,1,6,2.30,109.4,M,47.9,M,,*46",,,,
2021-12-21T18:19:29+01:00,116,30.33,26.61,1009.98,206.00,266.10,"$GNGGA,171924.000,4900.5155,N,00825.4419,E,1,6,2.30,109.1,M,47.9,M,,*40",,,,
2021-12-21T18:19:49+01:00,117,30.33,26.60,1009.99,208.20,272.50,"$GNGGA,171944.000,4900.5199,N,00825.4571,E,1,5,3.42,108.1,M,47.9,M,,*4F",,,,
2021-12-21T18:20:10+01:00,118,30.33,26.60,1010.00,212.60,279.10,"$GNGGA,172005.000,4900.5217,N,00825.4468,E,1,5,3.44,107.7,M,47.9,M,,*43",,,,
2021-12-21T18:20:30+01:00,119,30.33,26.60,1010.01,208.30,267.30,"$GNGGA,172025.000,4900.5185,N,00825.4326,E,1,6,2.33,108.3,M,47.9,M,,*4D",,,,
2021-12-21T18:20:51+01:00,120,30.34,26.58,1010.01,207.60,269.50,"$GNGGA,172046.000,4900.5187,N,00825.4479,E,1,5,3.23,109.0,M,47.9,M,,*46",,,,
2021-12-21T18:21:12+01:00,121,30.34,26.60,1010.02,203.40,265.30,"$GNGGA,172107.000,4900.5200,N,00825.4655,E,1,5,5.32,109.1,M,47.9,M,,*45",,,,
2021-12-21T18:21:32+01:00,122,30.33,26.61,1010.02,202.90,266.30,"$GNGGA,172127.000,4900.5189,N,00825.4624,E,1,6,2.35,109.4,M,47.9,M,,*45",,,,
2021-12-21T18:21:52+01:00,123,30.34,26.62,1010.03,201.30,253.00,"$GNGGA,172147.000,4900.5185,N,00825.4551,E,1,6,2.35,109.7,M,47.9,M,,*4D",,,,
2021-12-21T18:22:13+01:00,124,30.34,26.65,1010.04,203.70,259.80,"$GNGGA,172208.000,4900.5167,N,00825.4482,E,1,6,2.36,110.6,M,47.9,M,,*4C",,,,
2021-12-21T18:22:33+01:00,125,30.34,26.65,1010.04,200.40,256.90,"$GNGGA,172228.000,4900.5188,N,00825.4567,E,1,6,2.37,114.1,M,47.9,M,,*47",,,,
2021-12-21T18:22:53+01:00,126,30.37,26.64,1010.05,201.20,267.80,"$GNGGA,172248.000,4900.5184,N,00825.4509,E,1,6,2.38,117.4,M,47.9,M,,*4C",,,,
2021-12-21T18:23:14+01:00,127,30.40,26.53,1010.06,204.50,268.70,"$GNGGA,172309.000,4900.5184,N,00825.4503,E,1,5,3.26,119.4,M,47.9,M,,*41",,,,
2021-12-21T18:23:34+01:00,128,30.43,26.48,1010.06,207.30,268.10,"$GNGGA,172329.000,4900.5188,N,00825.4565,E,1,5,3.26,121.2,M,47.9,M,,*42",,,,
2021-12-21T18:23:54+01:00,129,30.44,26.52,1010.07,208.60,269.60,"$GNGGA,172349.000,4900.5204,N,00825.4576,E,1,6,2.40,122.6,M,47.9,M,,*44",,,,
2021-12-21T18:24:15+01:00,130,30.45,26.57,1010.07,206.70,267.40,"$GNGGA,172410.000,4900.5184,N,00825.4389,E,1,5,3.27,126.2,M,47.9,M,,*41",,,,
2021-12-21T18:24:35+01:00,131,30.45,26.56,1010.07,204.90,271.30,"$GNGGA,172430.000,4900.5217,N,00825.4376,E,1,4,3.36,126.5,M,47.9,M,,*4C",,,,
2021-12-21T18:24:55+01:00,132,30.47,26.57,1010.06,204.30,261.60,"$GNGGA,172450.000,4900.5253,N,00825.4500,E,1,5,2.46,126.8,M,47.9,M,,*47",,,,
2021-12-21T18:25:16+01:00,133,30.52,26.49,1010.06,199.40,255.70,"$GNGGA,172511.000,4900.5284,N,00825.4558,E,1,5,2.47,125.0,M,47.9,M,,*4E",,,,
2021-12-21T18:25:36+01:00,134,30.58,26.37,1010.07,204.90,257.70,"$GNGGA,172531.000,4900.5271,N,00825.4471,E,1,6,2.44,123.0,M,47.9,M,,*4A",,,,
2021-12-21T18:25:56+01:00,135,30.65,26.27,1010.07,205.30,265.60,"$GNGGA,172551.000,4900.5253,N,00825.4502,E,1,6,2.45,122.9,M,47.9,M,,*40",,,,
2021-12-21T18:26:17+01:00,136,30.72,26.19,1010.06,205.20,273.50,"$GNGGA,172612.000,4900.5254,N,00825.4589,E,1,6,2.46,123.4,M,47.9,M,,*4F",,,,
2021-12-21T18:26:37+01:00,137,30.77,26.12,1010.06,202.70,272.90,"$GNGGA,172632.000,4900.5268,N,00825.4577,E,1,6,2.47,123.9,M,47.9,M,,*4F",,,,
2021-12-21T18:26:57+01:00,138,30.83,26.04,1010.06,206.20,264.60,"$GNGGA,172652.000,4900.5242,N,00825.4550,E,1,6,2.48,120.3,M,47.9,M,,*42",,,,
2021-12-21T18:27:18+01:00,139,30.88,26.02,1010.07,201.00,260.30,"$GNGGA,172713.000,4900.5249,N,00825.4417,E,1,6,2.48,119.9,M,47.9,M,,*4F",,,,
2021-12-21T18:27:38+01:00,140,30.92,26.01,1010.07,197.10,254.20,"$GNGGA,172733.000,4900.5234,N,00825.4467,E,1,6,2.49,117.8,M,47.9,M,,*4E",,,,
2021-12-21T18:27:59+01:00,141,30.97,25.96,1010.08,191.90,261.10,"$GNGGA,172754.000,4900.5225,N,00825.4485,E,1,6,2.50,116.0,M,47.9,M,,*42",,,,
2021-12-21T18:28:20+01:00,142,31.01,25.94,1010.08,196.80,264.20,"$GNGGA,172815.000,4900.5221,N,00825.4518,E,1,6,2.51,115.4,M,47.9,M,,*4F",,,,
2021-12-21T18:28:40+01:00,143,31.04,25.95,1010.08,203.20,264.80,"$GNGGA,172835.000,4900.5218,N,00825.4526,E,1,6,2.52,115.3,M,47.9,M,,*4E",,,,
2021-12-21T18:29:01+01:00,144,31.07,25.90,1010.08,202.80,252.30,"$GNGGA,172856.000,4900.5211,N,00825.4586,E,1,5,3.32,116.2,M,47.9,M,,*4E",,,,
2021-12-21T18:29:22+01:00,145,31.10,25.88,1010.08,200.60,252.60,"$GNGGA,172917.000,4900.5213,N,00825.4645,E,1,5,3.33,118.0,M,47.9,M,,*49",,,,
2021-12-21T18:29:42+01:00,146,31.12,25.88,1010.09,199.50,268.20,"$GNGGA,172937.000,4900.5216,N,00825.4640,E,1,6,2.55,119.4,M,47.9,M,,*4C",,,,
2021-12-21T18:30:03+01:00,147,31.14,25.86,1010.10,202.20,277.50,"$GNGGA,172958.000,4900.5226,N,00825.4618,E,1,6,2.56,118.3,M,47.9,M,,*4E",,,,
2021-12-21T18:30:24+01:00,148,31.15,25.85,1010.10,198.40,266.20,"$GNGGA,173019.000,4900.5222,N,00825.4591,E,1,6,2.57,119.0,M,47.9,M,,*46",,,,
2021-12-21T18:30:44+01:00,149,31.16,25.83,1010.11,201.40,266.90,"$GNGGA,173039.000,4900.5256,N,00825.4536,E,1,6,2.58,118.8,M,47.9,M,,*4C",,,,
2021-12-21T18:31:04+01:00,150,31.18,25.81,1010.11,199.10,266.60,"$GNGGA,173059.000,4900.5235,N,00825.4435,E,1,6,2.59,118.7,M,47.9,M,,*43",,,,
2021-12-21T18:31:25+01:00,151,31.19,25.81,1010.12,200.40,275.40,"$GNGGA,173120.000,4900.5217,N,00825.4569,E,1,6,2.60,116.4,M,47.9,M,,*43",,,,
2021-12-21T18:31:45+01:00,152,31.20,25.81,1010.12,199.70,266.00,"$GNGGA,173140.000,4900.5242,N,00825.4644,E,1,6,2.60,109.8,M,47.9,M,,*4B",,,,
2021-12-21T18:32:05+01:00,153,31.21,25.79,1010.13,202.90,260.00,"$GNGGA,173200.000,4900.5249,N,00825.4565,E,1,6,2.61,107.0,M,47.9,M,,*40",,,,
2021-12-21T18:32:26+01:00,154,31.22,25.80,1010.13,202.80,257.80,"$GNGGA,173221.000,4900.5246,N,00825.4529,E,1,6,2.63,108.7,M,47.9,M,,*4E",,,,
2021-12-21T18:32:47+01:00,155,31.22,25.82,1010.13,197.80,259.20,"$GNGGA,173242.000,4900.5307,N,00825.4342,E,1,6,2.48,110.6,M,47.9,M,,*45",,,,
2021-12-21T18:33:07+01:00,156,31.23,25.83,1010.14,195.60,260.40,"$GNGGA,173302.000,4900.5330,N,00825.4295,E,1,6,2.49,110.6,M,47.9,M,,*4E",,,,
2021-12-21T18:33:28+01:00,157,31.23,25.81,1010.14,195.50,259.70,"$GNGGA,173323.000,4900.5261,N,00825.4537,E,1,7,2.44,106.9,M,47.9,M,,*43",,,,
2021-12-21T18:33:49+01:00,158,31.23,25.80,1010.14,196.40,255.50,"$GNGGA,173344.000,4900.5237,N,00825.4578,E,1,7,2.45,109.0,M,47.9,M,,*4D",,,,
2021-12-21T18:34:09+01:00,159,31.23,25.83,1010.15,190.70,247.70,"$GNGGA,173404.000,4900.5257,N,00825.4545,E,1,7,2.46,112.4,M,47.9,M,,*4B",,,,
2021-12-21T18:34:30+01:00,160,31.23,25.82,1010.15,194.90,256.50,"$GNGGA,173425.000,4900.5286,N,00825.4410,E,1,7,2.46,113.3,M,47.9,M,,*43",,,,
2021-12-21T18:34:51+01:00,161,31.23,25.82,1010.16,197.90,265.10,"$GNGGA,173446.000,4900.5266,N,00825.4353,E,1,7,2.48,118.7,M,47.9,M,,*49",,,,
2021-12-21T18:35:11+01:00,162,31.23,25.81,1010.15,201.70,267.60,"$GNGGA,173506.000,4900.5238,N,00825.4407,E,1,7,2.48,119.5,M,47.9,M,,*42",,,,
2021-12-21T18:35:32+01:00,163,31.23,25.79,1010.16,201.10,265.50,"$GNGGA,173527.000,4900.5229,N,00825.4451,E,1,7,2.49,121.2,M,47.9,M,,*4F",,,,
2021-12-21T18:35:52+01:00,164,31.22,25.79,1010.16,199.60,257.80,"$GNGGA,173547.000,4900.5196,N,00825.4556,E,1,7,2.50,120.3,M,47.9,M,,*40",,,,
2021-12-21T18:36:12+01:00,165,31.22,25.78,1010.16,191.50,250.80,"$GNGGA,173607.000,4900.5196,N,00825.4724,E,1,7,2.51,122.3,M,47.9,M,,*43",,,,
2021-12-21T18:36:33+01:00,166,31.22,25.79,1010.15,191.90,248.40,"$GNGGA,173628.000,4900.5222,N,00825.4498,E,1,6,3.13,132.6,M,47.9,M,,*44",,,,
2021-12-21T18:36:53+01:00,167,31.22,25.83,1010.15,188.90,245.80,"$GNGGA,173648.000,4900.5206,N,00825.4526,E,1,6,3.13,134.4,M,47.9,M,,*44",,,,
2021-12-21T18:37:13+01:00,168,31.22,25.84,1010.14,194.80,249.90,"$GNGGA,173708.000,4900.5210,N,00825.4433,E,1,7,2.53,138.7,M,47.9,M,,*48",,,,
2021-12-21T18:37:34+01:00,169,31.21,25.83,1010.14,195.40,244.70,"$GNGGA,173729.000,4900.5187,N,00825.4618,E,1,7,2.54,140.6,M,47.9,M,,*44",,,,
2021-12-21T18:37:54+01:00,170,31.20,25.84,1010.13,192.50,235.70,"$GNGGA,173749.000,4900.5199,N,00825.4655,E,1,7,2.55,142.2,M,47.9,M,,*43",,,,
2021-12-21T18:38:14+01:00,171,31.20,25.84,1010.13,191.00,243.90,"$GNGGA,173809.000,4900.5207,N,00825.4542,E,1,7,2.56,140.2,M,47.9,M,,*48",,,,
2021-12-21T18:38:35+01:00,172,31.19,25.83,1010.13,193.50,253.60,"$GNGGA,173830.000,4900.5231,N,00825.4295,E,1,7,2.57,140.1,M,47.9,M,,*48",,,,
2021-12-21T18:38:55+01:00,173,31.19,25.78,1010.12,195.70,262.10,"$GNGGA,173850.000,4900.5223,N,00825.4305,E,1,7,2.58,138.5,M,47.9,M,,*41",,,,
2021-12-21T18:39:16+01:00,174,31.19,25.77,1010.11,196.30,262.50,"$GNGGA,173911.000,4900.5214,N,00825.4426,E,1,7,2.59,135.4,M,47.9,M,,*4A",,,,
2021-12-21T18:39:37+01:00,175,31.18,25.75,1010.11,189.00,263.60,"$GNGGA,173932.000,4900.5213,N,00825.4436,E,1,7,2.60,134.2,M,47.9,M,,*40",,,,
2021-12-21T18:39:57+01:00,176,31.17,25.77,1010.11,188.60,261.90,"$GNGGA,173952.000,4900.5202,N,00825.4545,E,1,7,2.61,132.0,M,47.9,M,,*46",,,,
2021-12-21T18:40:18+01:00,177,31.17,25.70,1010.12,184.10,244.10,"$GNGGA,174013.000,4900.5211,N,00825.4562,E,1,7,2.62,134.2,M,47.9,M,,*4D",,,,
2021-12-21T18:40:39+01:00,178,31.17,25.64,1010.12,186.70,242.30,"$GNGGA,174034.000,4900.5221,N,00825.4461,E,1,7,2.63,134.5,M,47.9,M,,*4F",,,,
2021-12-21T18:40:59+01:00,179,31.16,25.62,1010.12,185.30,244.20,"$GNGGA,174054.000,4900.5221,N,00825.4377,E,1,7,2.64,131.2,M,47.9,M,,*4C",,,,
2021-12-21T18:41:20+01:00,180,31.16,25.62,1010.12,183.70,235.50,"$GNGGA,174115.000,4900.5221,N,00825.4454,E,1,7,2.65,128.1,M,47.9,M,,*44",,,,
2021-12-21T18:41:41+01:00,181,31.15,25.57,1010.12,176.10,229.40,"$GNGGA,174136.000,4900.5227,N,00825.4471,E,1,7,2.66,126.3,M,47.9,M,,*4B",,,,
2021-12-21T18:42:01+01:00,182,31.15,25.56,1010.13,178.00,232.90,"$GNGGA,174156.000,4900.5213,N,00825.4548,E,1,7,2.67,124.7,M,47.9,M,,*46",,,,
2021-12-21T18:42:21+01:00,183,31.14,25.53,1010.13,183.00,240.40,"$GNGGA,174216.000,4900.5214,N,00825.4592,E,1,7,2.68,125.5,M,47.9,M,,*4D",,,,
2021-12-21T18:42:42+01:00,184,31.14,25.46,1010.13,186.50,247.00,"$GNGGA,174237.000,4900.5213,N,00825.4585,E,1,7,2.69,123.3,M,47.9,M,,*4E",,,,
2021-12-21T18:43:02+01:00,185,31.13,25.48,1010.14,187.20,232.40,"$GNGGA,174257.000,4900.5205,N,00825.4567,E,1,7,2.70,116.9,M,47.9,M,,*47",,,,
2021-12-21T18:43:22+01:00,186,31.13,25.45,1010.14,181.00,224.90,"$GNGGA,174317.000,4900.5211,N,00825.4506,E,1,7,2.71,112.8,M,47.9,M,,*44",,,,
2021-12-21T18:43:43+01:00,187,31.12,25.47,1010.13,179.80,219.30,"$GNGGA,174338.000,4900.5204,N,00825.4474,E,1,6,3.20,111.8,M,47.9,M,,*4E",,,,
2021-12-21T18:44:03+01:00,188,31.11,25.47,1010.13,177.50,220.30,"$GNGGA,174358.000,4900.5209,N,00825.4420,E,1,6,3.21,112.5,M,47.9,M,,*4B",,,,
2021-12-21T18:44:23+01:00,189,31.11,25.45,1010.14,175.70,230.70,"$GNGGA,174418.000,4900.5221,N,00825.4424,E,1,6,3.21,113.4,M,47.9,M,,*46",,,,
2021-12-21T18:44:44+01:00,190,31.10,25.45,1010.14,169.00,223.60,"$GNGGA,174439.000,4900.5235,N,00825.4427,E,1,6,3.22,113.3,M,47.9,M,,*47",,,,
2021-12-21T18:45:04+01:00,191,31.09,25.46,1010.14,169.70,227.10,"$GNGGA,174459.000,4900.5241,N,00825.4478,E,1,7,2.76,113.1,M,47.9,M,,*4B",,,,
2021-12-21T18:45:24+01:00,192,31.09,25.44,1010.14,170.40,229.00,"$GNGGA,174519.000,4900.5251,N,00825.4337,E,1,7,2.77,120.2,M,47.9,M,,*41",,,,
2021-12-21T18:45:45+01:00,193,31.08,25.43,1010.14,173.20,228.40,"$GNGGA,174540.000,4900.5208,N,00825.4501,E,1,7,2.78,123.1,M,47.9,M,,*4D",,,,
2021-12-21T18:46:05+01:00,194,31.07,25.44,1010.14,167.30,224.80,"$GNGGA,174600.000,4900.5203,N,00825.4561,E,1,7,2.79,123.9,M,47.9,M,,*4E",,,,
2021-12-21T18:46:25+01:00,195,31.07,25.41,1010.13,166.70,220.60,"$GNGGA,174620.000,4900.5219,N,00825.4416,E,1,5,3.69,129.8,M,47.9,M,,*4F",,,,
2021-12-21T18:46:46+01:00,196,31.06,25.37,1010.13,166.80,230.70,"$GNGGA,174641.000,4900.5194,N,00825.4511,E,1,6,3.02,128.0,M,47.9,M,,*4F",,,,
2021-12-21T18:47:06+01:00,197,31.05,25.35,1010.13,170.80,235.00,"$GNGGA,174701.000,4900.5183,N,00825.4466,E,1,6,3.04,128.4,M,47.9,M,,*4F",,,,
2021-12-21T18:47:26+01:00,198,31.03,25.42,1010.13,168.90,225.40,"$GNGGA,174721.000,4900.5187,N,00825.4468,E,1,7,2.83,129.7,M,47.9,M,,*4A",,,,
2021-12-21T18:47:47+01:00,199,31.01,25.44,1010.14,164.50,212.30,"$GNGGA,174742.000,4900.5199,N,00825.4465,E,1,7,2.84,132.4,M,47.9,M,,*43",,,,
2021-12-21T18:48:07+01:00,200,30.98,25.41,1010.13,153.80,190.90,"$GNGGA,174802.000,4900.5221,N,00825.4314,E,1,7,2.85,131.3,M,47.9,M,,*4C",,,,
2021-12-21T18:48:28+01:00,201,30.95,25.32,1010.13,145.50,189.60,"$GNGGA,174823.000,4900.5232,N,00825.4334,E,1,7,2.86,132.1,M,47.9,M,,*4D",,,,
2021-12-21T18:48:48+01:00,202,30.92,25.25,1010.13,136.60,178.70,"$GNGGA,174843.000,4900.5242,N,00825.4420,E,1,7,2.88,130.8,M,47.9,M,,*4B",,,,
2021-12-21T18:49:08+01:00,203,30.89,25.20,1010.14,137.60,183.30,"$GNGGA,174903.000,4900.5240,N,00825.4367,E,1,6,3.27,132.8,M,47.9,M,,*4F",,,,
2021-12-21T18:49:29+01:00,204,30.86,25.17,1010.14,140.30,182.00,"$GNGGA,174924.000,4900.5213,N,00825.4420,E,1,7,2.90,130.2,M,47.9,M,,*4C",,,,
2021-12-21T18:49:50+01:00,205,30.84,25.23,1010.15,144.30,185.50,"$GNGGA,174945.000,4900.5238,N,00825.4497,E,1,7,2.91,123.1,M,47.9,M,,*4E",,,,
2021-12-21T18:50:10+01:00,206,30.81,25.23,1010.16,148.00,187.30,"$GNGGA,175005.000,4900.5228,N,00825.4483,E,1,7,2.92,122.0,M,47.9,M,,*45",,,,
2021-12-21T18:50:31+01:00,207,30.79,25.28,1010.16,147.70,185.40,"$GNGGA,175026.000,4900.5213,N,00825.4415,E,1,6,3.29,122.7,M,47.9,M,,*44",,,,
2021-12-21T18:50:51+01:00,208,30.76,25.33,1010.17,151.00,189.60,"$GNGGA,175046.000,4900.5219,N,00825.4508,E,1,6,3.29,125.5,M,47.9,M,,*40",,,,
2021-12-21T18:51:11+01:00,209,30.74,25.34,1010.18,149.00,189.50,"$GNGGA,175106.000,4900.5216,N,00825.4332,E,1,6,3.29,126.9,M,47.9,M,,*4A",,,,
2021-12-21T18:51:32+01:00,210,30.72,25.35,1010.20,148.00,184.50,"$GNGGA,175127.000,4900.5219,N,00825.4405,E,1,7,2.96,129.7,M,47.9,M,,*40",,,,
2021-12-21T18:51:53+01:00,211,30.70,25.39,1010.20,150.80,194.00,"$GNGGA,175148.000,4900.5216,N,00825.4580,E,1,7,2.97,128.7,M,47.9,M,,*4A",,,,
2021-12-21T18:52:13+01:00,212,30.69,25.41,1010.20,149.90,201.50,"$GNGGA,175208.000,4900.5220,N,00825.4587,E,1,6,3.31,130.2,M,47.9,M,,*4F",,,,
2021-12-21T18:52:34+01:00,213,30.67,25.42,1010.20,153.50,217.30,"$GNGGA,175229.000,4900.5207,N,00825.4524,E,1,6,3.31,132.5,M,47.9,M,,*45",,,,
2021-12-21T18:52:54+01:00,214,30.65,25.46,1010.20,151.70,218.40,"$GNGGA,175249.000,4900.5216,N,00825.4497,E,1,6,3.32,135.1,M,47.9,M,,*4A",,,,
2021-12-21T18:53:15+01:00,215,30.64,25.49,1010.20,148.80,214.20,"$GNGGA,175310.000,4900.5209,N,00825.4480,E,1,6,3.32,137.9,M,47.9,M,,*45",,,,
2021-12-21T18:53:36+01:00,216,30.63,25.47,1010.20,146.30,205.80,"$GNGGA,175331.000,4900.5219,N,00825.4482,E,1,7,5.13,137.9,M,47.9,M,,*41",,,,
2021-12-21T18:53:56+01:00,217,30.62,25.45,1010.20,142.50,201.40,"$GNGGA,175351.000,4900.5214,N,00825.4316,E,1,7,3.04,135.2,M,47.9,M,,*49",,,,
2021-12-21T18:54:16+01:00,218,30.61,25.46,1010.19,144.30,200.90,"$GNGGA,175411.000,4900.5195,N,00825.4172,E,1,7,3.05,134.8,M,47.9,M,,*4A",,,,
2021-12-21T18:54:38+01:00,219,30.61,25.45,1010.18,147.10,200.60,"$GNGGA,175433.000,4900.5209,N,00825.4367,E,1,7,3.07,128.3,M,47.9,M,,*4E",,,,
2021-12-21T18:54:58+01:00,220,30.61,25.45,1010.17,149.70,190.80,"$GNGGA,175453.000,4900.5210,N,00825.4338,E,1,7,3.07,125.6,M,47.9,M,,*42",,,,
2021-12-21T18:55:18+01:00,221,30.61,25.45,1010.18,150.10,196.00,"$GNGGA,175513.000,4900.5220,N,00825.4306,E,1,7,3.09,125.8,M,47.9,M,,*49",,,,
2021-12-21T18:55:39+01:00,222,30.61,25.44,1010.18,149.90,206.30,"$GNGGA,175534.000,4900.5246,N,00825.4271,E,1,7,3.10,126.3,M,47.9,M,,*4D",,,,
2021-12-21T18:55:59+01:00,223,30.61,25.44,1010.17,146.30,205.50,"$GNGGA,175554.000,4900.5240,N,00825.4223,E,1,7,3.11,125.0,M,47.9,M,,*4B",,,,
2021-12-21T18:56:20+01:00,224,30.60,25.42,1010.17,143.80,197.90,"$GNGGA,175615.000,4900.5254,N,00825.4245,E,1,7,3.12,124.4,M,47.9,M,,*4E",,,,
2021-12-21T18:56:41+01:00,225,30.60,25.43,1010.16,140.00,185.50,"$GNGGA,175636.000,4900.5246,N,00825.4219,E,1,7,3.13,127.0,M,47.9,M,,*43",,,,
2021-12-21T18:57:01+01:00,226,30.59,25.43,1010.16,142.20,183.20,"$GNGGA,175656.000,4900.5234,N,00825.4383,E,1,7,3.14,124.5,M,47.9,M,,*43",,,,
2021-12-21T18:57:21+01:00,227,30.59,25.42,1010.17,139.70,177.40,"$GNGGA,175716.000,4900.5235,N,00825.4362,E,1,7,3.15,122.9,M,47.9,M,,*43",,,,
2021-12-21T18:57:42+01:00,228,30.59,25.40,1010.16,136.80,179.60,"$GNGGA,175737.000,4900.5239,N,00825.4382,E,1,6,3.60,124.8,M,47.9,M,,*46",,,,
2021-12-21T18:58:02+01:00,229,30.58,25.41,1010.16,140.10,199.30,"$GNGGA,175757.000,4900.5232,N,00825.4212,E,1,6,3.62,126.4,M,47.9,M,,*4F",,,,
2021-12-21T18:58:25+01:00,230,30.58,25.40,1010.15,142.70,206.90,"$GNGGA,175817.000,4900.5233,N,00825.4242,E,1,6,3.64,124.8,M,47.9,M,,*48",,,,
2021-12-21T18:58:45+01:00,231,30.58,25.36,1010.15,145.60,204.50,"$GNGGA,175840.000,4900.5216,N,00825.4179,E,1,6,3.66,123.1,M,47.9,M,,*4A",,,,
2021-12-21T18:59:05+01:00,232,30.58,25.34,1010.15,142.50,194.10,"$GNGGA,175900.000,4900.5219,N,00825.4162,E,1,7,3.21,123.2,M,47.9,M,,*4B",,,,
2021-12-21T18:59:26+01:00,233,30.58,25.36,1010.14,142.60,188.40,"$GNGGA,175921.000,4900.5223,N,00825.4255,E,1,7,3.22,126.2,M,47.9,M,,*40",,,,
2021-12-21T18:59:47+01:00,234,30.58,25.36,1010.14,141.40,186.20,"$GNGGA,175942.000,4900.5260,N,00825.4405,E,1,7,3.23,130.1,M,47.9,M,,*44",,,,
2021-12-21T19:00:07+01:00,235,30.57,25.35,1010.14,144.00,182.60,"$GNGGA,180002.000,4900.5244,N,00825.4533,E,1,6,5.13,130.4,M,47.9,M,,*40",,,,
2021-12-21T19:00:27+01:00,236,30.56,25.35,1010.14,141.80,182.00,"$GNGGA,180022.000,4900.5251,N,00825.4515,E,1,6,5.16,129.3,M,47.9,M,,*48",,,,
2021-12-21T19:00:48+01:00,237,30.56,25.37,1010.15,143.10,190.60,"$GNGGA,180043.000,4900.5229,N,00825.4455,E,1,6,5.20,128.4,M,47.9,M,,*46",,,,
2021-12-21T19:01:08+01:00,238,30.55,25.37,1010.14,142.00,188.50,"$GNGGA,180103.000,4900.5060,N,00825.3946,E,1,7,3.27,126.0,M,47.9,M,,*4E",,,,
2021-12-21T19:01:28+01:00,239,30.55,25.37,1010.15,142.30,196.50,"$GNGGA,180123.000,4900.5099,N,00825.4076,E,1,6,5.27,121.8,M,47.9,M,,*4F",,,,
2021-12-21T19:01:49+01:00,240,30.55,25.36,1010.15,139.00,184.30,"$GNGGA,180144.000,4900.5183,N,00825.4375,E,1,7,3.68,119.4,M,47.9,M,,*4F",,,,
2021-12-21T19:02:09+01:00,241,30.54,25.36,1010.14,138.90,185.30,"$GNGGA,180204.000,4900.5226,N,00825.4659,E,1,7,3.31,118.5,M,47.9,M,,*43",,,,
2021-12-21T19:02:29+01:00,242,30.54,25.34,1010.14,139.90,184.90,"$GNGGA,180224.000,4900.5194,N,00825.4762,E,1,7,3.31,110.9,M,47.9,M,,*46",,,,
2021-12-21T19:02:50+01:00,243,30.54,25.35,1010.14,139.80,190.10,"$GNGGA,180245.000,4900.5226,N,00825.4542,E,1,6,5.43,110.1,M,47.9,M,,*41",,,,
2021-12-21T19:03:10+01:00,244,30.54,25.32,1010.13,137.40,183.80,"$GNGGA,180305.000,4900.5106,N,00825.4146,E,1,6,5.47,109.6,M,47.9,M,,*4E",,,,
2021-12-21T19:03:30+01:00,245,30.54,25.27,1010.13,138.10,182.10,"$GNGGA,180325.000,4900.5102,N,00825.4077,E,1,6,5.51,108.1,M,47.9,M,,*4A",,,,
2021-12-21T19:03:51+01:00,246,30.53,25.24,1010.13,137.40,188.70,"$GNGGA,180346.000,4900.5203,N,00825.4695,E,1,7,11.97,103.9,M,47.9,M,,*7A",,,,
2021-12-21T19:04:11+01:00,247,30.53,25.27,1010.13,135.60,180.00,"$GNGGA,180406.000,4900.5190,N,00825.4857,E,1,7,4.63,103.3,M,47.9,M,,*45",,,,
2021-12-21T19:04:31+01:00,248,30.53,25.25,1010.13,133.90,172.20,"$GNGGA,180426.000,4900.5070,N,00825.4613,E,1,8,3.17,96.2,M,47.9,M,,*71",,,,
2021-12-21T19:04:52+01:00,249,30.52,25.21,1010.13,135.10,165.90,"$GNGGA,180447.000,4900.5132,N,00825.4616,E,1,8,3.18,100.3,M,47.9,M,,*44",,,,
2021-12-21T19:05:12+01:00,250,30.52,25.21,1010.14,136.80,177.10,"$GNGGA,180507.000,4900.5242,N,00825.4610,E,1,8,3.19,101.9,M,47.9,M,,*49",,,,
2021-12-21T19:05:32+01:00,251,30.52,25.21,1010.13,135.00,175.50,"$GNGGA,180527.000,4900.5267,N,00825.4661,E,1,8,5.53,100.4,M,47.9,M,,*4E",,,,
2021-12-21T19:05:53+01:00,252,30.52,25.20,1010.13,133.90,174.40,"$GNGGA,180548.000,4900.5270,N,00825.4548,E,2,8,5.52,96.9,M,47.9,M,,*78",,,,
2021-12-21T19:06:13+01:00,253,30.52,25.17,1010.13,131.50,168.50,"$GNGGA,180608.000,4900.5272,N,00825.4590,E,2,8,3.21,98.7,M,47.9,M,,*7A",,,,
2021-12-21T19:06:34+01:00,254,30.52,25.16,1010.12,133.20,174.70,"$GNGGA,180629.000,4900.5239,N,00825.4461,E,2,8,3.21,98.4,M,47.9,M,,*7A",,,,
2021-12-21T19:06:54+01:00,255,30.52,25.16,1010.12,129.70,166.90,"$GNGGA,180649.000,4900.5234,N,00825.4628,E,2,8,3.22,97.8,M,47.9,M,,*7E",,,,
2021-12-21T19:07:15+01:00,256,30.52,25.18,1010.13,130.00,170.00,"$GNGGA,180710.000,4900.5212,N,00825.4743,E,2,8,3.23,96.7,M,47.9,M,,*74",,,,
2021-12-21T19:07:36+01:00,257,30.52,25.15,1010.13,121.40,159.70,"$GNGGA,180731.000,4900.5204,N,00825.4735,E,2,8,3.24,96.1,M,47.9,M,,*70",,,,
2021-12-21T19:07:56+01:00,258,30.51,25.11,1010.13,120.30,156.20,"$GNGGA,180751.000,4900.5247,N,00825.4748,E,2,8,5.48,98.5,M,47.9,M,,*7D",,,,
2021-12-21T19:08:16+01:00,259,30.51,25.11,1010.13,120.70,164.20,"$GNGGA,180811.000,4900.5239,N,00825.4637,E,2,7,3.81,101.4,M,47.9,M,,*4A",,,,
2021-12-21T19:08:37+01:00,260,30.51,25.13,1010.13,124.50,171.20,"$GNGGA,180832.000,4900.5299,N,00825.4911,E,2,7,3.83,98.8,M,47.9,M,,*75",,,,
2021-12-21T19:08:57+01:00,261,30.50,25.10,1010.13,128.80,177.00,"$GNGGA,180852.000,4900.5265,N,00825.4831,E,2,7,3.85,95.8,M,47.9,M,,*78",,,,
2021-12-21T19:09:17+01:00,262,30.50,25.13,1010.12,126.30,170.40,"$GNGGA,180912.000,4900.5259,N,00825.4705,E,2,7,3.86,95.5,M,47.9,M,,*74",,,,
2021-12-21T19:09:38+01:00,263,30.50,25.10,1010.14,128.30,168.70,"$GNGGA,180933.000,4900.5304,N,00825.4431,E,2,6,5.14,100.1,M,47.9,M,,*4F",,,,
2021-12-21T19:09:58+01:00,264,30.50,25.11,1010.15,128.30,174.60,"$GNGGA,180953.000,4900.5250,N,00825.4537,E,2,7,3.36,102.7,M,47.9,M,,*4D",,,,
2021-12-21T19:10:18+01:00,265,30.50,25.09,1010.15,129.30,169.10,"$GNGGA,181013.000,4900.5187,N,00825.4814,E,2,7,5.40,106.9,M,47.9,M,,*49",,,,
2021-12-21T19:10:39+01:00,266,30.49,25.07,1010.15,128.40,162.00,"$GNGGA,181034.000,4900.5209,N,00825.4594,E,2,7,10.70,108.7,M,47.9,M,,*7B",,,,
2021-12-21T19:10:59+01:00,267,30.49,25.04,1010.15,125.60,158.10,"$GNGGA,181054.000,4900.5146,N,00825.4663,E,2,7,3.37,110.7,M,47.9,M,,*46",,,,
2021-12-21T19:11:20+01:00,268,30.48,25.01,1010.16,123.30,154.00,"$GNGGA,181115.000,4900.5141,N,00825.4704,E,2,7,3.37,114.0,M,47.9,M,,*46",,,,
2021-12-21T19:11:41+01:00,269,30.48,24.98,1010.15,122.90,162.30,"$GNGGA,181136.000,4900.5200,N,00825.4507,E,2,7,3.69,116.9,M,47.9,M,,*40",,,,
2021-12-21T19:12:01+01:00,270,30.47,25.02,1010.15,124.70,169.40,"$GNGGA,181156.000,4900.5214,N,00825.4380,E,2,7,3.38,115.7,M,47.9,M,,*43",,,,
2021-12-21T19:12:21+01:00,271,30.47,25.00,1010.16,124.80,169.90,"$GNGGA,181216.000,4900.5183,N,00825.4646,E,2,7,5.31,115.1,M,47.9,M,,*4F",,,,
2021-12-21T19:12:42+01:00,272,30.47,25.01,1010.17,124.10,167.40,"$GNGGA,181237.000,4900.5165,N,00825.4735,E,2,7,3.39,115.7,M,47.9,M,,*49",,,,
2021-12-21T19:13:02+01:00,273,30.47,25.01,1010.17,124.00,162.40,"$GNGGA,181257.000,4900.5256,N,00825.5040,E,2,7,3.39,113.2,M,47.9,M,,*4B",,,,
2021-12-21T19:13:22+01:00,274,30.47,24.99,1010.18,124.30,161.20,"$GNGGA,181317.000,4900.5258,N,00825.5111,E,2,7,5.25,111.5,M,47.9,M,,*4B",,,,
2021-12-21T19:13:43+01:00,275,30.46,24.99,1010.18,121.30,153.60,"$GNGGA,181338.000,4900.5217,N,00825.5082,E,2,7,5.24,112.3,M,47.9,M,,*42",,,,
2021-12-21T19:14:03+01:00,276,30.46,25.00,1010.19,120.20,148.90,"$GNGGA,181358.000,4900.5203,N,00825.4597,E,2,7,3.40,114.8,M,47.9,M,,*48",,,,
2021-12-21T19:14:23+01:00,277,30.46,25.02,1010.20,118.40,154.50,"$GNGGA,181418.000,4900.5215,N,00825.4713,E,2,7,3.40,114.3,M,47.9,M,,*49",,,,
2021-12-21T19:14:44+01:00,278,30.46,24.99,1010.21,118.70,157.70,"$GNGGA,181439.000,4900.5230,N,00825.4843,E,2,7,3.41,114.6,M,47.9,M,,*43",,,,
2021-12-21T19:15:05+01:00,279,30.45,24.96,1010.21,120.00,158.10,"$GNGGA,181500.000,4900.5264,N,00825.5012,E,2,7,3.41,113.6,M,47.9,M,,*43",,,,
2021-12-21T19:15:25+01:00,280,30.45,24.97,1010.20,121.60,160.40,"$GNGGA,181520.000,4900.5278,N,00825.5085,E,2,6,3.66,113.5,M,47.9,M,,*45",,,,
2021-12-21T19:15:46+01:00,281,30.44,24.95,1010.21,122.60,161.80,"$GNGGA,181541.000,4900.5354,N,00825.5394,E,2,6,3.66,115.1,M,47.9,M,,*4C",,,,
2021-12-21T19:16:06+01:00,282,30.43,24.97,1010.21,118.50,160.20,"$GNGGA,181601.000,4900.5400,N,00825.5430,E,2,5,7.07,117.7,M,47.9,M,,*40",,,,
2021-12-21T19:16:26+01:00,283,30.43,24.92,1010.21,116.10,155.80,"$GNGGA,181621.000,4900.5391,N,00825.5280,E,2,5,7.13,118.4,M,47.9,M,,*49",,,,
2021-12-21T19:16:47+01:00,284,30.43,24.90,1010.22,116.70,157.30,"$GNGGA,181642.000,4900.5342,N,00825.5114,E,2,5,7.20,118.8,M,47.9,M,,*40",,,,
2021-12-21T19:17:07+01:00,285,30.43,24.92,1010.23,116.90,158.30,"$GNGGA,181702.000,4900.5247,N,00825.4952,E,2,5,7.26,117.6,M,47.9,M,,*4D",,,,
2021-12-21T19:17:27+01:00,286,30.43,24.90,1010.24,121.30,152.90,"$GNGGA,181722.000,4900.5197,N,00825.4719,E,2,6,3.66,115.9,M,47.9,M,,*4E",,,,
2021-12-21T19:17:48+01:00,287,30.43,24.90,1010.25,120.40,149.10,"$GNGGA,181743.000,4900.5266,N,00825.4753,E,2,6,3.66,114.8,M,47.9,M,,*4A",,,,
2021-12-21T19:18:08+01:00,288,30.42,24.92,1010.26,118.90,151.30,"$GNGGA,181803.000,4900.5257,N,00825.4845,E,2,7,3.43,115.1,M,47.9,M,,*45",,,,
2021-12-21T19:18:29+01:00,289,30.43,24.87,1010.27,115.80,156.50,"$GNGGA,181824.000,4900.5264,N,00825.5053,E,2,6,3.66,112.9,M,47.9,M,,*47",,,,
2021-12-21T19:18:50+01:00,290,30.42,24.88,1010.28,114.60,148.90,"$GNGGA,181845.000,4900.5234,N,00825.5008,E,2,6,4.93,112.7,M,47.9,M,,*48",,,,
2021-12-21T19:19:11+01:00,291,30.42,24.90,1010.28,113.00,141.30,"$GNGGA,181906.000,4900.5234,N,00825.4876,E,2,6,3.65,112.6,M,47.9,M,,*41",,,,
2021-12-21T19:19:31+01:00,292,30.43,24.86,1010.29,111.40,134.60,"$GNGGA,181926.000,4900.5247,N,00825.4668,E,2,6,3.65,112.2,M,47.9,M,,*42",,,,
2021-12-21T19:19:52+01:00,293,30.43,24.85,1010.29,113.30,143.10,"$GNGGA,181947.000,4900.5243,N,00825.4785,E,2,6,3.65,112.2,M,47.9,M,,*43",,,,
2021-12-21T19:20:12+01:00,294,30.43,24.88,1010.30,116.50,151.40,"$GNGGA,182007.000,4900.5230,N,00825.4816,E,2,6,3.65,111.9,M,47.9,M,,*44",,,,
2021-12-21T19:20:33+01:00,295,30.43,24.83,1010.31,116.40,151.20,"$GNGGA,182028.000,4900.5246,N,00825.4974,E,2,6,3.65,112.7,M,47.9,M,,*40",,,,
2021-12-21T19:20:54+01:00,296,30.43,24.84,1010.32,113.40,149.10,"$GNGGA,182049.000,4900.5268,N,00825.4911,E,2,6,3.64,113.2,M,47.9,M,,*4D",,,,
2021-12-21T19:21:14+01:00,297,30.42,24.84,1010.33,112.80,150.60,"$GNGGA,182109.000,4900.5286,N,00825.4956,E,2,6,4.77,114.0,M,47.9,M,,*4B",,,,
2021-12-21T19:21:35+01:00,298,30.42,24.82,1010.34,111.10,150.00,"$GNGGA,182130.000,4900.5299,N,00825.5183,E,2,6,3.64,114.6,M,47.9,M,,*4D",,,,
2021-12-21T19:21:56+01:00,299,30.42,24.79,1010.34,113.20,152.10,"$GNGGA,182151.000,4900.5312,N,00825.5330,E,2,6,3.64,115.2,M,47.9,M,,*47",,,,
2021-12-21T19:22:16+01:00,300,30.41,24.80,1010.35,112.70,152.30,"$GNGGA,182211.000,4900.5246,N,00825.5121,E,2,6,3.64,116.4,M,47.9,M,,*47",,,,
2021-12-21T19:22:36+01:00,301,30.41,24.79,1010.34,112.50,156.60,"$GNGGA,182231.000,4900.5225,N,00825.4854,E,2,5,8.44,116.3,M,47.9,M,,*47",,,,
2021-12-21T19:22:57+01:00,302,30.41,24.80,1010.34,109.30,148.30,"$GNGGA,182252.000,4900.5174,N,00825.4557,E,2,6,3.63,115.4,M,47.9,M,,*42",,,,
2021-12-21T19:23:17+01:00,303,30.41,24.80,1010.34,109.20,142.70,"$GNGGA,182312.000,4900.5117,N,00825.4311,E,2,7,3.44,114.3,M,47.9,M,,*44",,,,
2021-12-21T19:23:37+01:00,304,30.41,24.79,1010.35,108.90,140.10,"$GNGGA,182332.000,4900.5194,N,00825.4810,E,2,7,3.44,115.5,M,47.9,M,,*40",,,,
2021-12-21T19:23:58+01:00,305,30.41,24.78,1010.36,112.40,150.50,"$GNGGA,182353.000,4900.5370,N,00825.5440,E,2,6,7.48,115.6,M,47.9,M,,*4D",,,,
2021-12-21T19:24:18+01:00,306,30.40,24.78,1010.36,115.10,148.40,"$GNGGA,182413.000,4900.5591,N,00825.6426,E,0,5,,115.0,M,47.9,M,,*56",,,,
2021-12-21T19:24:38+01:00,307,30.40,24.76,1010.37,116.80,148.40,"$GNGGA,182433.000,4900.5621,N,00825.6648,E,0,5,,113.1,M,47.9,M,,*51",,,,
2021-12-21T19:24:59+01:00,308,30.40,24.74,1010.37,110.30,138.20,"$GNGGA,182454.000,4900.5461,N,00825.6102,E,0,5,,111.1,M,47.9,M,,*5D",,,,
2021-12-21T19:25:19+01:00,309,30.40,24.75,1010.37,106.80,142.70,"$GNGGA,182514.000,4900.5450,N,00825.5876,E,2,5,9.54,109.8,M,47.9,M,,*47",,,,
2021-12-21T19:25:39+01:00,310,30.40,24.76,1010.37,106.20,144.20,"$GNGGA,182534.000,4900.5290,N,00825.5259,E,2,6,7.85,109.9,M,47.9,M,,*48",,,,
2021-12-21T19:26:00+01:00,311,30.40,24.75,1010.37,109.00,141.30,"$GNGGA,182555.000,4900.5278,N,00825.5085,E,2,6,7.94,110.3,M,47.9,M,,*48",,,,
2021-12-21T19:26:20+01:00,312,30.39,24.77,1010.38,107.60,132.60,"$GNGGA,182615.000,4900.5334,N,00825.5248,E,2,6,8.01,111.7,M,47.9,M,,*43",,,,
2021-12-21T19:26:41+01:00,313,30.39,24.74,1010.38,108.30,141.00,"$GNGGA,182636.000,4900.5282,N,00825.5082,E,2,7,3.44,112.7,M,47.9,M,,*42",,,,
2021-12-21T19:27:01+01:00,314,30.39,24.73,1010.38,108.10,134.90,"$GNGGA,182656.000,4900.5294,N,00825.5201,E,2,7,5.12,113.8,M,47.9,M,,*41",,,,
2021-12-21T19:27:22+01:00,315,30.39,24.70,1010.38,106.60,133.20,"$GNGGA,182717.000,4900.5309,N,00825.4982,E,2,7,3.43,118.6,M,47.9,M,,*46",,,,
2021-12-21T19:27:43+01:00,316,30.38,24.72,1010.40,101.00,121.80,"$GNGGA,182738.000,4900.5321,N,00825.5067,E,2,6,8.34,121.3,M,47.9,M,,*47",,,,
2021-12-21T19:28:03+01:00,317,30.38,24.72,1010.40,102.40,138.90,"$GNGGA,182758.000,4900.5274,N,00825.5117,E,2,6,8.43,122.0,M,47.9,M,,*46",,,,
2021-12-21T19:28:23+01:00,318,30.38,24.71,1010.41,104.80,141.10,"$GNGGA,182818.000,4900.5277,N,00825.4981,E,2,7,3.43,122.0,M,47.9,M,,*42",,,,
2021-12-21T19:28:44+01:00,319,30.38,24.75,1010.41,109.00,142.20,"$GNGGA,182839.000,4900.5264,N,00825.4913,E,2,7,4.29,122.1,M,47.9,M,,*42",,,,
2021-12-21T19:29:04+01:00,320,30.37,24.73,1010.41,109.60,133.60,"$GNGGA,182859.000,4900.5252,N,00825.4746,E,2,6,3.86,122.0,M,47.9,M,,*4D",,,,
2021-12-21T19:29:24+01:00,321,30.37,24.74,1010.42,110.30,138.20,"$GNGGA,182919.000,4900.5254,N,00825.4626,E,2,6,3.85,123.5,M,47.9,M,,*4E",,,,
2021-12-21T19:29:45+01:00,322,30.37,24.75,1010.43,110.50,145.00,"$GNGGA,182940.000,4900.5252,N,00825.4967,E,2,6,3.84,124.2,M,47.9,M,,*4F",,,,
2021-12-21T19:30:05+01:00,323,30.36,24.71,1010.44,105.70,137.70,"$GNGGA,183000.000,4900.5228,N,00825.4356,E,2,6,3.83,125.6,M,47.9,M,,*44",,,,
2021-12-21T19:30:26+01:00,324,30.36,24.69,1010.44,101.40,134.90,"$GNGGA,183021.000,4900.5223,N,00825.4237,E,2,7,4.19,125.7,M,47.9,M,,*4E",,,,
2021-12-21T19:30:46+01:00,325,30.36,24.70,1010.45,96.70,129.40,"$GNGGA,183041.000,4900.5228,N,00825.4202,E,2,7,3.41,127.1,M,47.9,M,,*4B",,,,
2021-12-21T19:31:06+01:00,326,30.36,24.70,1010.46,97.40,133.50,"$GNGGA,183101.000,4900.5271,N,00825.4479,E,1,7,3.41,125.7,M,47.9,M,,*4F",,,,
2021-12-21T19:31:27+01:00,327,30.36,24.68,1010.48,98.60,128.60,"$GNGGA,183122.000,4900.5255,N,00825.4586,E,1,7,3.41,121.7,M,47.9,M,,*4D",,,,
2021-12-21T19:31:48+01:00,328,30.40,24.61,1010.49,104.10,144.90,"$GNGGA,183143.000,4900.5227,N,00825.4969,E,1,7,3.40,118.4,M,47.9,M,,*4A",,,,
2021-12-21T19:32:08+01:00,329,30.45,24.52,1010.49,104.10,149.60,"$GNGGA,183203.000,4900.5296,N,00825.5229,E,1,6,9.59,118.5,M,47.9,M,,*4B",,,,
2021-12-21T19:32:29+01:00,330,30.50,24.41,1010.51,101.30,150.70,"$GNGGA,183224.000,4900.5431,N,00825.5504,E,0,6,,119.8,M,47.9,M,,*5B",,,,
2021-12-21T19:32:50+01:00,331,30.52,24.39,1010.52,96.80,139.40,"$GNGGA,183245.000,4900.5541,N,00825.5897,E,0,6,,121.0,M,47.9,M,,*5E",,,,
2021-12-21T19:33:10+01:00,332,30.52,24.45,1010.54,96.80,138.80,"$GNGGA,183305.000,4900.5548,N,00825.5937,E,0,6,,121.5,M,47.9,M,,*5C",,,,
2021-12-21T19:33:30+01:00,333,30.51,24.46,1010.53,100.00,142.80,"$GNGGA,183325.000,4900.5443,N,00825.5729,E,0,6,,121.5,M,47.9,M,,*55",,,,
2021-12-21T19:33:51+01:00,334,30.50,24.49,1010.54,100.20,132.40,"$GNGGA,183346.000,4900.5148,N,00825.4417,E,0,6,,121.3,M,47.9,M,,*57",,,,
2021-12-21T19:34:11+01:00,335,30.49,24.48,1010.55,98.20,124.70,"$GNGGA,183406.000,4900.5079,N,00825.4025,E,0,6,,120.7,M,47.9,M,,*57",,,,
2021-12-21T19:34:31+01:00,336,30.48,24.49,1010.56,96.80,117.10,"$GNGGA,183426.000,4900.5242,N,00825.4754,E,0,6,,120.6,M,47.9,M,,*5F",,,,
2021-12-21T19:34:52+01:00,337,30.47,24.50,1010.56,97.20,119.80,"$GNGGA,183447.000,4900.5913,N,00825.7514,E,0,6,,120.6,M,47.9,M,,*52",,,,
2021-12-21T19:35:12+01:00,338,30.46,24.50,1010.55,101.40,126.20,"$GNGGA,183507.000,4900.6517,N,00825.9970,E,0,6,,119.9,M,47.9,M,,*59",,,,
2021-12-21T19:35:32+01:00,339,30.46,24.51,1010.56,104.20,132.20,"$GNGGA,183527.000,4900.6542,N,00825.9938,E,0,6,,118.9,M,47.9,M,,*56",,,,
2021-12-21T19:35:53+01:00,340,30.45,24.50,1010.56,104.50,136.80,"$GNGGA,183548.000,4900.5536,N,00825.5914,E,0,6,,118.1,M,47.9,M,,*55",,,,
2021-12-21T19:36:14+01:00,341,30.44,24.49,1010.56,101.60,135.10,"$GNGGA,183609.000,4900.4918,N,00825.3459,E,0,6,,114.1,M,47.9,M,,*5C",,,,
2021-12-21T19:36:35+01:00,342,30.43,24.48,1010.56,99.10,125.80,"$GNGGA,183630.000,4900.4820,N,00825.2982,E,0,5,,114.5,M,47.9,M,,*51",,,,
2021-12-21T19:36:56+01:00,343,30.43,24.48,1010.57,97.60,127.00,"$GNGGA,183651.000,4900.5089,N,00825.4044,E,1,6,7.20,114.0,M,47.9,M,,*45",,,,
2021-12-21T19:37:16+01:00,344,30.42,24.49,1010.57,96.10,123.90,"$GNGGA,183711.000,4900.5181,N,00825.4335,E,1,6,6.96,114.5,M,47.9,M,,*45",,,,
2021-12-21T19:37:37+01:00,345,30.42,24.50,1010.57,95.10,137.70,"$GNGGA,183732.000,4900.5180,N,00825.4336,E,1,5,7.01,115.6,M,47.9,M,,*48",,,,
2021-12-21T19:37:58+01:00,346,30.41,24.48,1010.57,95.60,143.40,"$GNGGA,183753.000,4900.5087,N,00825.4164,E,1,4,7.07,114.0,M,47.9,M,,*4C",,,,
2021-12-21T19:38:18+01:00,347,30.41,24.47,1010.57,94.20,143.10,"$GNGGA,183813.000,4900.5126,N,00825.4242,E,1,4,7.07,113.0,M,47.9,M,,*4D",,,,
2021-12-21T19:38:38+01:00,348,30.40,24.46,1010.56,94.60,130.80,"$GNGGA,183833.000,4900.5079,N,00825.4130,E,1,5,7.16,111.6,M,47.9,M,,*47",,,,
2021-12-21T19:38:59+01:00,349,30.39,24.45,1010.56,91.60,123.20,"$GNGGA,183854.000,4900.5116,N,00825.4170,E,1,5,7.00,111.1,M,47.9,M,,*4A",,,,
2021-12-21T19:39:19+01:00,350,30.39,24.49,1010.55,94.70,118.40,"$GNGGA,183914.000,4900.5060,N,00825.4137,E,1,7,6.82,107.4,M,47.9,M,,*47",,,,
2021-12-21T19:39:40+01:00,351,30.38,24.48,1010.55,95.30,118.20,"$GNGGA,183935.000,4900.5044,N,00825.4099,E,1,7,7.10,108.1,M,47.9,M,,*47",,,,
2021-12-21T19:40:01+01:00,352,30.37,24.47,1010.55,97.30,120.10,"$GNGGA,183956.000,4900.5108,N,00825.4294,E,1,7,6.83,110.8,M,47.9,M,,*4F",,,,
2021-12-21T19:40:21+01:00,353,30.36,24.49,1010.55,94.70,121.60,"$GNGGA,184016.000,4900.5141,N,00825.4405,E,1,6,6.84,111.9,M,47.9,M,,*40",,,,
2021-12-21T19:40:41+01:00,354,30.35,24.47,1010.55,94.30,120.70,"$GNGGA,184036.000,4900.5080,N,00825.4264,E,1,7,6.83,111.8,M,47.9,M,,*48",,,,
2021-12-21T19:41:02+01:00,355,30.35,24.43,1010.55,93.20,115.40,"$GNGGA,184057.000,4900.5105,N,00825.4280,E,1,7,6.83,112.8,M,47.9,M,,*4A",,,,
2021-12-21T19:41:22+01:00,356,30.34,24.47,1010.55,93.10,116.00,"$GNGGA,184117.000,4900.5164,N,00825.4626,E,1,7,6.82,112.4,M,47.9,M,,*4D",,,,
2021-12-21T19:41:42+01:00,357,30.34,24.48,1010.54,94.70,122.00,"$GNGGA,184137.000,4900.5120,N,00825.4442,E,1,7,6.82,111.9,M,47.9,M,,*41",,,,
2021-12-21T19:42:03+01:00,358,30.33,24.50,1010.54,93.00,126.50,"$GNGGA,184158.000,4900.5084,N,00825.4372,E,1,6,7.04,109.9,M,47.9,M,,*44",,,,
2021-12-21T19:42:23+01:00,359,30.33,24.48,1010.55,92.30,125.40,"$GNGGA,184218.000,4900.5061,N,00825.4345,E,1,6,7.04,109.3,M,47.9,M,,*46",,,,
2021-12-21T19:42:43+01:00,360,30.33,24.48,1010.55,88.30,115.40,"$GNGGA,184238.000,4900.5059,N,00825.4368,E,1,6,7.04,110.0,M,47.9,M,,*4B",,,,
2021-12-21T19:43:04+01:00,361,30.33,24.48,1010.55,90.60,117.40,"$GNGGA,184259.000,4900.5036,N,00825.3872,E,1,5,17.63,110.9,M,47.9,M,,*78",,,,
2021-12-21T19:43:24+01:00,362,30.32,24.47,1010.56,94.30,119.00,"$GNGGA,184319.000,4900.5179,N,00825.4721,E,0,5,,112.7,M,47.9,M,,*59",,,,
2021-12-21T19:43:44+01:00,363,30.32,24.45,1010.57,97.50,120.10,"$GNGGA,184339.000,4900.5175,N,00825.4744,E,0,5,,112.7,M,47.9,M,,*54",,,,
2021-12-21T19:44:05+01:00,364,30.31,24.45,1010.58,96.10,117.00,"$GNGGA,184400.000,4900.5184,N,00825.4417,E,0,5,,112.5,M,47.9,M,,*50",,,,
2021-12-21T19:44:25+01:00,365,30.31,24.46,1010.57,89.80,105.10,"$GNGGA,184420.000,4900.5280,N,00825.4375,E,0,5,,112.6,M,47.9,M,,*55",,,,
2021-12-21T19:44:45+01:00,366,30.31,24.46,1010.57,84.80,101.80,"$GNGGA,184440.000,4900.5436,N,00825.4267,E,1,6,7.02,112.8,M,47.9,M,,*4D",,,,
2021-12-21T19:45:07+01:00,367,30.30,24.43,1010.57,84.30,97.80,"$GNGGA,184502.000,4900.5254,N,00825.3923,E,1,6,7.02,113.8,M,47.9,M,,*45",,,,
2021-12-21T19:45:27+01:00,368,30.30,24.45,1010.58,87.50,104.80,"$GNGGA,184522.000,4900.5256,N,00825.4156,E,1,6,7.01,113.6,M,47.9,M,,*45",,,,
2021-12-21T19:45:48+01:00,369,30.30,24.45,1010.58,91.00,110.90,"$GNGGA,184543.000,4900.5272,N,00825.4277,E,1,6,7.00,113.2,M,47.9,M,,*41",,,,
2021-12-21T19:46:09+01:00,370,30.29,24.45,1010.58,94.60,118.20,"$GNGGA,184604.000,4900.5228,N,00825.4193,E,1,6,7.00,112.4,M,47.9,M,,*40",,,,
2021-12-21T19:46:29+01:00,371,30.29,24.45,1010.58,92.70,116.70,"$GNGGA,184624.000,4900.5190,N,00825.3997,E,1,6,7.00,112.4,M,47.9,M,,*49",,,,
2021-12-21T19:46:49+01:00,372,30.29,24.47,1010.59,93.00,123.00,"$GNGGA,184644.000,4900.5302,N,00825.3796,E,1,6,6.99,111.8,M,47.9,M,,*47",,,,
2021-12-21T19:47:10+01:00,373,30.29,24.42,1010.59,90.10,127.60,"$GNGGA,184705.000,4900.5332,N,00825.3540,E,1,6,6.99,111.1,M,47.9,M,,*40",,,,
2021-12-21T19:47:30+01:00,374,30.29,24.44,1010.59,88.40,124.70,"$GNGGA,184725.000,4900.5257,N,00825.3844,E,1,6,6.98,109.2,M,47.9,M,,*42",,,,
2021-12-21T19:47:50+01:00,375,30.29,24.44,1010.58,87.80,118.00,"$GNGGA,184745.000,4900.5171,N,00825.3850,E,1,6,6.98,108.8,M,47.9,M,,*4D",,,,
2021-12-21T19:48:11+01:00,376,30.28,24.44,1010.58,87.80,107.80,"$GNGGA,184806.000,4900.5125,N,00825.3972,E,1,6,6.97,109.1,M,47.9,M,,*42",,,,
2021-12-21T19:48:31+01:00,377,30.28,24.46,1010.58,88.50,113.40,"$GNGGA,184826.000,4900.5078,N,00825.4078,E,1,6,6.96,109.5,M,47.9,M,,*48",,,,
2021-12-21T19:48:51+01:00,378,30.28,24.46,1010.57,86.70,111.50,"$GNGGA,184846.000,4900.5086,N,00825.4108,E,1,6,6.96,109.4,M,47.9,M,,*48",,,,
2021-12-21T19:49:12+01:00,379,30.27,24.43,1010.57,88.30,119.80,"$GNGGA,184907.000,4900.5112,N,00825.4116,E,1,6,6.95,109.5,M,47.9,M,,*4D",,,,
2021-12-21T19:49:32+01:00,380,30.27,24.45,1010.56,95.10,129.80,"$GNGGA,184927.000,4900.5164,N,00825.4081,E,1,6,6.95,110.2,M,47.9,M,,*4E",,,,
2021-12-21T19:49:53+01:00,381,30.27,24.46,1010.56,96.20,129.90,"$GNGGA,184948.000,4900.5144,N,00825.4034,E,1,6,6.94,110.6,M,47.9,M,,*4E",,,,
2021-12-21T19:50:13+01:00,382,30.27,24.45,1010.56,95.70,125.30,"$GNGGA,185008.000,4900.5129,N,00825.4147,E,1,6,6.93,110.1,M,47.9,M,,*4C",,,,
2021-12-21T19:50:34+01:00,383,30.27,24.43,1010.55,90.40,118.00,"$GNGGA,185029.000,4900.5129,N,00825.4108,E,1,6,6.93,109.9,M,47.9,M,,*44",,,,
2021-12-21T19:50:55+01:00,384,30.27,24.44,1010.54,90.40,118.00,"$GNGGA,185050.000,4900.5035,N,00825.3889,E,1,5,6.94,109.8,M,47.9,M,,*44",,,,
2021-12-21T19:51:15+01:00,385,30.27,24.44,1010.54,92.20,115.00,"$GNGGA,185110.000,4900.5082,N,00825.4032,E,1,5,6.94,109.4,M,47.9,M,,*4E",,,,
2021-12-21T19:51:35+01:00,386,30.26,24.44,1010.53,93.10,118.00,"$GNGGA,185130.000,4900.5184,N,00825.4556,E,1,6,3.06,116.8,M,47.9,M,,*43",,,,
2021-12-21T19:51:56+01:00,387,30.27,24.45,1010.54,92.50,122.40,"$GNGGA,185151.000,4900.5139,N,00825.4477,E,1,6,3.46,117.3,M,47.9,M,,*4E",,,,
2021-12-21T19:52:16+01:00,388,30.27,24.45,1010.53,91.00,125.20,"$GNGGA,185211.000,4900.5153,N,00825.4375,E,1,6,3.45,117.0,M,47.9,M,,*40",,,,
2021-12-21T19:52:37+01:00,389,30.27,24.42,1010.52,89.00,118.30,"$GNGGA,185232.000,4900.5166,N,00825.4509,E,1,6,3.07,119.2,M,47.9,M,,*40",,,,
2021-12-21T19:52:58+01:00,390,30.27,24.43,1010.51,89.40,108.40,"$GNGGA,185253.000,4900.5211,N,00825.4643,E,1,6,3.07,121.0,M,47.9,M,,*40",,,,
2021-12-21T19:53:18+01:00,391,30.27,24.44,1010.51,87.40,102.60,"$GNGGA,185313.000,4900.5245,N,00825.4767,E,1,7,3.05,127.1,M,47.9,M,,*47",,,,
2021-12-21T19:53:38+01:00,392,30.27,24.43,1010.50,85.30,98.50,"$GNGGA,185333.000,4900.5231,N,00825.4858,E,1,7,3.43,132.3,M,47.9,M,,*41",,,,
2021-12-21T19:53:59+01:00,393,30.26,24.42,1010.50,83.10,99.60,"$GNGGA,185354.000,4900.5264,N,00825.4880,E,1,7,3.05,134.5,M,47.9,M,,*47",,,,
2021-12-21T19:54:19+01:00,394,30.26,24.40,1010.51,85.60,111.60,"$GNGGA,185414.000,4900.5226,N,00825.4748,E,1,7,3.06,136.9,M,47.9,M,,*44",,,,
2021-12-21T19:54:40+01:00,395,30.26,24.39,1010.48,88.00,113.50,"$GNGGA,185435.000,4900.5199,N,00825.4606,E,1,7,3.06,137.7,M,47.9,M,,*44",,,,
2021-12-21T19:55:01+01:00,396,30.26,24.39,1010.48,89.00,112.90,"$GNGGA,185456.000,4900.5198,N,00825.4519,E,1,7,3.06,136.2,M,47.9,M,,*49",,,,
2021-12-21T19:55:21+01:00,397,30.26,24.40,1010.48,87.00,105.70,"$GNGGA,185516.000,4900.5256,N,00825.4691,E,1,7,3.07,139.7,M,47.9,M,,*45",,,,
2021-12-21T19:55:41+01:00,398,30.26,24.41,1010.49,87.60,110.80,"$GNGGA,185536.000,4900.5293,N,00825.4848,E,1,7,3.07,144.3,M,47.9,M,,*4A",,,,
2021-12-21T19:56:02+01:00,399,30.26,24.37,1010.48,85.70,115.30,"$GNGGA,185557.000,4900.5304,N,00825.4883,E,1,7,3.08,148.1,M,47.9,M,,*44",,,,
2021-12-21T19:56:22+01:00,400,30.26,24.37,1010.48,88.30,115.30,"$GNGGA,185617.000,4900.5256,N,00825.4752,E,1,7,3.41,150.0,M,47.9,M,,*43",,,,
2021-12-21T19:56:42+01:00,401,30.26,24.36,1010.47,88.40,121.50,"$GNGGA,185637.000,4900.5229,N,00825.4690,E,1,7,3.40,149.6,M,47.9,M,,*49",,,,
2021-12-21T19:57:03+01:00,402,30.26,24.35,1010.47,86.70,116.10,"$GNGGA,185658.000,4900.5232,N,00825.4644,E,1,7,3.09,146.6,M,47.9,M,,*41",,,,
2021-12-21T19:57:23+01:00,403,30.26,24.36,1010.48,83.90,114.20,"$GNGGA,185718.000,4900.5214,N,00825.4709,E,1,7,3.09,145.5,M,47.9,M,,*48",,,,
2021-12-21T19:57:43+01:00,404,30.26,24.36,1010.48,79.70,105.10,"$GNGGA,185738.000,4900.5247,N,00825.4805,E,1,7,3.09,147.6,M,47.9,M,,*4E",,,,
2021-12-21T19:58:04+01:00,405,30.26,24.34,1010.47,79.40,99.20,"$GNGGA,185759.000,4900.5256,N,00825.4825,E,1,7,3.10,152.1,M,47.9,M,,*40",,,,
2021-12-21T19:58:24+01:00,406,30.25,24.36,1010.48,78.80,96.90,"$GNGGA,185819.000,4900.5192,N,00825.4806,E,1,7,3.10,156.2,M,47.9,M,,*46",,,,
2021-12-21T19:58:44+01:00,407,30.25,24.37,1010.47,79.70,97.50,"$GNGGA,185839.000,4900.5238,N,00825.4942,E,1,7,3.10,159.5,M,47.9,M,,*4E",,,,
2021-12-21T19:59:05+01:00,408,30.25,24.35,1010.48,79.20,98.30,"$GNGGA,185900.000,4900.5236,N,00825.4865,E,1,7,3.11,162.2,M,47.9,M,,*41",,,,
2021-12-21T19:59:25+01:00,409,30.25,24.34,1010.48,77.80,103.20,"$GNGGA,185920.000,4900.5238,N,00825.4824,E,1,7,3.11,164.7,M,47.9,M,,*4B",,,,
2021-12-21T19:59:45+01:00,410,30.25,24.32,1010.48,79.10,103.40,"$GNGGA,185940.000,4900.5273,N,00825.4972,E,1,7,3.12,168.3,M,47.9,M,,*4B",,,,
2021-12-21T20:00:06+01:00,411,30.24,24.31,1010.48,82.50,110.00,"$GNGGA,190001.000,4900.5307,N,00825.5153,E,1,7,3.12,172.8,M,47.9,M,,*4B",,,,
2021-12-21T20:00:26+01:00,412,30.24,24.29,1010.49,83.00,105.40,"$GNGGA,190021.000,4900.5311,N,00825.5065,E,1,6,3.17,176.2,M,47.9,M,,*40",,,,
2021-12-21T20:00:46+01:00,413,30.24,24.29,1010.49,80.40,102.50,"$GNGGA,190041.000,4900.5311,N,00825.5096,E,1,6,3.17,177.4,M,47.9,M,,*4D",,,,
2021-12-21T20:01:07+01:00,414,30.24,24.30,1010.49,79.20,100.70,"$GNGGA,190102.000,4900.5318,N,00825.5067,E,1,6,3.18,178.7,M,47.9,M,,*4F",,,,
2021-12-21T20:01:27+01:00,415,30.23,24.33,1010.50,79.40,102.30,"$GNGGA,190122.000,4900.5320,N,00825.5064,E,1,6,3.18,178.0,M,47.9,M,,*42",,,,
2021-12-21T20:01:47+01:00,416,30.23,24.34,1010.51,80.10,100.50,"$GNGGA,190142.000,4900.5335,N,00825.5019,E,1,6,3.18,178.9,M,47.9,M,,*43",,,,
2021-12-21T20:02:08+01:00,417,30.23,24.31,1010.51,80.10,104.40,"$GNGGA,190203.000,4900.5320,N,00825.5046,E,1,6,3.19,179.9,M,47.9,M,,*4B",,,,
2021-12-21T20:02:28+01:00,418,30.23,24.27,1010.52,83.40,107.70,"$GNGGA,190223.000,4900.5375,N,00825.5115,E,1,6,3.39,183.0,M,47.9,M,,*40",,,,
2021-12-21T20:02:48+01:00,419,30.23,24.29,1010.52,81.90,111.50,"$GNGGA,190243.000,4900.5351,N,00825.5172,E,1,6,3.20,184.6,M,47.9,M,,*48",,,,
2021-12-21T20:03:09+01:00,420,30.23,24.31,1010.52,80.10,103.10,"$GNGGA,190304.000,4900.5342,N,00825.5134,E,1,6,3.20,188.1,M,47.9,M,,*41",,,,
2021-12-21T20:03:29+01:00,421,30.22,24.29,1010.52,78.30,103.30,"$GNGGA,190324.000,4900.5345,N,00825.5150,E,1,6,3.21,191.0,M,47.9,M,,*4E",,,,
2021-12-21T20:03:49+01:00,422,30.22,24.30,1010.52,79.30,98.50,"$GNGGA,190344.000,4900.5356,N,00825.5226,E,1,6,3.22,194.0,M,47.9,M,,*4E",,,,
2021-12-21T20:04:10+01:00,423,30.23,24.26,1010.53,79.00,95.60,"$GNGGA,190405.000,4900.5335,N,00825.5132,E,1,6,3.22,194.6,M,47.9,M,,*49",,,,
2021-12-21T20:04:30+01:00,424,30.23,24.28,1010.52,78.90,94.00,"$GNGGA,190425.000,4900.5295,N,00825.5113,E,1,6,3.23,194.6,M,47.9,M,,*42",,,,
