created_at,entry_id,field1,field2,field3,field4,field5,field6,latitude,longitude,elevation,status
2021-12-22T00:44:57+01:00,1,29.42,25.54,1011.38,16.60,22.30,"$GNGGA,000028.263,4900.5282,N,00825.4656,E,0,0,,152.7,M,47.9,M,,*55",,,,
2021-12-22T00:45:17+01:00,2,29.20,25.59,1011.37,16.30,22.30,"$GNGGA,000048.263,4900.5282,N,00825.4656,E,0,0,,152.7,M,47.9,M,,*53",,,,
2021-12-22T00:45:37+01:00,3,29.07,25.49,1011.37,15.70,23.50,"$GNGGA,000108.263,4900.5282,N,00825.4656,E,0,0,,152.7,M,47.9,M,,*56",,,,
2021-12-22T00:45:57+01:00,4,28.99,25.40,1011.36,15.30,21.10,"$GNGGA,000128.263,4900.5282,N,00825.4656,E,0,0,,152.7,M,47.9,M,,*54",,,,
2021-12-22T00:46:17+01:00,5,28.94,25.32,1011.36,16.00,23.40,"$GNGGA,000148.263,4900.5282,N,00825.4656,E,0,0,,152.7,M,47.9,M,,*52",,,,
2021-12-22T00:46:37+01:00,6,28.92,25.29,1011.36,15.70,20.30,"$GNGGA,000208.263,4900.5282,N,00825.4656,E,0,0,,152.7,M,47.9,M,,*55",,,,
2021-12-22T00:46:57+01:00,7,28.92,25.29,1011.36,15.80,21.10,"$GNGGA,000228.263,4900.5282,N,00825.4656,E,0,0,,152.7,M,47.9,M,,*57",,,,
2021-12-22T00:47:17+01:00,8,28.93,25.29,1011.35,15.30,18.40,"$GNGGA,000248.263,4900.5282,N,00825.4656,E,0,0,,152.7,M,47.9,M,,*51",,,,
2021-12-22T00:47:37+01:00,9,28.94,25.28,1011.35,16.10,18.00,"$GNGGA,000308.263,4900.5282,N,00825.4656,E,0,0,,152.7,M,47.9,M,,*54",,,,
2021-12-22T00:47:57+01:00,10,28.97,25.25,1011.34,15.80,20.40,"$GNGGA,000328.263,4900.5282,N,00825.4656,E,0,0,,152.7,M,47.9,M,,*56",,,,
2021-12-22T00:48:17+01:00,11,28.99,25.21,1011.34,15.70,19.10,"$GNGGA,000348.263,4900.5282,N,00825.4656,E,0,0,,152.7,M,47.9,M,,*50",,,,
2021-12-22T00:48:37+01:00,12,29.02,25.18,1011.34,15.70,19.20,"$GNGGA,000408.263,4900.5282,N,00825.4656,E,0,0,,152.7,M,47.9,M,,*53",,,,
2021-12-22T00:48:57+01:00,13,29.06,25.19,1011.34,16.30,19.50,"$GNGGA,000428.263,4900.5282,N,00825.4656,E,0,0,,152.7,M,47.9,M,,*51",,,,
2021-12-22T00:49:17+01:00,14,29.09,25.15,1011.35,17.30,20.90,"$GNGGA,000448.263,4900.5282,N,00825.4656,E,0,0,,152.7,M,47.9,M,,*57",,,,
2021-12-22T00:49:37+01:00,15,29.13,25.13,1011.35,17.10,25.10,"$GNGGA,000508.263,4900.5282,N,00825.4656,E,0,0,,152.7,M,47.9,M,,*52",,,,
2021-12-22T00:49:57+01:00,16,29.17,25.09,1011.34,16.40,21.00,"$GNGGA,000528.263,4900.5282,N,00825.4656,E,0,0,,152.7,M,47.9,M,,*50",,,,
2021-12-22T00:50:17+01:00,17,29.20,25.10,1011.34,15.50,25.10,"$GNGGA,000548.263,4900.5282,N,00825.4656,E,0,0,,152.7,M,47.9,M,,*56",,,,
2021-12-22T00:50:37+01:00,18,29.24,25.04,1011.34,16.30,23.00,"$GNGGA,000608.263,4900.5282,N,00825.4656,E,0,0,,152.7,M,47.9,M,,*51",,,,
2021-12-22T00:50:57+01:00,19,29.28,24.95,1011.34,16.30,26.10,"$GNGGA,000628.263,4900.5282,N,00825.4656,E,0,0,,152.7,M,47.9,M,,*53",,,,
2021-12-22T00:51:17+01:00,20,29.31,24.87,1011.34,15.80,20.50,"$GNGGA,000648.012,4900.5282,N,00825.4656,E,0,0,,152.7,M,47.9,M,,*51",,,,
2021-12-22T00:51:38+01:00,21,29.33,24.87,1011.34,14.60,19.00,"$GNGGA,235133.099,4900.5500,N,00825.4121,E,1,4,4.35,177.1,M,47.9,M,,*4F",,,,
2021-12-22T00:51:57+01:00,22,29.36,24.85,1011.34,14.90,17.90,"$GNGGA,235153.000,4900.5419,N,00825.4217,E,1,4,4.32,154.4,M,47.9,M,,*45",,,,
2021-12-22T00:52:19+01:00,23,29.39,24.85,1011.34,14.90,17.80,"$GNGGA,235214.000,4900.5335,N,00825.4154,E,1,4,4.28,140.3,M,47.9,M,,*41",,,,
2021-12-22T00:52:39+01:00,24,29.41,24.83,1011.34,15.80,18.10,"$GNGGA,235234.000,4900.5279,N,00825.4217,E,1,4,4.25,135.7,M,47.9,M,,*45",,,,
2021-12-22T00:53:00+01:00,25,29.44,24.83,1011.34,15.80,18.20,"$GNGGA,235255.000,4900.5244,N,00825.4392,E,1,4,4.22,133.2,M,47.9,M,,*44",,,,
2021-12-22T00:53:20+01:00,26,29.46,24.82,1011.34,16.10,20.60,"$GNGGA,235316.000,4900.5164,N,00825.5094,E,0,3,,134.4,M,47.9,M,,*5A",,,,
2021-12-22T00:53:40+01:00,27,29.48,24.86,1011.33,15.30,20.10,"$GNGGA,235336.000,4900.5338,N,00825.4093,E,0,3,,134.4,M,47.9,M,,*55",,,,
2021-12-22T00:54:00+01:00,28,29.51,24.82,1011.34,14.50,18.70,"$GNGGA,235356.000,4900.5390,N,00825.3428,E,0,3,,134.2,M,47.9,M,,*54",,,,
2021-12-22T00:54:21+01:00,29,29.53,24.76,1011.33,14.20,18.40,"$GNGGA,235417.000,4900.5473,N,00825.3142,E,0,3,,133.7,M,47.9,M,,*57",,,,
2021-12-22T00:54:41+01:00,30,29.55,24.77,1011.33,15.30,19.60,"$GNGGA,235437.000,4900.5484,N,00825.3350,E,0,3,,133.3,M,47.9,M,,*58",,,,
2021-12-22T00:55:01+01:00,31,29.57,24.75,1011.33,15.60,20.30,"$GNGGA,235457.000,4900.5326,N,00825.4156,E,1,4,4.04,135.1,M,47.9,M,,*4E",,,,
2021-12-22T00:55:23+01:00,32,29.60,24.74,1011.33,14.60,19.40,"$GNGGA,235518.000,4900.5270,N,00825.3833,E,1,3,10.52,132.5,M,47.9,M,,*79",,,,
2021-12-22T00:55:42+01:00,33,29.62,24.73,1011.32,14.00,21.60,"$GNGGA,235538.000,4900.5380,N,00825.3055,E,0,3,,129.9,M,47.9,M,,*52",,,,
2021-12-22T00:56:02+01:00,34,29.64,24.69,1011.33,14.70,20.50,"$GNGGA,235558.000,4900.5323,N,00825.3237,E,0,3,,128.9,M,47.9,M,,*5A",,,,
2021-12-22T00:56:23+01:00,35,29.66,24.66,1011.32,15.80,20.30,"$GNGGA,235619.000,4900.5257,N,00825.3617,E,0,3,,128.6,M,47.9,M,,*57",,,,
2021-12-22T00:56:43+01:00,36,29.68,24.66,1011.31,15.50,17.30,"$GNGGA,235639.000,4900.5250,N,00825.4314,E,0,3,,128.5,M,47.9,M,,*50",,,,
2021-12-22T00:57:03+01:00,37,29.70,24.65,1011.30,15.10,19.70,"$GNGGA,235659.000,4900.5226,N,00825.4908,E,0,3,,128.6,M,47.9,M,,*53",,,,
2021-12-22T00:57:23+01:00,38,29.72,24.65,1011.31,15.30,19.20,"$GNGGA,235719.000,4900.5254,N,00825.4751,E,0,3,,128.7,M,47.9,M,,*50",,,,
2021-12-22T00:57:43+01:00,39,29.74,24.65,1011.30,14.90,19.10,"$GNGGA,235739.000,4900.5244,N,00825.4779,E,0,3,,128.8,M,47.9,M,,*56",,,,
2021-12-22T00:58:03+01:00,40,29.76,24.63,1011.31,14.60,17.70,"$GNGGA,235759.000,4900.5241,N,00825.4794,E,0,3,,128.7,M,47.9,M,,*59",,,,
2021-12-22T00:58:24+01:00,41,29.78,24.61,1011.31,13.70,20.40,"$GNGGA,235820.000,4900.5250,N,00825.4682,E,0,3,,128.7,M,47.9,M,,*5E",,,,
2021-12-22T00:58:44+01:00,42,29.80,24.59,1011.31,14.70,23.20,"$GNGGA,235840.000,4900.5273,N,00825.4305,E,0,3,,128.5,M,47.9,M,,*51",,,,
2021-12-22T00:59:04+01:00,43,29.81,24.57,1011.31,14.30,21.30,"$GNGGA,235900.000,4900.5234,N,00825.4341,E,0,3,,128.5,M,47.9,M,,*57",,,,
2021-12-22T00:59:26+01:00,44,29.83,24.61,1011.32,14.90,18.10,"$GNGGA,235921.000,4900.5192,N,00825.4080,E,1,4,3.73,125.0,M,47.9,M,,*42",,,,
2021-12-22T00:59:45+01:00,45,29.84,24.58,1011.32,14.80,16.40,"$GNGGA,235941.000,4900.5149,N,00825.4165,E,1,4,3.71,122.6,M,47.9,M,,*4B",,,,
2021-12-22T01:00:05+01:00,46,29.86,24.55,1011.32,14.90,17.20,"$GNGGA,000001.000,4900.5236,N,00825.4204,E,1,4,3.69,123.2,M,47.9,M,,*41",,,,
2021-12-22T01:00:26+01:00,47,29.88,24.51,1011.32,14.40,18.00,"$GNGGA,000022.000,4900.5294,N,00825.4201,E,1,4,3.67,123.1,M,47.9,M,,*40",,,,
2021-12-22T01:00:47+01:00,48,29.89,24.49,1011.33,14.10,17.90,"$GNGGA,000042.000,4900.5263,N,00825.4432,E,1,4,3.65,126.6,M,47.9,M,,*48",,,,
2021-12-22T01:01:07+01:00,49,29.91,24.48,1011.32,14.80,22.20,"$GNGGA,000102.000,4900.5393,N,00825.4194,E,1,4,3.63,127.8,M,47.9,M,,*43",,,,
2021-12-22T01:01:27+01:00,50,29.92,24.48,1011.33,16.30,22.90,"$GNGGA,000123.000,4900.5446,N,00825.4121,E,1,4,3.62,126.7,M,47.9,M,,*4E",,,,
2021-12-22T01:01:47+01:00,51,29.93,24.50,1011.33,15.50,22.40,"$GNGGA,000143.000,4900.5303,N,00825.4332,E,1,4,3.60,124.7,M,47.9,M,,*4E",,,,
2021-12-22T01:02:08+01:00,52,29.94,24.49,1011.33,15.10,18.60,"$GNGGA,000203.000,4900.5199,N,00825.4473,E,1,4,3.58,122.5,M,47.9,M,,*45",,,,
2021-12-22T01:02:29+01:00,53,29.95,24.47,1011.33,14.30,19.20,"$GNGGA,000224.000,4900.5264,N,00825.4532,E,1,4,3.56,125.4,M,47.9,M,,*4D",,,,
2021-12-22T01:02:48+01:00,54,29.96,24.45,1011.34,14.80,21.30,"$GNGGA,000244.000,4900.5270,N,00825.4563,E,1,4,3.55,127.9,M,47.9,M,,*46",,,,
2021-12-22T01:03:08+01:00,55,29.98,24.47,1011.34,14.80,21.10,"$GNGGA,000304.000,4900.5274,N,00825.4513,E,1,4,3.53,131.6,M,47.9,M,,*4E",,,,
2021-12-22T01:03:29+01:00,56,29.99,24.46,1011.35,16.40,24.20,"$GNGGA,000325.000,4900.5242,N,00825.4542,E,1,4,3.52,133.1,M,47.9,M,,*48",,,,
2021-12-22T01:03:49+01:00,57,30.00,24.44,1011.35,16.70,21.30,"$GNGGA,000345.000,4900.5227,N,00825.4486,E,1,4,4.72,133.7,M,47.9,M,,*47",,,,
2021-12-22T01:04:09+01:00,58,30.01,24.40,1011.35,16.20,19.00,"$GNGGA,000405.000,4900.5161,N,00825.4279,E,1,4,3.49,133.8,M,47.9,M,,*43",,,,
2021-12-22T01:04:29+01:00,59,30.02,24.41,1011.35,14.50,16.10,"$GNGGA,000425.000,4900.5102,N,00825.4318,E,1,4,3.47,127.0,M,47.9,M,,*41",,,,
2021-12-22T01:04:49+01:00,60,30.03,24.41,1011.36,13.70,18.80,"$GNGGA,000445.000,4900.5123,N,00825.4091,E,1,4,3.46,125.2,M,47.9,M,,*47",,,,
2021-12-22T01:05:09+01:00,61,30.04,24.41,1011.36,13.10,18.70,"$GNGGA,000505.000,4900.5225,N,00825.4102,E,1,4,3.45,123.7,M,47.9,M,,*4C",,,,
2021-12-22T01:05:30+01:00,62,30.05,24.39,1011.36,13.30,18.20,"$GNGGA,000526.000,4900.5134,N,00825.4248,E,1,3,7.18,119.1,M,47.9,M,,*47",,,,
2021-12-22T01:05:50+01:00,63,30.06,24.36,1011.36,13.70,16.10,"$GNGGA,000546.000,4900.5323,N,00825.4203,E,1,3,7.12,119.1,M,47.9,M,,*40",,,,
2021-12-22T01:06:10+01:00,64,30.07,24.38,1011.35,13.30,16.20,"$GNGGA,000606.000,4900.5359,N,00825.4292,E,1,4,3.41,119.4,M,47.9,M,,*42",,,,
2021-12-22T01:06:32+01:00,65,30.09,24.34,1011.35,12.60,16.90,"$GNGGA,000627.000,4900.5195,N,00825.4587,E,1,4,3.40,119.1,M,47.9,M,,*44",,,,
2021-12-22T01:06:51+01:00,66,30.10,24.35,1011.35,11.80,15.30,"$GNGGA,000647.000,4900.5260,N,00825.4501,E,1,4,3.38,119.8,M,47.9,M,,*43",,,,
2021-12-22T01:07:11+01:00,67,30.11,24.34,1011.35,14.10,17.40,"$GNGGA,000707.000,4900.5277,N,00825.4495,E,1,4,3.37,120.8,M,47.9,M,,*49",,,,
2021-12-22T01:07:32+01:00,68,30.12,24.30,1011.35,14.80,19.00,"$GNGGA,000728.000,4900.5289,N,00825.4514,E,1,3,3.37,121.1,M,47.9,M,,*42",,,,
2021-12-22T01:07:52+01:00,69,30.13,24.30,1011.36,15.40,22.90,"$GNGGA,000748.000,4900.5276,N,00825.4493,E,1,3,3.36,120.9,M,47.9,M,,*42",,,,
2021-12-22T01:08:12+01:00,70,30.14,24.31,1011.37,14.40,22.20,"$GNGGA,000808.000,4900.5261,N,00825.4456,E,1,3,3.35,120.7,M,47.9,M,,*4B",,,,
2021-12-22T01:08:33+01:00,71,30.14,24.30,1011.38,13.70,18.40,"$GNGGA,000828.000,4900.5256,N,00825.4461,E,1,3,3.34,120.5,M,47.9,M,,*4A",,,,
2021-12-22T01:08:53+01:00,72,30.15,24.33,1011.38,15.30,16.20,"$GNGGA,000848.000,4900.5248,N,00825.4415,E,1,4,3.32,120.4,M,47.9,M,,*40",,,,
2021-12-22T01:09:13+01:00,73,30.16,24.34,1011.39,15.80,17.90,"$GNGGA,000908.000,4900.5226,N,00825.4438,E,1,4,3.31,120.5,M,47.9,M,,*40",,,,
2021-12-22T01:09:34+01:00,74,30.17,24.32,1011.39,15.60,17.80,"$GNGGA,000929.000,4900.5190,N,00825.4393,E,1,4,3.30,119.8,M,47.9,M,,*4D",,,,
2021-12-22T01:09:53+01:00,75,30.18,24.33,1011.41,14.30,17.10,"$GNGGA,000949.000,4900.5182,N,00825.4350,E,1,4,3.29,118.9,M,47.9,M,,*4F",,,,
2021-12-22T01:10:14+01:00,76,30.19,24.33,1011.42,14.20,15.00,"$GNGGA,001009.000,4900.5173,N,00825.4341,E,1,4,3.28,118.8,M,47.9,M,,*4D",,,,
2021-12-22T01:10:34+01:00,77,30.19,24.33,1011.42,14.00,14.80,"$GNGGA,001030.000,4900.5146,N,00825.4293,E,1,4,3.27,118.6,M,47.9,M,,*4E",,,,
2021-12-22T01:10:55+01:00,78,30.20,24.34,1011.42,14.00,14.80,"$GNGGA,001050.000,4900.5150,N,00825.4183,E,1,4,3.27,116.7,M,47.9,M,,*42",,,,
2021-12-22T01:11:15+01:00,79,30.20,24.36,1011.42,12.60,13.30,"$GNGGA,001110.000,4900.5158,N,00825.4343,E,1,4,3.26,115.9,M,47.9,M,,*4D",,,,
2021-12-22T01:11:36+01:00,80,30.21,24.33,1011.42,13.10,14.70,"$GNGGA,001131.000,4900.5161,N,00825.4333,E,1,4,4.77,115.4,M,47.9,M,,*4D",,,,
2021-12-22T01:11:56+01:00,81,30.21,24.34,1011.41,12.50,15.40,"$GNGGA,001151.000,4900.5173,N,00825.4382,E,1,4,3.24,114.6,M,47.9,M,,*40",,,,
2021-12-22T01:12:16+01:00,82,30.22,24.33,1011.41,13.70,17.10,"$GNGGA,001211.000,4900.5176,N,00825.4365,E,1,4,3.24,112.8,M,47.9,M,,*43",,,,
2021-12-22T01:12:37+01:00,83,30.23,24.33,1011.41,13.60,17.50,"$GNGGA,001232.000,4900.5144,N,00825.4361,E,1,4,3.23,111.8,M,47.9,M,,*43",,,,
2021-12-22T01:12:57+01:00,84,30.23,24.30,1011.41,15.30,22.90,"$GNGGA,001252.000,4900.5172,N,00825.4369,E,1,4,4.79,113.2,M,47.9,M,,*48",,,,
2021-12-22T01:13:17+01:00,85,30.24,24.27,1011.39,14.20,20.80,"$GNGGA,001312.000,4900.5156,N,00825.4520,E,1,3,3.24,113.5,M,47.9,M,,*4F",,,,
2021-12-22T01:13:38+01:00,86,30.25,24.30,1011.38,13.50,19.70,"$GNGGA,001333.000,4900.5112,N,00825.4420,E,1,3,3.23,113.6,M,47.9,M,,*49",,,,
2021-12-22T01:13:58+01:00,87,30.25,24.30,1011.37,11.20,13.00,"$GNGGA,001353.000,4900.5165,N,00825.4467,E,1,3,3.23,113.5,M,47.9,M,,*4F",,,,
2021-12-22T01:14:18+01:00,88,30.25,24.29,1011.37,11.60,13.70,"$GNGGA,001413.000,4900.5217,N,00825.4503,E,1,3,3.22,113.8,M,47.9,M,,*45",,,,
2021-12-22T01:14:38+01:00,89,30.25,24.30,1011.37,12.20,15.70,"$GNGGA,001434.000,4900.5371,N,00825.4108,E,6,0,99.99,114.1,M,47.9,M,,*77",,,,
2021-12-22T01:14:58+01:00,90,30.26,24.34,1011.37,13.60,17.60,"$GNGGA,001454.000,4900.5240,N,00825.4308,E,0,0,,113.5,M,47.9,M,,*5B",,,,
2021-12-22T01:15:19+01:00,91,30.26,24.36,1011.36,14.40,17.90,"$GNGGA,001514.000,4900.5240,N,00825.4308,E,0,0,,113.5,M,47.9,M,,*5E",,,,
2021-12-22T01:15:39+01:00,92,30.27,24.35,1011.36,14.00,15.70,"$GNGGA,001535.000,4900.5240,N,00825.4308,E,0,0,,113.5,M,47.9,M,,*5D",,,,
2021-12-22T01:15:59+01:00,93,30.27,24.37,1011.36,14.00,16.20,"$GNGGA,001555.000,4900.5240,N,00825.4308,E,0,0,,113.5,M,47.9,M,,*5B",,,,
2021-12-22T01:16:19+01:00,94,30.28,24.39,1011.35,13.20,16.20,"$GNGGA,001615.000,4900.5240,N,00825.4308,E,0,0,,113.5,M,47.9,M,,*5C",,,,
2021-12-22T01:16:40+01:00,95,30.29,24.39,1011.36,14.20,17.30,"$GNGGA,001636.000,4900.5211,N,00825.4349,E,0,0,,113.5,M,47.9,M,,*5C",,,,
2021-12-22T01:17:00+01:00,96,30.29,24.41,1011.37,14.40,15.70,"$GNGGA,001656.000,4900.5178,N,00825.4402,E,0,2,,112.5,M,47.9,M,,*5D",,,,
2021-12-22T01:17:20+01:00,97,30.30,24.41,1011.37,14.50,18.00,"$GNGGA,001716.000,4900.5137,N,00825.4495,E,0,2,,111.8,M,47.9,M,,*53",,,,
2021-12-22T01:17:41+01:00,98,30.31,24.37,1011.38,13.80,16.00,"$GNGGA,001737.000,4900.5100,N,00825.4337,E,0,2,,111.9,M,47.9,M,,*5A",,,,
2021-12-22T01:18:01+01:00,99,30.32,24.37,1011.38,13.60,17.00,"$GNGGA,001757.000,4900.5478,N,00825.3339,E,0,2,,116.5,M,47.9,M,,*54",,,,
2021-12-22T01:18:21+01:00,100,30.33,24.38,1011.39,12.80,15.30,"$GNGGA,001817.000,4900.5993,N,00825.2861,E,0,2,,120.1,M,47.9,M,,*51",,,,
2021-12-22T01:18:42+01:00,101,30.33,24.41,1011.39,12.50,15.40,"$GNGGA,001838.000,4900.4713,N,00825.4954,E,0,2,,112.3,M,47.9,M,,*59",,,,
2021-12-22T01:19:02+01:00,102,30.34,24.40,1011.39,11.70,14.60,"$GNGGA,001858.000,4900.3461,N,00825.6726,E,0,2,,105.8,M,47.9,M,,*5A",,,,
2021-12-22T01:19:22+01:00,103,30.34,24.40,1011.40,13.00,13.80,"$GNGGA,001918.000,4900.2883,N,00825.7471,E,0,2,,103.2,M,47.9,M,,*52",,,,
2021-12-22T01:19:44+01:00,104,30.34,24.41,1011.39,13.50,15.90,"$GNGGA,001939.000,4900.2825,N,00825.7509,E,0,2,,103.1,M,47.9,M,,*50",,,,
2021-12-22T01:20:03+01:00,105,30.34,24.43,1011.40,13.40,16.10,"$GNGGA,001959.000,4900.5141,N,00825.4450,E,0,0,,113.5,M,47.9,M,,*53",,,,
2021-12-22T01:20:23+01:00,106,30.34,24.43,1011.41,12.90,15.90,"$GNGGA,002019.000,4900.5142,N,00825.4450,E,0,0,,113.5,M,47.9,M,,*5E",,,,
2021-12-22T01:20:44+01:00,107,30.34,24.43,1011.41,13.00,13.70,"$GNGGA,002040.000,4900.5142,N,00825.4450,E,0,0,,113.5,M,47.9,M,,*52",,,,
2021-12-22T01:21:04+01:00,108,30.34,24.45,1011.42,13.20,14.00,"$GNGGA,002100.000,4900.5142,N,00825.4450,E,0,0,,113.5,M,47.9,M,,*57",,,,
2021-12-22T01:21:24+01:00,109,30.34,24.43,1011.42,13.50,14.20,"$GNGGA,002120.000,4900.5142,N,00825.4450,E,0,0,,113.5,M,47.9,M,,*55",,,,
2021-12-22T01:21:45+01:00,110,30.35,24.43,1011.43,13.50,15.10,"$GNGGA,002141.000,4900.5142,N,00825.4450,E,0,0,,113.5,M,47.9,M,,*52",,,,
2021-12-22T01:22:05+01:00,111,30.35,24.44,1011.42,14.00,16.50,"$GNGGA,002201.000,4900.5142,N,00825.4450,E,0,0,,113.5,M,47.9,M,,*55",,,,
2021-12-22T01:22:25+01:00,112,30.36,24.47,1011.43,13.90,17.90,"$GNGGA,002221.000,4900.5142,N,00825.4450,E,0,0,,113.5,M,47.9,M,,*57",,,,
2021-12-22T01:22:46+01:00,113,30.36,24.46,1011.43,14.20,18.80,"$GNGGA,002242.000,4900.5142,N,00825.4450,E,0,0,,113.5,M,47.9,M,,*52",,,,
2021-12-22T01:23:06+01:00,114,30.36,24.48,1011.42,14.90,18.90,"$GNGGA,002302.000,4900.5142,N,00825.4450,E,0,0,,113.5,M,47.9,M,,*57",,,,
2021-12-22T01:23:26+01:00,115,30.36,24.48,1011.42,14.90,19.90,"$GNGGA,002322.000,4900.5142,N,00825.4450,E,0,0,,113.5,M,47.9,M,,*55",,,,
2021-12-22T01:23:46+01:00,116,30.36,24.50,1011.43,14.00,18.60,"$GNGGA,002342.000,4900.5142,N,00825.4450,E,0,0,,113.5,M,47.9,M,,*53",,,,
2021-12-22T01:24:06+01:00,117,30.36,24.53,1011.43,12.50,16.20,"$GNGGA,002402.000,4900.5142,N,00825.4450,E,0,0,,113.5,M,47.9,M,,*50",,,,
2021-12-22T01:24:26+01:00,118,30.37,24.52,1011.42,12.90,15.30,"$GNGGA,002422.000,4900.5142,N,00825.4450,E,0,0,,113.5,M,47.9,M,,*52",,,,
2021-12-22T01:24:46+01:00,119,30.37,24.52,1011.41,13.50,15.60,"$GNGGA,002442.000,4900.5142,N,00825.4450,E,0,0,,113.5,M,47.9,M,,*54",,,,
2021-12-22T01:25:06+01:00,120,30.37,24.53,1011.42,13.40,14.90,"$GNGGA,002502.000,4900.5356,N,00825.3269,E,0,4,,41.8,M,47.9,M,,*62",,,,
2021-12-22T01:25:27+01:00,121,30.38,24.50,1011.41,12.20,13.70,"$GNGGA,002522.000,4900.5259,N,00825.4608,E,1,5,2.72,105.9,M,47.9,M,,*43",,,,
2021-12-22T01:25:48+01:00,122,30.38,24.50,1011.41,12.00,15.10,"$GNGGA,002543.000,4900.5258,N,00825.4928,E,1,5,2.72,112.6,M,47.9,M,,*41",,,,
2021-12-22T01:26:08+01:00,123,30.39,24.48,1011.41,12.00,15.40,"$GNGGA,002603.000,4900.5262,N,00825.4809,E,1,5,2.71,114.1,M,47.9,M,,*4F",,,,
2021-12-22T01:26:28+01:00,124,30.40,24.47,1011.40,12.90,16.20,"$GNGGA,002623.000,4900.5240,N,00825.4574,E,1,4,3.61,114.2,M,47.9,M,,*48",,,,
2021-12-22T01:26:49+01:00,125,30.41,24.44,1011.40,13.10,15.20,"$GNGGA,002644.000,4900.5246,N,00825.4773,E,1,4,3.61,113.5,M,47.9,M,,*4A",,,,
2021-12-22T01:27:09+01:00,126,30.42,24.45,1011.41,13.70,16.30,"$GNGGA,002704.000,4900.5288,N,00825.4657,E,1,4,3.61,112.8,M,47.9,M,,*46",,,,
2021-12-22T01:27:29+01:00,127,30.42,24.47,1011.42,14.10,17.90,"$GNGGA,002724.000,4900.5236,N,00825.4809,E,1,4,5.47,119.5,M,47.9,M,,*40",,,,
2021-12-22T01:27:50+01:00,128,30.42,24.45,1011.41,13.80,18.50,"$GNGGA,002745.000,4900.5251,N,00825.4860,E,1,4,5.45,123.3,M,47.9,M,,*44",,,,
2021-12-22T01:28:10+01:00,129,30.42,24.48,1011.40,14.20,19.40,"$GNGGA,002805.000,4900.5277,N,00825.5009,E,1,4,5.45,125.1,M,47.9,M,,*49",,,,
2021-12-22T01:28:31+01:00,130,30.43,24.48,1011.41,13.50,19.50,"$GNGGA,002826.000,4900.5262,N,00825.4930,E,1,4,5.43,125.7,M,47.9,M,,*4E",,,,
2021-12-22T01:28:51+01:00,131,30.43,24.46,1011.41,12.80,18.50,"$GNGGA,002846.000,4900.5265,N,00825.4827,E,1,4,5.42,126.1,M,47.9,M,,*4C",,,,
2021-12-22T01:29:11+01:00,132,30.43,24.45,1011.41,12.50,19.80,"$GNGGA,002906.000,4900.5255,N,00825.4874,E,1,4,5.53,126.3,M,47.9,M,,*4E",,,,
2021-12-22T01:29:32+01:00,133,30.44,24.46,1011.42,12.50,17.50,"$GNGGA,002927.000,4900.5251,N,00825.4645,E,1,4,5.41,125.2,M,47.9,M,,*44",,,,
2021-12-22T01:29:52+01:00,134,30.43,24.47,1011.43,12.30,15.60,"$GNGGA,002947.000,4900.5261,N,00825.4713,E,1,4,5.39,124.8,M,47.9,M,,*47",,,,
2021-12-22T01:30:12+01:00,135,30.44,24.48,1011.44,13.00,13.70,"$GNGGA,003007.000,4900.5267,N,00825.4811,E,1,4,5.39,125.1,M,47.9,M,,*48",,,,
2021-12-22T01:30:33+01:00,136,30.44,24.50,1011.45,12.50,13.20,"$GNGGA,003028.000,4900.5264,N,00825.4867,E,1,4,5.38,124.7,M,47.9,M,,*41",,,,
2021-12-22T01:30:53+01:00,137,30.45,24.46,1011.46,13.60,14.30,"$GNGGA,003048.000,4900.5228,N,00825.4609,E,1,4,5.36,123.7,M,47.9,M,,*40",,,,
2021-12-22T01:31:13+01:00,138,30.47,24.44,1011.47,14.40,15.20,"$GNGGA,003108.000,4900.5175,N,00825.4327,E,1,4,5.35,122.1,M,47.9,M,,*43",,,,
2021-12-22T01:31:34+01:00,139,30.48,24.44,1011.48,15.30,16.10,"$GNGGA,003129.000,4900.5254,N,00825.4562,E,1,4,3.57,122.5,M,47.9,M,,*41",,,,
2021-12-22T01:31:54+01:00,140,30.48,24.45,1011.47,15.00,15.80,"$GNGGA,003149.000,4900.5243,N,00825.4344,E,1,4,3.56,122.3,M,47.9,M,,*44",,,,
2021-12-22T01:32:14+01:00,141,30.48,24.49,1011.47,14.20,15.20,"$GNGGA,003209.000,4900.5169,N,00825.3784,E,1,4,3.56,122.6,M,47.9,M,,*42",,,,
2021-12-22T01:32:35+01:00,142,30.49,24.49,1011.46,12.90,13.60,"$GNGGA,003230.000,4900.5179,N,00825.3913,E,1,4,3.56,123.7,M,47.9,M,,*49",,,,
2021-12-22T01:32:54+01:00,143,30.50,24.45,1011.47,11.80,14.20,"$GNGGA,003250.000,4900.5207,N,00825.4119,E,1,4,3.56,125.1,M,47.9,M,,*40",,,,
2021-12-22T01:33:15+01:00,144,30.50,24.43,1011.48,11.50,14.40,"$GNGGA,003310.000,4900.5214,N,00825.4626,E,1,3,4.86,125.8,M,47.9,M,,*48",,,,
2021-12-22T01:33:36+01:00,145,30.50,24.42,1011.47,13.10,17.30,"$GNGGA,003331.000,4900.5265,N,00825.5708,E,1,3,6.31,125.3,M,47.9,M,,*44",,,,
2021-12-22T01:33:56+01:00,146,30.50,24.47,1011.48,13.60,19.40,"$GNGGA,003351.000,4900.5274,N,00825.6140,E,1,4,3.55,124.6,M,47.9,M,,*4F",,,,
2021-12-22T01:34:16+01:00,147,30.50,24.50,1011.49,13.70,20.20,"$GNGGA,003411.000,4900.5217,N,00825.4654,E,1,4,3.55,123.9,M,47.9,M,,*41",,,,
2021-12-22T01:34:37+01:00,148,30.49,24.51,1011.49,14.20,17.40,"$GNGGA,003432.000,4900.5225,N,00825.4752,E,1,4,3.55,122.9,M,47.9,M,,*47",,,,
2021-12-22T01:34:57+01:00,149,30.49,24.52,1011.49,14.20,17.00,"$GNGGA,003452.000,4900.5234,N,00825.4437,E,1,4,3.55,123.0,M,47.9,M,,*49",,,,
2021-12-22T01:35:16+01:00,150,30.49,24.53,1011.50,13.80,16.70,"$GNGGA,003512.000,4900.5224,N,00825.4643,E,1,3,4.84,123.0,M,47.9,M,,*40",,,,
2021-12-22T01:35:37+01:00,151,30.48,24.52,1011.50,12.40,16.40,"$GNGGA,003533.000,4900.5256,N,00825.5196,E,1,3,4.84,122.8,M,47.9,M,,*41",,,,
2021-12-22T01:35:58+01:00,152,30.48,24.53,1011.50,12.20,15.80,"$GNGGA,003553.000,4900.5227,N,00825.4719,E,1,3,4.83,123.1,M,47.9,M,,*4E",,,,
2021-12-22T01:36:17+01:00,153,30.47,24.51,1011.50,12.20,16.70,"$GNGGA,003613.000,4900.5216,N,00825.4452,E,0,0,,123.1,M,47.9,M,,*54",,,,
2021-12-22T01:36:38+01:00,154,30.47,24.50,1011.50,12.80,18.50,"$GNGGA,003634.000,4900.5215,N,00825.4427,E,0,0,,123.1,M,47.9,M,,*50",,,,
2021-12-22T01:36:58+01:00,155,30.46,24.49,1011.50,13.90,18.50,"$GNGGA,003654.000,4900.5215,N,00825.4427,E,0,0,,123.1,M,47.9,M,,*56",,,,
2021-12-22T01:37:18+01:00,156,30.47,24.47,1011.51,13.20,15.20,"$GNGGA,003714.000,4900.5215,N,00825.4427,E,0,0,,123.1,M,47.9,M,,*53",,,,
2021-12-22T01:37:39+01:00,157,30.47,24.45,1011.51,12.60,15.80,"$GNGGA,003735.000,4900.5215,N,00825.4427,E,0,0,,123.1,M,47.9,M,,*50",,,,
2021-12-22T01:37:59+01:00,158,30.47,24.46,1011.51,11.20,13.20,"$GNGGA,003755.000,4900.5216,N,00825.4435,E,0,0,,123.1,M,47.9,M,,*56",,,,
2021-12-22T01:38:19+01:00,159,30.47,24.46,1011.51,11.70,13.30,"$GNGGA,003815.000,4900.5215,N,00825.4433,E,0,3,,109.5,M,47.9,M,,*57",,,,
2021-12-22T01:38:39+01:00,160,30.47,24.45,1011.51,12.10,14.70,"$GNGGA,003835.000,4900.5217,N,00825.4003,E,0,0,,107.7,M,47.9,M,,*5F",,,,
2021-12-22T01:38:59+01:00,161,30.47,24.47,1011.51,12.60,16.50,"$GNGGA,003855.000,4900.5303,N,00825.5665,E,0,3,,116.3,M,47.9,M,,*5D",,,,
2021-12-22T01:39:19+01:00,162,30.48,24.46,1011.51,12.80,18.50,"$GNGGA,003915.000,4900.5287,N,00825.5138,E,0,3,,112.0,M,47.9,M,,*5D",,,,
2021-12-22T01:39:39+01:00,163,30.48,24.46,1011.51,11.90,16.10,"$GNGGA,003935.000,4900.5292,N,00825.3443,E,0,3,,78.6,M,47.9,M,,*6F",,,,
2021-12-22T01:39:59+01:00,164,30.48,24.48,1011.51,12.10,16.60,"$GNGGA,003955.000,4900.5221,N,00825.4799,E,0,4,,144.8,M,47.9,M,,*55",,,,
2021-12-22T01:40:19+01:00,165,30.48,24.45,1011.51,12.10,15.70,"$GNGGA,004015.000,4900.5257,N,00825.4497,E,0,4,,125.0,M,47.9,M,,*5C",,,,
2021-12-22T01:40:40+01:00,166,30.48,24.44,1011.51,12.60,15.30,"$GNGGA,004036.000,4900.5259,N,00825.4593,E,0,3,,130.2,M,47.9,M,,*57",,,,
2021-12-22T01:41:00+01:00,167,30.48,24.46,1011.52,12.50,14.40,"$GNGGA,004056.000,4900.5270,N,00825.4540,E,1,4,3.56,128.6,M,47.9,M,,*41",,,,
2021-12-22T01:41:20+01:00,168,30.48,24.44,1011.52,11.90,13.20,"$GNGGA,004116.000,4900.5258,N,00825.4275,E,1,4,3.56,122.5,M,47.9,M,,*46",,,,
2021-12-22T01:41:41+01:00,169,30.48,24.42,1011.53,11.50,13.30,"$GNGGA,004136.000,4900.5251,N,00825.4251,E,1,4,3.56,116.3,M,47.9,M,,*4A",,,,
2021-12-22T01:42:01+01:00,170,30.48,24.41,1011.53,11.60,15.50,"$GNGGA,004156.000,4900.5266,N,00825.4453,E,1,4,3.56,115.2,M,47.9,M,,*4E",,,,
2021-12-22T01:42:21+01:00,171,30.49,24.40,1011.52,12.90,17.00,"$GNGGA,004216.000,4900.5253,N,00825.4363,E,1,4,3.56,113.3,M,47.9,M,,*4C",,,,
2021-12-22T01:42:42+01:00,172,30.49,24.41,1011.52,13.00,15.50,"$GNGGA,004237.000,4900.5231,N,00825.4248,E,1,5,2.64,117.3,M,47.9,M,,*46",,,,
2021-12-22T01:43:02+01:00,173,30.49,24.42,1011.52,13.60,16.20,"$GNGGA,004257.000,4900.5235,N,00825.4343,E,1,4,3.57,120.7,M,47.9,M,,*4E",,,,
2021-12-22T01:43:22+01:00,174,30.49,24.41,1011.51,12.20,15.30,"$GNGGA,004317.000,4900.5244,N,00825.4424,E,1,4,3.57,119.7,M,47.9,M,,*41",,,,
2021-12-22T01:43:43+01:00,175,30.49,24.41,1011.50,12.20,15.60,"$GNGGA,004338.000,4900.5240,N,00825.4330,E,1,4,3.57,113.2,M,47.9,M,,*45",,,,
2021-12-22T01:44:03+01:00,176,30.49,24.42,1011.49,11.70,12.30,"$GNGGA,004358.000,4900.5261,N,00825.4369,E,1,4,3.57,111.3,M,47.9,M,,*4F",,,,
2021-12-22T01:44:23+01:00,177,30.49,24.42,1011.48,12.00,12.60,"$GNGGA,004418.000,4900.5239,N,00825.4282,E,1,3,6.52,111.4,M,47.9,M,,*45",,,,
2021-12-22T01:44:43+01:00,178,30.49,24.41,1011.49,13.10,13.90,"$GNGGA,004439.000,4900.5231,N,00825.4209,E,1,3,6.52,111.2,M,47.9,M,,*4B",,,,
2021-12-22T01:45:03+01:00,179,30.48,24.42,1011.48,13.70,15.70,"$GNGGA,004459.000,4900.5248,N,00825.4299,E,1,3,6.54,111.2,M,47.9,M,,*4C",,,,
2021-12-22T01:45:23+01:00,180,30.48,24.43,1011.48,13.60,15.10,"$GNGGA,004519.000,4900.5257,N,00825.4281,E,1,3,6.55,111.3,M,47.9,M,,*4E",,,,
2021-12-22T01:45:44+01:00,181,30.48,24.44,1011.48,13.20,16.50,"$GNGGA,004540.000,4900.5230,N,00825.4169,E,1,3,6.55,111.3,M,47.9,M,,*46",,,,
2021-12-22T01:46:04+01:00,182,30.48,24.46,1011.47,13.20,16.00,"$GNGGA,004600.000,4900.5236,N,00825.4174,E,1,3,6.57,111.2,M,47.9,M,,*48",,,,
2021-12-22T01:46:24+01:00,183,30.48,24.45,1011.47,13.10,16.30,"$GNGGA,004620.000,4900.5248,N,00825.4154,E,1,3,6.58,111.1,M,47.9,M,,*4D",,,,
2021-12-22T01:46:45+01:00,184,30.48,24.45,1011.46,13.60,17.50,"$GNGGA,004641.000,4900.5214,N,00825.3457,E,0,3,,118.7,M,47.9,M,,*59",,,,
2021-12-22T01:47:05+01:00,185,30.48,24.46,1011.46,13.40,17.70,"$GNGGA,004701.000,4900.5220,N,00825.3686,E,1,3,6.59,118.5,M,47.9,M,,*42",,,,
2021-12-22T01:47:25+01:00,186,30.48,24.46,1011.45,14.20,18.60,"$GNGGA,004721.000,4900.5258,N,00825.4346,E,0,0,,111.9,M,47.9,M,,*52",,,,
2021-12-22T01:47:45+01:00,187,30.49,24.43,1011.44,12.80,15.00,"$GNGGA,004741.000,4900.5258,N,00825.4350,E,0,0,,111.9,M,47.9,M,,*53",,,,
2021-12-22T01:48:05+01:00,188,30.49,24.45,1011.44,12.60,15.10,"$GNGGA,004801.000,4900.5258,N,00825.4350,E,0,0,,111.9,M,47.9,M,,*58",,,,
2021-12-22T01:48:25+01:00,189,30.50,24.43,1011.45,12.40,18.40,"$GNGGA,004821.000,4900.5258,N,00825.4350,E,0,0,,111.9,M,47.9,M,,*5A",,,,
2021-12-22T01:48:45+01:00,190,30.50,24.39,1011.44,12.70,20.80,"$GNGGA,004841.000,4900.5258,N,00825.4350,E,0,0,,111.9,M,47.9,M,,*5C",,,,
2021-12-22T01:49:05+01:00,191,30.51,24.40,1011.44,12.60,19.80,"$GNGGA,004901.000,4900.5258,N,00825.4350,E,0,0,,111.9,M,47.9,M,,*59",,,,
2021-12-22T01:49:25+01:00,192,30.51,24.42,1011.44,13.20,15.70,"$GNGGA,004921.000,4900.5258,N,00825.4350,E,0,0,,111.9,M,47.9,M,,*5B",,,,
2021-12-22T01:49:45+01:00,193,30.50,24.44,1011.42,13.60,15.30,"$GNGGA,004941.000,4900.5218,N,00825.4733,E,0,3,,132.0,M,47.9,M,,*53",,,,
2021-12-22T01:50:05+01:00,194,30.50,24.46,1011.42,14.00,18.10,"$GNGGA,005001.000,4900.5242,N,00825.4774,E,0,3,,134.1,M,47.9,M,,*54",,,,
2021-12-22T01:50:25+01:00,195,30.50,24.48,1011.42,12.60,17.70,"$GNGGA,005021.000,4900.5229,N,00825.4685,E,0,3,,132.8,M,47.9,M,,*5B",,,,
2021-12-22T01:50:46+01:00,196,30.50,24.46,1011.42,12.60,16.90,"$GNGGA,005042.000,4900.5192,N,00825.4518,E,1,3,6.71,132.2,M,47.9,M,,*4F",,,,
2021-12-22T01:51:06+01:00,197,30.50,24.45,1011.42,12.50,13.90,"$GNGGA,005102.000,4900.5198,N,00825.4482,E,1,3,6.72,126.6,M,47.9,M,,*40",,,,
2021-12-22T01:51:26+01:00,198,30.51,24.41,1011.42,12.90,15.10,"$GNGGA,005122.000,4900.5215,N,00825.4584,E,1,3,6.73,123.5,M,47.9,M,,*44",,,,
2021-12-22T01:51:47+01:00,199,30.50,24.44,1011.43,12.20,14.80,"$GNGGA,005143.000,4900.5212,N,00825.4608,E,1,3,6.74,121.3,M,47.9,M,,*40",,,,
2021-12-22T01:52:07+01:00,200,30.50,24.44,1011.43,11.70,13.90,"$GNGGA,005203.000,4900.5212,N,00825.4556,E,1,3,6.75,119.0,M,47.9,M,,*46",,,,
2021-12-22T01:52:27+01:00,201,30.50,24.45,1011.43,11.10,13.60,"$GNGGA,005223.000,4900.5210,N,00825.4560,E,1,3,6.77,117.4,M,47.9,M,,*4B",,,,
2021-12-22T01:52:48+01:00,202,30.49,24.43,1011.42,11.60,15.00,"$GNGGA,005244.000,4900.5236,N,00825.4621,E,1,3,6.78,116.8,M,47.9,M,,*4A",,,,
2021-12-22T01:53:08+01:00,203,30.49,24.44,1011.42,12.00,16.70,"$GNGGA,005304.000,4900.5211,N,00825.4401,E,1,3,6.79,116.5,M,47.9,M,,*46",,,,
2021-12-22T01:53:28+01:00,204,30.49,24.45,1011.42,12.20,17.30,"$GNGGA,005324.000,4900.5197,N,00825.4207,E,1,3,6.81,115.5,M,47.9,M,,*4D",,,,
2021-12-22T01:53:48+01:00,205,30.49,24.46,1011.41,12.10,15.40,"$GNGGA,005344.000,4900.5182,N,00825.4173,E,1,3,6.82,114.6,M,47.9,M,,*4E",,,,
2021-12-22T01:54:08+01:00,206,30.49,24.46,1011.40,12.10,14.50,"$GNGGA,005404.000,4900.5165,N,00825.4206,E,1,3,6.83,113.8,M,47.9,M,,*4D",,,,
2021-12-22T01:54:28+01:00,207,30.49,24.47,1011.40,11.80,12.30,"$GNGGA,005424.000,4900.5187,N,00825.4208,E,1,3,6.85,113.1,M,47.9,M,,*42",,,,
2021-12-22T01:54:48+01:00,208,30.49,24.47,1011.40,12.30,13.90,"$GNGGA,005444.000,4900.5206,N,00825.4274,E,1,3,6.86,112.9,M,47.9,M,,*4F",,,,
2021-12-22T01:55:08+01:00,209,30.49,24.48,1011.39,12.60,15.50,"$GNGGA,005504.000,4900.5222,N,00825.4401,E,1,3,6.87,112.8,M,47.9,M,,*48",,,,
2021-12-22T01:55:28+01:00,210,30.49,24.46,1011.40,12.80,15.30,"$GNGGA,005524.000,4900.5206,N,00825.4271,E,1,3,6.88,112.5,M,47.9,M,,*4F",,,,
2021-12-22T01:55:49+01:00,211,30.49,24.45,1011.39,12.70,13.50,"$GNGGA,005545.000,4900.5165,N,00825.3937,E,1,3,6.89,112.3,M,47.9,M,,*47",,,,
2021-12-22T01:56:09+01:00,212,30.49,24.47,1011.38,12.40,13.00,"$GNGGA,005605.000,4900.5165,N,00825.3804,E,1,3,6.92,112.1,M,47.9,M,,*49",,,,
2021-12-22T01:56:30+01:00,213,30.49,24.45,1011.37,13.70,14.40,"$GNGGA,005625.000,4900.5179,N,00825.4103,E,1,3,6.93,111.8,M,47.9,M,,*44",,,,
2021-12-22T01:56:50+01:00,214,30.48,24.46,1011.35,14.50,15.30,"$GNGGA,005646.000,4900.5200,N,00825.4223,E,1,3,6.94,111.9,M,47.9,M,,*4B",,,,
2021-12-22T01:57:10+01:00,215,30.48,24.48,1011.34,14.70,15.50,"$GNGGA,005706.000,4900.5207,N,00825.4288,E,1,3,6.95,112.0,M,47.9,M,,*43",,,,
2021-12-22T01:57:30+01:00,216,30.48,24.48,1011.34,14.00,17.10,"$GNGGA,005726.000,4900.5227,N,00825.4251,E,1,3,6.97,111.8,M,47.9,M,,*4E",,,,
2021-12-22T01:57:51+01:00,217,30.49,24.48,1011.34,13.70,17.80,"$GNGGA,005747.000,4900.5201,N,00825.4524,E,1,3,6.99,111.6,M,47.9,M,,*48",,,,
2021-12-22T01:58:11+01:00,218,30.49,24.49,1011.33,13.40,17.70,"$GNGGA,005807.000,4900.5217,N,00825.4649,E,1,3,7.00,111.5,M,47.9,M,,*4E",,,,
2021-12-22T01:58:31+01:00,219,30.49,24.49,1011.33,13.20,17.20,"$GNGGA,005827.000,4900.5220,N,00825.4430,E,1,3,7.01,111.6,M,47.9,M,,*46",,,,
2021-12-22T01:58:52+01:00,220,30.49,24.48,1011.31,13.00,17.40,"$GNGGA,005848.000,4900.5236,N,00825.4468,E,1,3,7.03,111.6,M,47.9,M,,*47",,,,
2021-12-22T01:59:12+01:00,221,30.49,24.51,1011.30,12.60,15.60,"$GNGGA,005908.000,4900.5259,N,00825.4896,E,1,3,7.05,111.3,M,47.9,M,,*45",,,,
2021-12-22T01:59:32+01:00,222,30.49,24.51,1011.29,12.30,14.20,"$GNGGA,005928.000,4900.5223,N,00825.4694,E,6,2,99.99,111.3,M,47.9,M,,*72",,,,
2021-12-22T01:59:53+01:00,223,30.50,24.51,1011.29,11.10,13.20,"$GNGGA,005949.000,4900.5236,N,00825.4384,E,0,0,,111.8,M,47.9,M,,*54",,,,
2021-12-22T02:00:13+01:00,224,30.50,24.53,1011.28,11.40,13.80,"$GNGGA,010009.000,4900.5204,N,00825.4341,E,0,3,,100.5,M,47.9,M,,*5B",,,,
2021-12-22T02:00:33+01:00,225,30.50,24.52,1011.27,11.80,15.40,"$GNGGA,010029.000,4900.5227,N,00825.5157,E,0,3,,139.1,M,47.9,M,,*52",,,,
2021-12-22T02:00:53+01:00,226,30.50,24.53,1011.26,12.00,15.20,"$GNGGA,010049.000,4900.5146,N,00825.2978,E,0,3,,24.4,M,47.9,M,,*6A",,,,
2021-12-22T02:01:13+01:00,227,30.51,24.56,1011.27,11.50,14.90,"$GNGGA,010109.000,4900.5152,N,00825.2873,E,1,3,7.15,26.0,M,47.9,M,,*7A",,,,
2021-12-22T02:01:33+01:00,228,30.51,24.56,1011.26,11.50,14.10,"$GNGGA,010129.000,4900.5124,N,00825.2749,E,1,3,7.17,28.2,M,47.9,M,,*71",,,,
2021-12-22T02:01:54+01:00,229,30.51,24.58,1011.26,11.40,15.50,"$GNGGA,010150.000,4900.5156,N,00825.2894,E,1,3,7.18,30.8,M,47.9,M,,*79",,,,
2021-12-22T02:02:14+01:00,230,30.51,24.59,1011.25,11.60,17.30,"$GNGGA,010210.000,4900.5215,N,00825.3251,E,1,3,7.20,34.1,M,47.9,M,,*7E",,,,
2021-12-22T02:02:34+01:00,231,30.51,24.64,1011.25,11.30,16.30,"$GNGGA,010230.000,4900.5221,N,00825.3350,E,1,3,7.21,38.0,M,47.9,M,,*77",,,,
2021-12-22T02:02:54+01:00,232,30.51,24.63,1011.24,11.60,16.40,"$GNGGA,010250.000,4900.5155,N,00825.2968,E,1,3,7.24,41.7,M,47.9,M,,*7D",,,,
2021-12-22T02:03:14+01:00,233,30.52,24.63,1011.24,12.10,16.10,"$GNGGA,010310.000,4900.5166,N,00825.2676,E,0,0,,44.8,M,47.9,M,,*6F",,,,
2021-12-22T02:03:34+01:00,234,30.52,24.65,1011.23,11.60,15.00,"$GNGGA,010330.000,4900.5002,N,00825.3230,E,0,0,,101.2,M,47.9,M,,*53",,,,
2021-12-22T02:03:54+01:00,235,30.53,24.66,1011.23,11.30,15.40,"$GNGGA,010350.000,4900.5002,N,00825.3230,E,0,0,,101.2,M,47.9,M,,*55",,,,
2021-12-22T02:04:14+01:00,236,30.53,24.64,1011.23,10.70,15.00,"$GNGGA,010410.000,4900.5339,N,00825.5646,E,0,3,,105.5,M,47.9,M,,*5E",,,,
2021-12-22T02:04:34+01:00,237,30.53,24.67,1011.23,11.50,16.50,"$GNGGA,010430.000,4900.5316,N,00825.5277,E,0,3,,110.7,M,47.9,M,,*51",,,,
2021-12-22T02:04:55+01:00,238,30.53,24.67,1011.23,11.10,13.30,"$GNGGA,010451.000,4900.5246,N,00825.4567,E,1,3,7.35,110.9,M,47.9,M,,*45",,,,
2021-12-22T02:05:15+01:00,239,30.53,24.68,1011.24,12.00,13.70,"$GNGGA,010511.000,4900.5264,N,00825.4637,E,0,2,,110.8,M,47.9,M,,*58",,,,
2021-12-22T02:05:35+01:00,240,30.53,24.69,1011.23,11.90,15.20,"$GNGGA,010531.000,4900.5229,N,00825.4590,E,0,0,,102.1,M,47.9,M,,*55",,,,
2021-12-22T02:05:55+01:00,241,30.53,24.69,1011.25,12.80,17.30,"$GNGGA,010551.000,4900.5229,N,00825.4590,E,0,0,,102.1,M,47.9,M,,*53",,,,
2021-12-22T02:06:15+01:00,242,30.53,24.67,1011.25,12.70,18.00,"$GNGGA,010611.000,4900.5229,N,00825.4590,E,0,0,,102.1,M,47.9,M,,*54",,,,
2021-12-22T02:06:35+01:00,243,30.53,24.67,1011.27,13.50,17.00,"$GNGGA,010631.000,4900.5217,N,00825.4726,E,0,3,,111.3,M,47.9,M,,*57",,,,
2021-12-22T02:06:55+01:00,244,30.53,24.64,1011.27,14.00,15.80,"$GNGGA,010651.000,4900.5208,N,00825.4558,E,0,3,,111.0,M,47.9,M,,*57",,,,
2021-12-22T02:07:15+01:00,245,30.52,24.65,1011.27,13.90,15.40,"$GNGGA,010711.000,4900.5231,N,00825.4452,E,1,3,7.47,110.8,M,47.9,M,,*41",,,,
2021-12-22T02:07:35+01:00,246,30.53,24.66,1011.28,13.60,17.50,"$GNGGA,010731.000,4900.5247,N,00825.4414,E,1,3,7.50,110.7,M,47.9,M,,*49",,,,
2021-12-22T02:07:55+01:00,247,30.53,24.66,1011.29,12.90,17.50,"$GNGGA,010751.000,4900.5235,N,00825.4274,E,1,3,7.52,110.7,M,47.9,M,,*48",,,,
2021-12-22T02:08:15+01:00,248,30.53,24.66,1011.29,12.10,17.70,"$GNGGA,010811.000,4900.5253,N,00825.4579,E,1,3,7.54,110.8,M,47.9,M,,*40",,,,
2021-12-22T02:08:35+01:00,249,30.53,24.68,1011.31,11.20,15.20,"$GNGGA,010831.000,4900.5293,N,00825.4776,E,1,3,7.56,110.8,M,47.9,M,,*41",,,,
2021-12-22T02:08:56+01:00,250,30.53,24.69,1011.32,11.50,15.60,"$GNGGA,010852.000,4900.5238,N,00825.4115,E,1,3,7.58,111.2,M,47.9,M,,*43",,,,
2021-12-22T02:09:16+01:00,251,30.52,24.71,1011.33,11.40,14.40,"$GNGGA,010912.000,4900.5259,N,00825.3784,E,0,0,,102.3,M,47.9,M,,*5D",,,,
2021-12-22T02:09:36+01:00,252,30.52,24.71,1011.34,12.40,14.70,"$GNGGA,010932.000,4900.5259,N,00825.3783,E,0,0,,102.3,M,47.9,M,,*58",,,,
2021-12-22T02:09:56+01:00,253,30.52,24.72,1011.35,12.00,15.50,"$GNGGA,010952.000,4900.5260,N,00825.3780,E,0,0,,102.1,M,47.9,M,,*55",,,,
2021-12-22T02:10:16+01:00,254,30.53,24.70,1011.36,11.80,16.00,"$GNGGA,011012.000,4900.5260,N,00825.3780,E,0,0,,102.1,M,47.9,M,,*59",,,,
2021-12-22T02:10:36+01:00,255,30.54,24.68,1011.37,10.60,16.50,"$GNGGA,011032.000,4900.5260,N,00825.3780,E,0,0,,102.1,M,47.9,M,,*5B",,,,
2021-12-22T02:10:56+01:00,256,30.54,24.68,1011.38,11.80,15.90,"$GNGGA,011052.000,4900.5260,N,00825.3780,E,0,0,,102.1,M,47.9,M,,*5D",,,,
2021-12-22T02:11:16+01:00,257,30.54,24.73,1011.38,12.40,16.10,"$GNGGA,011112.000,4900.5260,N,00825.3780,E,0,0,,102.1,M,47.9,M,,*58",,,,
2021-12-22T02:11:36+01:00,258,30.54,24.74,1011.39,12.30,13.60,"$GNGGA,011132.000,4900.5260,N,00825.3780,E,0,0,,102.1,M,47.9,M,,*5A",,,,
2021-12-22T02:11:56+01:00,259,30.53,24.75,1011.40,10.90,13.00,"$GNGGA,011152.000,4900.5260,N,00825.3780,E,0,0,,102.1,M,47.9,M,,*5C",,,,
2021-12-22T02:12:16+01:00,260,30.53,24.75,1011.40,10.80,11.40,"$GNGGA,011212.000,4900.5260,N,00825.3780,E,0,0,,102.1,M,47.9,M,,*5B",,,,
2021-12-22T02:12:36+01:00,261,30.53,24.75,1011.39,11.60,14.30,"$GNGGA,011232.000,4900.5260,N,00825.3780,E,0,0,,102.1,M,47.9,M,,*59",,,,
2021-12-22T02:12:57+01:00,262,30.53,24.78,1011.39,11.80,16.70,"$GNGGA,011253.000,4900.5260,N,00825.3780,E,0,0,,102.1,M,47.9,M,,*5E",,,,
2021-12-22T02:13:17+01:00,263,30.53,24.76,1011.39,12.30,18.00,"$GNGGA,011313.000,4900.5260,N,00825.3780,E,0,0,,102.1,M,47.9,M,,*5B",,,,
2021-12-22T02:13:37+01:00,264,30.53,24.79,1011.40,11.10,15.10,"$GNGGA,011333.000,4900.5260,N,00825.3780,E,0,0,,102.1,M,47.9,M,,*59",,,,
2021-12-22T02:13:57+01:00,265,30.52,24.78,1011.40,10.90,13.80,"$GNGGA,011353.000,4900.5260,N,00825.3780,E,0,0,,102.1,M,47.9,M,,*5F",,,,
2021-12-22T02:14:17+01:00,266,30.52,24.79,1011.40,10.10,12.50,"$GNGGA,011413.000,4900.5260,N,00825.3780,E,0,0,,102.1,M,47.9,M,,*5C",,,,
2021-12-22T02:14:37+01:00,267,30.52,24.78,1011.40,10.70,13.20,"$GNGGA,011433.000,4900.5260,N,00825.3780,E,0,0,,102.1,M,47.9,M,,*5E",,,,
2021-12-22T02:14:57+01:00,268,30.52,24.80,1011.39,11.40,12.00,"$GNGGA,011453.000,4900.5195,N,00825.4291,E,0,3,,110.7,M,47.9,M,,*55",,,,
2021-12-22T02:15:17+01:00,269,30.52,24.82,1011.39,11.70,12.30,"$GNGGA,011513.000,4900.5176,N,00825.4001,E,1,3,8.03,111.0,M,47.9,M,,*44",,,,
2021-12-22T02:15:37+01:00,270,30.53,24.83,1011.39,11.20,11.80,"$GNGGA,011533.000,4900.5200,N,00825.4304,E,1,3,8.06,111.1,M,47.9,M,,*46",,,,
2021-12-22T02:15:58+01:00,271,30.53,24.82,1011.40,11.20,13.10,"$GNGGA,011554.000,4900.5183,N,00825.4451,E,1,3,8.09,111.2,M,47.9,M,,*44",,,,
2021-12-22T02:16:18+01:00,272,30.52,24.87,1011.40,11.60,14.20,"$GNGGA,011614.000,4900.5197,N,00825.4608,E,1,3,8.11,111.5,M,47.9,M,,*46",,,,
2021-12-22T02:16:38+01:00,273,30.52,24.90,1011.39,11.70,14.10,"$GNGGA,011634.000,4900.5205,N,00825.4561,E,1,3,8.15,111.3,M,47.9,M,,*42",,,,
2021-12-22T02:16:59+01:00,274,30.52,24.89,1011.39,11.00,12.20,"$GNGGA,011655.000,4900.5181,N,00825.4505,E,1,3,8.17,111.3,M,47.9,M,,*4A",,,,
2021-12-22T02:17:19+01:00,275,30.52,24.88,1011.38,10.40,12.30,"$GNGGA,011715.000,4900.5107,N,00825.4393,E,1,3,8.20,111.2,M,47.9,M,,*4D",,,,
2021-12-22T02:17:39+01:00,276,30.53,24.86,1011.38,11.20,13.30,"$GNGGA,011735.000,4900.5134,N,00825.4393,E,1,3,8.23,111.1,M,47.9,M,,*4F",,,,
2021-12-22T02:18:00+01:00,277,30.53,24.85,1011.37,11.30,13.70,"$GNGGA,011756.000,4900.5166,N,00825.4406,E,1,3,8.26,111.1,M,47.9,M,,*43",,,,
2021-12-22T02:18:20+01:00,278,30.54,24.81,1011.38,11.80,13.00,"$GNGGA,011816.000,4900.5148,N,00825.4180,E,1,3,8.28,111.1,M,47.9,M,,*41",,,,
2021-12-22T02:18:40+01:00,279,30.55,24.81,1011.38,12.20,12.80,"$GNGGA,011836.000,4900.5137,N,00825.3645,E,1,3,8.31,111.2,M,47.9,M,,*49",,,,
2021-12-22T02:19:00+01:00,280,30.55,24.83,1011.38,12.70,13.40,"$GNGGA,011856.000,4900.5182,N,00825.4550,E,1,3,8.35,111.2,M,47.9,M,,*45",,,,
2021-12-22T02:19:20+01:00,281,30.55,24.88,1011.38,12.70,13.30,"$GNGGA,011916.000,4900.5183,N,00825.4111,E,1,3,8.37,111.3,M,47.9,M,,*43",,,,
2021-12-22T02:19:40+01:00,282,30.55,24.87,1011.38,12.30,13.60,"$GNGGA,011936.000,4900.5146,N,00825.4160,E,1,3,8.40,111.3,M,47.9,M,,*4E",,,,
2021-12-22T02:20:00+01:00,283,30.55,24.90,1011.38,11.60,12.70,"$GNGGA,011956.000,4900.5163,N,00825.4546,E,1,3,8.43,111.3,M,47.9,M,,*4C",,,,
2021-12-22T02:20:20+01:00,284,30.55,24.92,1011.38,11.80,14.50,"$GNGGA,012016.000,4900.5170,N,00825.4158,E,1,3,8.47,111.5,M,47.9,M,,*49",,,,
2021-12-22T02:20:40+01:00,285,30.54,24.91,1011.38,11.80,15.40,"$GNGGA,012036.000,4900.5214,N,00825.4394,E,1,3,8.49,111.6,M,47.9,M,,*45",,,,
2021-12-22T02:21:01+01:00,286,30.55,24.90,1011.39,12.50,16.90,"$GNGGA,012057.000,4900.5220,N,00825.4288,E,1,3,8.53,111.6,M,47.9,M,,*42",,,,
2021-12-22T02:21:21+01:00,287,30.54,24.89,1011.39,12.60,16.20,"$GNGGA,012117.000,4900.5178,N,00825.4314,E,1,3,8.56,111.7,M,47.9,M,,*49",,,,
2021-12-22T02:21:41+01:00,288,30.55,24.88,1011.38,13.20,16.20,"$GNGGA,012137.000,4900.5152,N,00825.4255,E,1,3,8.59,111.6,M,47.9,M,,*49",,,,
2021-12-22T02:22:01+01:00,289,30.54,24.90,1011.38,13.10,14.90,"$GNGGA,012157.000,4900.5188,N,00825.4395,E,1,3,8.63,111.5,M,47.9,M,,*4F",,,,
2021-12-22T02:22:21+01:00,290,30.54,24.90,1011.38,12.80,15.20,"$GNGGA,012217.000,4900.5215,N,00825.4595,E,1,3,8.65,111.4,M,47.9,M,,*4E",,,,
2021-12-22T02:22:41+01:00,291,30.54,24.91,1011.37,12.00,14.50,"$GNGGA,012237.000,4900.5224,N,00825.4638,E,1,3,8.69,111.5,M,47.9,M,,*47",,,,
2021-12-22T02:23:01+01:00,292,30.54,24.91,1011.38,12.20,17.70,"$GNGGA,012257.000,4900.5237,N,00825.4947,E,1,3,8.72,111.6,M,47.9,M,,*4D",,,,
2021-12-22T02:23:21+01:00,293,30.54,24.91,1011.38,12.20,15.80,"$GNGGA,012317.000,4900.5236,N,00825.4998,E,1,3,8.76,111.8,M,47.9,M,,*41",,,,
2021-12-22T02:23:41+01:00,294,30.54,24.90,1011.39,11.50,14.80,"$GNGGA,012337.000,4900.5227,N,00825.5229,E,1,3,8.79,111.8,M,47.9,M,,*4C",,,,
2021-12-22T02:24:02+01:00,295,30.54,24.93,1011.39,11.10,13.80,"$GNGGA,012358.000,4900.5247,N,00825.5559,E,0,3,,109.2,M,47.9,M,,*59",,,,
2021-12-22T02:24:22+01:00,296,30.54,24.97,1011.39,10.80,16.60,"$GNGGA,012418.000,4900.5244,N,00825.5499,E,0,3,,110.4,M,47.9,M,,*5A",,,,
2021-12-22T02:24:42+01:00,297,30.54,24.97,1011.39,11.30,17.10,"$GNGGA,012438.000,4900.5276,N,00825.5297,E,0,0,,102.2,M,47.9,M,,*57",,,,
2021-12-22T02:25:02+01:00,298,30.54,24.98,1011.39,10.50,14.10,"$GNGGA,012458.000,4900.5276,N,00825.5297,E,0,0,,102.2,M,47.9,M,,*51",,,,
2021-12-22T02:25:22+01:00,299,30.54,25.00,1011.38,10.30,11.10,"$GNGGA,012518.000,4900.5276,N,00825.5297,E,0,0,,102.2,M,47.9,M,,*54",,,,
2021-12-22T02:25:42+01:00,300,30.54,24.97,1011.39,10.40,12.90,"$GNGGA,012538.000,4900.5202,N,00825.4215,E,0,3,,110.4,M,47.9,M,,*58",,,,
2021-12-22T02:26:02+01:00,301,30.54,24.99,1011.38,11.50,14.20,"$GNGGA,012558.000,4900.5173,N,00825.3961,E,0,3,,111.1,M,47.9,M,,*50",,,,
2021-12-22T02:26:22+01:00,302,30.53,25.00,1011.39,11.30,13.80,"$GNGGA,012618.000,4900.5222,N,00825.4955,E,0,3,,111.0,M,47.9,M,,*51",,,,
2021-12-22T02:26:42+01:00,303,30.54,25.00,1011.38,10.80,13.30,"$GNGGA,012638.000,4900.5233,N,00825.4758,E,0,3,,111.1,M,47.9,M,,*51",,,,
2021-12-22T02:27:03+01:00,304,30.53,25.02,1011.39,10.80,15.40,"$GNGGA,012659.000,4900.5242,N,00825.5001,E,1,3,9.16,111.2,M,47.9,M,,*48",,,,
2021-12-22T02:27:23+01:00,305,30.53,25.03,1011.40,11.80,16.50,"$GNGGA,012719.000,4900.5227,N,00825.4527,E,1,3,9.19,111.5,M,47.9,M,,*46",,,,
2021-12-22T02:27:43+01:00,306,30.53,25.03,1011.40,12.90,16.00,"$GNGGA,012739.000,4900.5178,N,00825.3565,E,0,3,,111.8,M,47.9,M,,*5F",,,,
2021-12-22T02:28:03+01:00,307,30.53,25.05,1011.40,12.60,15.30,"$GNGGA,012759.000,4900.5194,N,00825.4171,E,0,3,,111.8,M,47.9,M,,*5D",,,,
2021-12-22T02:28:23+01:00,308,30.53,25.06,1011.40,12.40,15.70,"$GNGGA,012819.000,4900.5216,N,00825.4176,E,1,3,9.30,111.6,M,47.9,M,,*43",,,,
2021-12-22T02:28:43+01:00,309,30.53,25.09,1011.41,11.40,16.90,"$GNGGA,012839.000,4900.5217,N,00825.4177,E,1,3,9.35,111.6,M,47.9,M,,*44",,,,
2021-12-22T02:29:04+01:00,310,30.53,25.11,1011.41,12.00,15.10,"$GNGGA,012900.000,4900.5213,N,00825.4185,E,1,3,9.39,111.7,M,47.9,M,,*4B",,,,
2021-12-22T02:29:24+01:00,311,30.53,25.15,1011.40,11.30,14.70,"$GNGGA,012920.000,4900.5212,N,00825.4184,E,1,3,9.43,111.7,M,47.9,M,,*44",,,,
2021-12-22T02:29:44+01:00,312,30.53,25.23,1011.40,11.00,13.30,"$GNGGA,012940.000,4900.5216,N,00825.4182,E,1,3,9.47,111.8,M,47.9,M,,*4B",,,,
2021-12-22T02:30:05+01:00,313,30.53,25.27,1011.41,10.40,13.20,"$GNGGA,013001.000,4900.5213,N,00825.4191,E,1,3,9.52,111.9,M,47.9,M,,*44",,,,
2021-12-22T02:30:25+01:00,314,30.54,25.29,1011.41,11.30,12.90,"$GNGGA,013021.000,4900.5215,N,00825.4183,E,1,3,9.57,111.8,M,47.9,M,,*47",,,,
2021-12-22T02:30:45+01:00,315,30.55,25.27,1011.41,12.10,13.60,"$GNGGA,013041.000,4900.5220,N,00825.4180,E,1,3,9.61,111.8,M,47.9,M,,*41",,,,
2021-12-22T02:31:06+01:00,316,30.55,25.26,1011.41,11.90,14.20,"$GNGGA,013102.000,4900.5216,N,00825.4184,E,1,3,9.65,111.7,M,47.9,M,,*4D",,,,
2021-12-22T02:31:26+01:00,317,30.55,25.31,1011.41,12.00,15.30,"$GNGGA,013122.000,4900.5219,N,00825.4180,E,1,3,9.69,111.5,M,47.9,M,,*4A",,,,
2021-12-22T02:31:46+01:00,318,30.55,25.31,1011.41,11.70,15.00,"$GNGGA,013142.000,4900.5220,N,00825.4180,E,1,3,9.74,111.4,M,47.9,M,,*4B",,,,
2021-12-22T02:32:07+01:00,319,30.55,25.31,1011.41,12.40,15.30,"$GNGGA,013203.000,4900.5221,N,00825.4199,E,1,3,9.78,111.6,M,47.9,M,,*4A",,,,
2021-12-22T02:32:27+01:00,320,30.54,25.29,1011.41,12.20,18.10,"$GNGGA,013223.000,4900.5149,N,00825.3970,E,1,3,9.83,111.8,M,47.9,M,,*47",,,,
2021-12-22T02:32:47+01:00,321,30.54,25.31,1011.41,12.40,18.10,"$GNGGA,013243.000,4900.5166,N,00825.4342,E,0,3,,112.0,M,47.9,M,,*56",,,,
2021-12-22T02:33:07+01:00,322,30.55,25.33,1011.41,12.00,18.00,"$GNGGA,013303.000,4900.5200,N,00825.2921,E,0,3,,112.3,M,47.9,M,,*5A",,,,
2021-12-22T02:33:27+01:00,323,30.55,25.35,1011.41,11.30,13.70,"$GNGGA,013323.000,4900.5186,N,00825.1155,E,0,3,,112.9,M,47.9,M,,*57",,,,
2021-12-22T02:33:47+01:00,324,30.55,25.33,1011.41,11.70,12.90,"$GNGGA,013343.000,4900.5265,N,00824.8671,E,0,2,,111.7,M,47.9,M,,*5A",,,,
2021-12-22T02:34:08+01:00,325,30.55,25.31,1011.41,11.70,12.60,"$GNGGA,013404.000,4900.5279,N,00824.8257,E,0,0,,102.1,M,47.9,M,,*55",,,,
2021-12-22T02:34:28+01:00,326,30.54,25.30,1011.41,12.10,12.80,"$GNGGA,013424.000,4900.5279,N,00824.8257,E,0,0,,102.1,M,47.9,M,,*57",,,,
2021-12-22T02:34:48+01:00,327,30.54,25.28,1011.41,11.60,12.20,"$GNGGA,013444.000,4900.5279,N,00824.8257,E,0,0,,102.1,M,47.9,M,,*51",,,,
2021-12-22T02:35:09+01:00,328,30.53,25.29,1011.40,12.00,12.70,"$GNGGA,013505.000,4900.5279,N,00824.8257,E,0,0,,102.1,M,47.9,M,,*55",,,,
2021-12-22T02:35:29+01:00,329,30.53,25.30,1011.41,11.20,12.90,"$GNGGA,013525.000,4900.5279,N,00824.8257,E,0,0,,102.1,M,47.9,M,,*57",,,,
2021-12-22T02:35:49+01:00,330,30.53,25.29,1011.41,10.90,14.90,"$GNGGA,013545.000,4900.5279,N,00824.8257,E,0,0,,102.1,M,47.9,M,,*51",,,,
2021-12-22T02:36:09+01:00,331,30.53,25.25,1011.42,10.80,14.10,"$GNGGA,013605.000,4900.5279,N,00824.8257,E,0,0,,102.1,M,47.9,M,,*56",,,,
2021-12-22T02:36:29+01:00,332,30.53,25.27,1011.42,11.50,15.60,"$GNGGA,013625.000,4900.5279,N,00824.8257,E,0,0,,102.1,M,47.9,M,,*54",,,,
2021-12-22T02:36:49+01:00,333,30.53,25.26,1011.42,12.50,15.30,"$GNGGA,013645.000,4900.5279,N,00824.8257,E,0,0,,102.1,M,47.9,M,,*52",,,,
2021-12-22T02:37:09+01:00,334,30.53,25.27,1011.42,12.00,14.70,"$GNGGA,013705.000,4900.5279,N,00824.8257,E,0,0,,102.1,M,47.9,M,,*57",,,,
2021-12-22T02:37:29+01:00,335,30.53,25.26,1011.43,11.80,13.30,"$GNGGA,013725.000,4900.5279,N,00824.8257,E,0,0,,102.1,M,47.9,M,,*55",,,,
2021-12-22T02:37:49+01:00,336,30.54,25.26,1011.44,11.60,12.20,"$GNGGA,013745.000,4900.5279,N,00824.8257,E,0,0,,102.1,M,47.9,M,,*53",,,,
2021-12-22T02:38:09+01:00,337,30.54,25.26,1011.45,12.20,12.90,"$GNGGA,013805.000,4900.5279,N,00824.8257,E,0,0,,102.1,M,47.9,M,,*58",,,,
2021-12-22T02:38:29+01:00,338,30.55,25.25,1011.45,12.10,13.00,"$GNGGA,013825.000,4900.5279,N,00824.8257,E,0,0,,102.1,M,47.9,M,,*5A",,,,
2021-12-22T02:38:49+01:00,339,30.55,25.25,1011.46,11.40,13.40,"$GNGGA,013845.000,4900.5279,N,00824.8257,E,0,0,,102.1,M,47.9,M,,*5C",,,,
2021-12-22T02:39:10+01:00,340,30.56,25.24,1011.46,10.50,12.80,"$GNGGA,013906.000,4900.5279,N,00824.8257,E,0,0,,102.1,M,47.9,M,,*5A",,,,
2021-12-22T02:39:30+01:00,341,30.56,25.23,1011.47,11.70,15.30,"$GNGGA,013926.000,4900.5279,N,00824.8257,E,0,0,,102.1,M,47.9,M,,*58",,,,
2021-12-22T02:39:50+01:00,342,30.57,25.26,1011.48,12.10,14.80,"$GNGGA,013946.000,4900.5279,N,00824.8257,E,0,0,,102.1,M,47.9,M,,*5E",,,,
2021-12-22T02:40:11+01:00,343,30.57,25.27,1011.49,12.40,16.00,"$GNGGA,014007.000,4900.5279,N,00824.8257,E,0,0,,102.1,M,47.9,M,,*55",,,,
2021-12-22T02:40:31+01:00,344,30.57,25.25,1011.50,10.80,13.20,"$GNGGA,014027.000,4900.5233,N,00825.4827,E,0,3,,109.9,M,47.9,M,,*59",,,,
2021-12-22T02:40:51+01:00,345,30.57,25.25,1011.52,10.30,12.90,"$GNGGA,014047.000,4900.5174,N,00825.4361,E,0,3,,110.5,M,47.9,M,,*52",,,,
2021-12-22T02:41:11+01:00,346,30.57,25.27,1011.52,10.30,13.20,"$GNGGA,014107.000,4900.5158,N,00825.4330,E,0,3,,110.5,M,47.9,M,,*5D",,,,
2021-12-22T02:41:31+01:00,347,30.56,25.26,1011.54,10.50,12.90,"$GNGGA,014127.000,4900.5265,N,00825.4529,E,0,3,,110.7,M,47.9,M,,*5E",,,,
2021-12-22T02:41:51+01:00,348,30.57,25.27,1011.56,10.90,13.60,"$GNGGA,014147.000,4900.5289,N,00825.5353,E,0,3,,110.8,M,47.9,M,,*5F",,,,
2021-12-22T02:42:12+01:00,349,30.57,25.28,1011.57,11.00,13.30,"$GNGGA,014208.000,4900.5248,N,00825.4973,E,0,3,,110.6,M,47.9,M,,*5D",,,,
2021-12-22T02:42:32+01:00,350,30.56,25.29,1011.57,10.90,14.00,"$GNGGA,014228.000,4900.5094,N,00825.4079,E,0,3,,110.8,M,47.9,M,,*51",,,,
2021-12-22T02:42:52+01:00,351,30.56,25.30,1011.58,9.50,13.60,"$GNGGA,014248.000,4900.5116,N,00825.4011,E,0,3,,110.8,M,47.9,M,,*52",,,,
2021-12-22T02:43:13+01:00,352,30.56,25.29,1011.60,9.50,12.50,"$GNGGA,014309.000,4900.5115,N,00825.4139,E,1,3,11.63,110.8,M,47.9,M,,*74",,,,
2021-12-22T02:43:33+01:00,353,30.56,25.32,1011.61,10.30,12.70,"$GNGGA,014329.000,4900.5122,N,00825.4145,E,1,3,11.69,110.5,M,47.9,M,,*7E",,,,
2021-12-22T02:43:53+01:00,354,30.56,25.34,1011.62,12.40,14.10,"$GNGGA,014349.000,4900.5118,N,00825.4144,E,1,3,11.76,110.0,M,47.9,M,,*7B",,,,
2021-12-22T02:44:14+01:00,355,30.57,25.33,1011.63,12.10,13.80,"$GNGGA,014410.000,4900.5123,N,00825.4149,E,1,3,11.83,109.4,M,47.9,M,,*73",,,,
2021-12-22T02:44:34+01:00,356,30.57,25.31,1011.64,11.10,14.00,"$GNGGA,014430.000,4900.5125,N,00825.4148,E,1,3,11.91,109.1,M,47.9,M,,*70",,,,
2021-12-22T02:44:54+01:00,357,30.57,25.31,1011.65,9.20,11.20,"$GNGGA,014450.000,4900.5130,N,00825.4146,E,1,3,11.98,108.9,M,47.9,M,,*7C",,,,
2021-12-22T02:45:15+01:00,358,30.57,25.34,1011.66,9.70,12.80,"$GNGGA,014511.000,4900.5129,N,00825.4144,E,1,3,12.06,108.7,M,47.9,M,,*78",,,,
2021-12-22T02:45:35+01:00,359,30.57,25.36,1011.66,10.40,13.80,"$GNGGA,014531.000,4900.5133,N,00825.4141,E,1,3,12.13,108.2,M,47.9,M,,*75",,,,
2021-12-22T02:45:55+01:00,360,30.57,25.36,1011.66,11.20,14.60,"$GNGGA,014551.000,4900.5134,N,00825.4142,E,1,3,12.20,107.4,M,47.9,M,,*7E",,,,
2021-12-22T02:46:15+01:00,361,30.57,25.36,1011.67,11.40,14.60,"$GNGGA,014611.000,4900.5160,N,00825.4174,E,1,3,12.28,107.0,M,47.9,M,,*71",,,,
2021-12-22T02:46:35+01:00,362,30.57,25.35,1011.67,11.30,15.30,"$GNGGA,014631.000,4900.5147,N,00825.4105,E,1,3,12.36,106.7,M,47.9,M,,*79",,,,
2021-12-22T02:46:55+01:00,363,30.57,25.38,1011.66,10.80,14.60,"$GNGGA,014651.000,4900.5219,N,00825.4426,E,0,3,,106.4,M,47.9,M,,*59",,,,
2021-12-22T02:47:15+01:00,364,30.58,25.38,1011.66,10.90,14.90,"$GNGGA,014711.000,4900.5158,N,00825.4015,E,0,3,,106.4,M,47.9,M,,*5E",,,,
2021-12-22T02:47:35+01:00,365,30.58,25.36,1011.66,11.60,12.20,"$GNGGA,014731.000,4900.5167,N,00825.4115,E,0,3,,106.5,M,47.9,M,,*50",,,,
2021-12-22T02:47:55+01:00,366,30.58,25.38,1011.66,12.10,13.50,"$GNGGA,014751.000,4900.5170,N,00825.4363,E,0,3,,106.7,M,47.9,M,,*51",,,,
2021-12-22T02:48:15+01:00,367,30.58,25.39,1011.66,11.80,13.90,"$GNGGA,014811.000,4900.5193,N,00825.4681,E,0,3,,106.9,M,47.9,M,,*50",,,,
2021-12-22T02:48:35+01:00,368,30.57,25.39,1011.67,11.30,16.50,"$GNGGA,014831.000,4900.5103,N,00825.3855,E,0,3,,107.3,M,47.9,M,,*50",,,,
2021-12-22T02:48:55+01:00,369,30.57,25.40,1011.69,10.50,14.80,"$GNGGA,014851.000,4900.5094,N,00825.3239,E,0,3,,107.7,M,47.9,M,,*5D",,,,
2021-12-22T02:49:15+01:00,370,30.57,25.40,1011.69,10.00,12.40,"$GNGGA,014911.000,4900.4854,N,00825.1445,E,0,3,,108.3,M,47.9,M,,*59",,,,
2021-12-22T02:49:35+01:00,371,30.57,25.44,1011.70,9.30,9.80,"$GNGGA,014931.000,4900.4512,N,00824.8656,E,0,3,,109.4,M,47.9,M,,*5A",,,,
2021-12-22T02:49:55+01:00,372,30.57,25.44,1011.71,9.80,10.30,"$GNGGA,014951.000,4900.4068,N,00824.5132,E,0,4,,110.5,M,47.9,M,,*52",,,,
2021-12-22T02:50:15+01:00,373,30.57,25.44,1011.72,9.90,10.40,"$GNGGA,015011.000,4900.3473,N,00824.0390,E,0,4,,114.0,M,47.9,M,,*59",,,,
2021-12-22T02:50:35+01:00,374,30.56,25.43,1011.72,10.70,11.90,"$GNGGA,015031.000,4900.2929,N,00823.5674,E,0,3,,118.1,M,47.9,M,,*5F",,,,
2021-12-22T02:50:55+01:00,375,30.56,25.45,1011.72,11.30,14.00,"$GNGGA,015051.000,4900.2345,N,00823.0994,E,0,3,,121.8,M,47.9,M,,*5E",,,,
2021-12-22T02:51:15+01:00,376,30.56,25.46,1011.72,12.40,15.40,"$GNGGA,015111.000,4900.1811,N,00822.6344,E,0,3,,125.5,M,47.9,M,,*5B",,,,
2021-12-22T02:51:35+01:00,377,30.56,25.47,1011.72,12.60,16.20,"$GNGGA,015131.000,4900.1302,N,00822.1807,E,0,3,,127.0,M,47.9,M,,*5C",,,,
2021-12-22T02:51:55+01:00,378,30.56,25.42,1011.72,13.20,16.70,"$GNGGA,015151.000,4900.0796,N,00821.7157,E,0,3,,128.1,M,47.9,M,,*55",,,,
2021-12-22T02:52:15+01:00,379,30.56,25.40,1011.72,12.70,18.30,"$GNGGA,015211.000,4900.0281,N,00821.2473,E,0,3,,129.4,M,47.9,M,,*53",,,,
2021-12-22T02:52:35+01:00,380,30.56,25.38,1011.72,12.30,18.40,"$GNGGA,015231.000,4859.9799,N,00820.7729,E,0,3,,130.6,M,47.9,M,,*5B",,,,
2021-12-22T02:52:55+01:00,381,30.57,25.37,1011.73,11.20,16.50,"$GNGGA,015251.000,4859.9277,N,00820.3079,E,0,3,,131.6,M,47.9,M,,*5F",,,,
2021-12-22T02:53:15+01:00,382,30.57,25.35,1011.73,11.80,16.60,"$GNGGA,015311.000,4859.8787,N,00819.8291,E,0,3,,132.6,M,47.9,M,,*57",,,,
2021-12-22T02:53:35+01:00,383,30.56,25.35,1011.72,12.00,16.20,"$GNGGA,015331.000,4859.8305,N,00819.3643,E,0,3,,133.1,M,47.9,M,,*5D",,,,
2021-12-22T02:53:55+01:00,384,30.56,25.35,1011.71,12.20,19.00,"$GNGGA,015351.000,4859.7840,N,00818.9057,E,0,3,,133.3,M,47.9,M,,*54",,,,
2021-12-22T02:54:15+01:00,385,30.56,25.36,1011.71,11.50,16.40,"$GNGGA,015411.000,4859.7415,N,00818.4486,E,0,3,,133.0,M,47.9,M,,*5D",,,,
2021-12-22T02:54:35+01:00,386,30.56,25.37,1011.71,11.80,15.70,"$GNGGA,015431.000,4859.6911,N,00817.9629,E,0,3,,132.5,M,47.9,M,,*56",,,,
2021-12-22T02:54:55+01:00,387,30.56,25.37,1011.72,11.10,14.80,"$GNGGA,015451.000,4859.6445,N,00817.4962,E,0,3,,132.3,M,47.9,M,,*57",,,,
2021-12-22T02:55:15+01:00,388,30.56,25.39,1011.73,12.00,15.50,"$GNGGA,015511.000,4859.5998,N,00817.0305,E,0,3,,133.0,M,47.9,M,,*51",,,,
2021-12-22T02:55:35+01:00,389,30.56,25.40,1011.73,11.30,15.50,"$GNGGA,015531.000,4859.5605,N,00816.5741,E,0,3,,131.7,M,47.9,M,,*5D",,,,
2021-12-22T02:55:55+01:00,390,30.56,25.37,1011.74,10.70,12.60,"$GNGGA,015551.000,4900.3549,N,00823.9001,E,0,3,,115.3,M,47.9,M,,*50",,,,
2021-12-22T02:56:15+01:00,391,30.56,25.37,1011.74,9.20,12.70,"$GNGGA,015611.000,4900.3544,N,00823.9002,E,0,3,,115.3,M,47.9,M,,*59",,,,
2021-12-22T02:56:35+01:00,392,30.55,25.39,1011.75,8.80,11.70,"$GNGGA,015631.000,4900.3573,N,00823.8995,E,0,3,,115.3,M,47.9,M,,*59",,,,
2021-12-22T02:56:55+01:00,393,30.55,25.38,1011.75,9.60,11.70,"$GNGGA,015651.000,4900.3578,N,00823.8994,E,0,3,,115.3,M,47.9,M,,*55",,,,
2021-12-22T02:57:15+01:00,394,30.55,25.36,1011.75,10.40,11.00,"$GNGGA,015711.000,4900.3584,N,00823.8992,E,0,3,,115.3,M,47.9,M,,*55",,,,
2021-12-22T02:57:35+01:00,395,30.55,25.36,1011.75,10.40,11.00,"$GNGGA,015731.000,4900.3585,N,00823.8992,E,0,3,,115.3,M,47.9,M,,*56",,,,
2021-12-22T02:57:55+01:00,396,30.55,25.36,1011.75,11.10,11.70,"$GNGGA,015751.000,4900.3580,N,00823.8993,E,0,3,,115.3,M,47.9,M,,*54",,,,
2021-12-22T02:58:16+01:00,397,30.55,25.36,1011.76,11.10,11.70,"$GNGGA,015812.000,4900.3600,N,00823.8989,E,0,3,,115.3,M,47.9,M,,*5C",,,,
2021-12-22T02:58:36+01:00,398,30.54,25.37,1011.76,11.20,13.30,"$GNGGA,015832.000,4900.3622,N,00823.8984,E,0,3,,115.3,M,47.9,M,,*53",,,,
2021-12-22T02:58:56+01:00,399,30.54,25.37,1011.76,10.70,12.60,"$GNGGA,015852.000,4900.3666,N,00823.8973,E,0,3,,115.3,M,47.9,M,,*5D",,,,
2021-12-22T02:59:17+01:00,400,30.54,25.38,1011.77,10.80,14.00,"$GNGGA,015913.000,4900.3693,N,00823.8968,E,0,3,,115.3,M,47.9,M,,*59",,,,
2021-12-22T02:59:37+01:00,401,30.54,25.40,1011.78,11.00,14.40,"$GNGGA,015933.000,4900.3685,N,00823.8970,E,0,3,,115.3,M,47.9,M,,*55",,,,
2021-12-22T02:59:57+01:00,402,30.54,25.41,1011.77,11.00,14.20,"$GNGGA,015953.000,4900.3718,N,00823.8962,E,0,3,,115.3,M,47.9,M,,*55",,,,
2021-12-22T03:00:17+01:00,403,30.54,25.42,1011.77,10.70,14.50,"$GNGGA,020013.000,4900.3690,N,00823.8969,E,0,3,,115.3,M,47.9,M,,*54",,,,
2021-12-22T03:00:37+01:00,404,30.55,25.42,1011.77,11.30,14.90,"$GNGGA,020033.000,4900.3764,N,00823.8954,E,0,3,,115.3,M,47.9,M,,*52",,,,
2021-12-22T03:00:57+01:00,405,30.55,25.39,1011.78,11.80,16.30,"$GNGGA,020053.000,4900.3746,N,00823.8958,E,0,3,,115.3,M,47.9,M,,*58",,,,
2021-12-22T03:01:17+01:00,406,30.55,25.39,1011.79,12.10,16.50,"$GNGGA,020113.000,4900.3791,N,00823.8949,E,0,3,,115.3,M,47.9,M,,*57",,,,
2021-12-22T03:01:37+01:00,407,30.55,25.41,1011.80,11.50,16.00,"$GNGGA,020133.000,4900.3804,N,00823.8946,E,0,3,,115.3,M,47.9,M,,*59",,,,
2021-12-22T03:01:57+01:00,408,30.55,25.40,1011.80,11.20,14.40,"$GNGGA,020153.000,4900.3832,N,00823.8935,E,1,3,7.73,115.4,M,47.9,M,,*45",,,,
2021-12-22T03:02:18+01:00,409,30.55,25.40,1011.80,10.30,11.80,"$GNGGA,020214.000,4900.3813,N,00823.8946,E,0,3,,115.3,M,47.9,M,,*59",,,,
2021-12-22T03:02:38+01:00,410,30.55,25.42,1011.81,9.90,11.10,"$GNGGA,020234.000,4900.3824,N,00823.8944,E,0,3,,115.3,M,47.9,M,,*5D",,,,
2021-12-22T03:02:58+01:00,411,30.55,25.40,1011.82,9.70,11.70,"$GNGGA,020254.000,4900.3934,N,00823.9520,E,0,2,,114.0,M,47.9,M,,*57",,,,
2021-12-22T03:03:18+01:00,412,30.55,25.43,1011.83,11.50,13.80,"$GNGGA,020314.000,4900.3203,N,00823.1089,E,0,2,,104.4,M,47.9,M,,*56",,,,
2021-12-22T03:03:38+01:00,413,30.55,25.44,1011.85,12.10,14.30,"$GNGGA,020334.000,4900.2385,N,00822.2301,E,0,2,,11.2,M,47.9,M,,*68",,,,
2021-12-22T03:03:58+01:00,414,30.55,25.42,1011.84,12.10,13.50,"$GNGGA,020354.000,4900.1132,N,00820.7535,E,0,2,,0.1,M,47.9,M,,*56",,,,
2021-12-22T03:04:19+01:00,415,30.56,25.42,1011.84,10.80,11.60,"$GNGGA,020415.000,4900.0474,N,00819.9941,E,0,2,,-26.9,M,47.9,M,,*48",,,,
2021-12-22T03:04:39+01:00,416,30.56,25.41,1011.85,11.00,11.60,"$GNGGA,020435.000,4900.1331,N,00820.8992,E,0,2,,1.4,M,47.9,M,,*5D",,,,
2021-12-22T03:04:59+01:00,417,30.56,25.41,1011.85,10.80,11.40,"$GNGGA,020455.000,4900.1987,N,00821.5911,E,0,2,,23.1,M,47.9,M,,*6E",,,,
2021-12-22T03:05:19+01:00,418,30.57,25.43,1011.84,11.60,14.50,"$GNGGA,020515.000,4900.2587,N,00822.1815,E,0,2,,83.4,M,47.9,M,,*69",,,,
2021-12-22T03:05:39+01:00,419,30.57,25.48,1011.84,11.30,14.60,"$GNGGA,020535.000,4900.3242,N,00822.8188,E,0,2,,211.2,M,47.9,M,,*5F",,,,
2021-12-22T03:05:59+01:00,420,30.57,25.48,1011.84,11.80,15.30,"$GNGGA,020555.000,4900.3549,N,00823.1051,E,0,2,,229.5,M,47.9,M,,*54",,,,
2021-12-22T03:06:19+01:00,421,30.57,25.46,1011.85,10.70,11.50,"$GNGGA,020615.000,4900.3731,N,00823.2705,E,0,2,,246.8,M,47.9,M,,*5F",,,,
2021-12-22T03:06:39+01:00,422,30.56,25.49,1011.85,10.70,11.30,"$GNGGA,020635.000,4900.3336,N,00823.9058,E,0,0,,115.3,M,47.9,M,,*56",,,,
2021-12-22T03:06:59+01:00,423,30.56,25.51,1011.85,10.60,11.50,"$GNGGA,020655.000,4900.3336,N,00823.9058,E,0,0,,115.3,M,47.9,M,,*50",,,,
2021-12-22T03:07:20+01:00,424,30.56,25.52,1011.85,11.20,12.30,"$GNGGA,020716.000,4900.3336,N,00823.9058,E,0,0,,115.3,M,47.9,M,,*56",,,,
2021-12-22T03:07:40+01:00,425,30.55,25.54,1011.86,11.30,11.90,"$GNGGA,020736.000,4900.3336,N,00823.9058,E,0,0,,115.3,M,47.9,M,,*54",,,,
2021-12-22T03:08:00+01:00,426,30.55,25.54,1011.86,11.40,13.20,"$GNGGA,020756.000,4900.3336,N,00823.9058,E,0,0,,115.3,M,47.9,M,,*52",,,,
2021-12-22T03:08:20+01:00,427,30.54,25.53,1011.85,12.20,14.10,"$GNGGA,020816.000,4900.3336,N,00823.9058,E,0,0,,115.3,M,47.9,M,,*59",,,,
2021-12-22T03:08:40+01:00,428,30.54,25.53,1011.86,10.80,13.70,"$GNGGA,020836.000,4900.3336,N,00823.9058,E,0,0,,115.3,M,47.9,M,,*5B",,,,
2021-12-22T03:09:00+01:00,429,30.54,25.55,1011.87,10.70,12.70,"$GNGGA,020856.000,4900.3336,N,00823.9058,E,0,0,,115.3,M,47.9,M,,*5D",,,,
2021-12-22T03:09:21+01:00,430,30.55,25.55,1011.88,9.80,12.90,"$GNGGA,020917.000,4900.3336,N,00823.9058,E,0,0,,115.3,M,47.9,M,,*59",,,,
2021-12-22T03:09:41+01:00,431,30.55,25.57,1011.88,10.60,13.50,"$GNGGA,020937.000,4900.3336,N,00823.9058,E,0,0,,115.3,M,47.9,M,,*5B",,,,
2021-12-22T03:10:01+01:00,432,30.55,25.60,1011.88,10.70,12.20,"$GNGGA,020957.000,4900.3336,N,00823.9058,E,0,0,,115.3,M,47.9,M,,*5D",,,,
2021-12-22T03:10:21+01:00,433,30.55,25.60,1011.89,10.50,11.10,"$GNGGA,021017.000,4900.3336,N,00823.9058,E,0,0,,115.3,M,47.9,M,,*51",,,,
2021-12-22T03:10:41+01:00,434,30.55,25.63,1011.89,10.10,10.70,"$GNGGA,021037.000,4900.3336,N,00823.9058,E,0,0,,115.3,M,47.9,M,,*53",,,,
2021-12-22T03:11:01+01:00,435,30.55,25.62,1011.88,9.50,10.00,"$GNGGA,021057.000,4900.3336,N,00823.9058,E,0,0,,115.3,M,47.9,M,,*55",,,,
