created_at,entry_id,field1,field2,field3,field4,field5,field6,latitude,longitude,elevation,status
2021-12-13T04:39:06+01:00,1,2.00,18.00,0.00,22.00,34.00,"$GNGGA,033902.092,4900.4539,N,00825.2107,E,0,1,,78.7,M,47.9,M,,*63",,,,
2021-12-13T04:39:27+01:00,2,8.00,18.00,1.00,24.00,31.00,"$GNGGA,033923.092,4900.5216,N,00825.4375,E,0,1,,78.7,M,47.9,M,,*6A",,,,
2021-12-13T04:39:47+01:00,3,6.00,14.00,2.00,20.00,31.00,"$GNGGA,033943.092,4900.5217,N,00825.4377,E,0,1,,78.7,M,47.9,M,,*6F",,,,
2021-12-13T04:40:07+01:00,4,4.00,19.00,3.00,23.00,34.00,"$GNGGA,034003.092,4900.5217,N,00825.4378,E,0,1,,78.7,M,47.9,M,,*6A",,,,
2021-12-13T04:40:27+01:00,5,6.00,10.00,4.00,21.00,33.00,"$GNGGA,034023.092,9000.0000,N,00000.0000,E,0,0,,137.0,M,13.0,M,,*5E",,,,
2021-12-13T04:40:47+01:00,6,3.00,16.00,5.00,23.00,34.00,"$GNGGA,034043.094,9000.0000,N,00000.0000,E,0,0,,137.0,M,13.0,M,,*5E",,,,
2021-12-13T21:14:46+01:00,7,7.00,12.00,0.00,20.00,30.00,"$GNGGA,201442.094,4900.5216,N,00825.4377,E,0,0,,78.7,M,47.9,M,,*66",,,,
2021-12-13T21:15:34+01:00,8,4.00,12.00,0.00,21.00,32.00,"$GNGGA,201530.093,4900.4595,N,00852.6267,E,0,1,,169.3,M,48.0,M,,*58",,,,
2021-12-13T21:15:55+01:00,9,6.00,11.00,1.00,21.00,32.00,"$GNGGA,201551.093,4900.5216,N,00825.4482,E,0,1,,78.7,M,47.9,M,,*6E",,,,
2021-12-13T21:16:16+01:00,10,8.00,16.00,2.00,22.00,34.00,"$GNGGA,201612.093,4900.5233,N,00825.4622,E,0,4,,143.3,M,47.9,M,,*5D",,,,
2021-12-13T21:16:37+01:00,11,3.00,10.00,3.00,23.00,33.00,"$GNGGA,201633.000,4900.5225,N,00825.4569,E,1,4,4.11,133.0,M,47.9,M,,*40",,,,
2021-12-13T21:16:57+01:00,12,6.00,19.00,4.00,23.00,32.00,"$GNGGA,201653.000,4900.5224,N,00825.4583,E,1,3,8.97,129.6,M,47.9,M,,*4B",,,,
2021-12-13T21:17:17+01:00,13,5.00,15.00,5.00,22.00,32.00,"$GNGGA,201713.000,4900.5224,N,00825.4538,E,1,4,4.12,133.1,M,47.9,M,,*44",,,,
2021-12-13T21:17:37+01:00,14,6.00,18.00,6.00,24.00,32.00,"$GNGGA,201733.000,4900.5226,N,00825.4554,E,1,4,4.12,133.9,M,47.9,M,,*46",,,,
2021-12-13T21:17:57+01:00,15,9.00,19.00,7.00,22.00,30.00,"$GNGGA,201753.000,4900.5234,N,00825.4579,E,1,4,4.12,131.1,M,47.9,M,,*46",,,,
2021-12-13T21:18:17+01:00,16,9.00,16.00,8.00,21.00,33.00,"$GNGGA,201813.000,4900.5218,N,00825.4493,E,1,5,7.41,128.7,M,47.9,M,,*4C",,,,
2021-12-13T21:18:37+01:00,17,9.00,14.00,9.00,21.00,30.00,"$GNGGA,201833.000,4900.5211,N,00825.4393,E,1,5,3.88,129.3,M,47.9,M,,*44",,,,
2021-12-13T21:18:57+01:00,18,3.00,18.00,10.00,21.00,33.00,"$GNGGA,201853.000,4900.5231,N,00825.4498,E,1,5,3.88,130.7,M,47.9,M,,*40",,,,
2021-12-13T21:19:17+01:00,19,5.00,11.00,11.00,21.00,31.00,"$GNGGA,201913.000,4900.5226,N,00825.4547,E,1,5,3.89,132.4,M,47.9,M,,*40",,,,
2021-12-13T21:19:37+01:00,20,6.00,17.00,12.00,22.00,30.00,"$GNGGA,201933.000,4900.5234,N,00825.4630,E,1,5,3.90,135.5,M,47.9,M,,*4C",,,,
2021-12-13T21:19:57+01:00,21,7.00,17.00,13.00,23.00,34.00,"$GNGGA,201953.000,4900.5234,N,00825.4687,E,1,5,3.91,134.5,M,47.9,M,,*46",,,,
2021-12-13T21:20:17+01:00,22,8.00,18.00,14.00,22.00,31.00,"$GNGGA,202013.000,4900.5223,N,00825.4597,E,1,5,3.92,133.9,M,47.9,M,,*44",,,,
2021-12-13T21:20:37+01:00,23,5.00,13.00,15.00,23.00,32.00,"$GNGGA,202033.000,4900.5242,N,00825.4668,E,1,5,3.93,129.8,M,47.9,M,,*49",,,,
2021-12-13T21:20:57+01:00,24,6.00,16.00,16.00,21.00,31.00,"$GNGGA,202053.000,4900.5250,N,00825.4720,E,1,5,3.93,127.8,M,47.9,M,,*4F",,,,
2021-12-13T21:21:17+01:00,25,9.00,16.00,17.00,24.00,30.00,"$GNGGA,202113.000,4900.5236,N,00825.4665,E,1,5,3.95,127.6,M,47.9,M,,*42",,,,
2021-12-13T21:21:37+01:00,26,2.00,12.00,18.00,22.00,32.00,"$GNGGA,202133.000,4900.5240,N,00825.4679,E,1,5,3.95,127.7,M,47.9,M,,*4D",,,,
2021-12-13T21:21:57+01:00,27,6.00,19.00,19.00,23.00,31.00,"$GNGGA,202153.000,4900.5243,N,00825.4739,E,1,5,3.96,129.8,M,47.9,M,,*4F",,,,
2021-12-13T21:22:17+01:00,28,5.00,11.00,20.00,21.00,32.00,"$GNGGA,202213.000,4900.5221,N,00825.4595,E,1,5,3.97,130.9,M,47.9,M,,*40",,,,
2021-12-13T21:22:37+01:00,29,2.00,12.00,21.00,20.00,31.00,"$GNGGA,202233.000,4900.5261,N,00825.4732,E,1,5,3.98,130.3,M,47.9,M,,*4C",,,,
2021-12-13T21:22:57+01:00,30,6.00,14.00,22.00,20.00,33.00,"$GNGGA,202253.000,4900.5272,N,00825.4818,E,1,4,4.19,131.5,M,47.9,M,,*47",,,,
2021-12-13T21:23:17+01:00,31,7.00,14.00,23.00,20.00,30.00,"$GNGGA,202313.000,4900.5242,N,00825.4670,E,1,4,4.19,134.8,M,47.9,M,,*49",,,,
2021-12-13T21:23:37+01:00,32,2.00,15.00,24.00,21.00,34.00,"$GNGGA,202333.000,4900.5248,N,00825.4754,E,1,5,4.00,137.0,M,47.9,M,,*44",,,,
2021-12-13T21:23:57+01:00,33,3.00,14.00,25.00,22.00,31.00,"$GNGGA,202353.000,4900.5255,N,00825.4764,E,1,5,4.01,137.7,M,47.9,M,,*4B",,,,
2021-12-13T21:24:17+01:00,34,2.00,14.00,26.00,24.00,32.00,"$GNGGA,202413.000,4900.5282,N,00825.4828,E,1,5,4.02,139.6,M,47.9,M,,*49",,,,
2021-12-13T21:24:37+01:00,35,3.00,16.00,27.00,22.00,31.00,"$GNGGA,202433.000,4900.5268,N,00825.4798,E,1,5,4.04,139.2,M,47.9,M,,*49",,,,
2021-12-13T21:24:57+01:00,36,7.00,13.00,28.00,20.00,34.00,"$GNGGA,202453.000,4900.5265,N,00825.4773,E,1,5,4.04,136.9,M,47.9,M,,*43",,,,
2021-12-13T21:25:17+01:00,37,4.00,11.00,29.00,21.00,33.00,"$GNGGA,202513.000,4900.5243,N,00825.4678,E,1,4,4.23,134.7,M,47.9,M,,*40",,,,
2021-12-13T21:25:37+01:00,38,2.00,10.00,30.00,24.00,32.00,"$GNGGA,202533.000,4900.5221,N,00825.4663,E,1,5,4.06,131.2,M,47.9,M,,*4A",,,,
2021-12-13T21:25:57+01:00,39,7.00,11.00,31.00,24.00,34.00,"$GNGGA,202553.000,4900.5240,N,00825.4753,E,1,4,4.24,129.7,M,47.9,M,,*44",,,,
2021-12-13T21:26:17+01:00,40,4.00,19.00,32.00,20.00,34.00,"$GNGGA,202613.000,4900.5223,N,00825.4610,E,1,5,4.07,130.8,M,47.9,M,,*47",,,,
2021-12-13T21:26:38+01:00,41,8.00,12.00,33.00,21.00,31.00,"$GNGGA,202633.000,4900.5229,N,00825.4754,E,1,6,2.55,133.8,M,47.9,M,,*4F",,,,
2021-12-13T21:26:57+01:00,42,5.00,12.00,34.00,24.00,34.00,"$GNGGA,202653.000,4900.5232,N,00825.4696,E,1,6,2.56,131.4,M,47.9,M,,*41",,,,
2021-12-13T21:27:17+01:00,43,5.00,14.00,35.00,21.00,31.00,"$GNGGA,202713.000,4900.5238,N,00825.4640,E,1,6,2.57,131.1,M,47.9,M,,*41",,,,
2021-12-13T21:27:37+01:00,44,7.00,11.00,36.00,23.00,30.00,"$GNGGA,202733.000,4900.5236,N,00825.4671,E,1,6,2.58,131.6,M,47.9,M,,*47",,,,
2021-12-13T21:27:57+01:00,45,7.00,19.00,37.00,23.00,31.00,"$GNGGA,202753.000,4900.5226,N,00825.4706,E,1,6,2.59,134.4,M,47.9,M,,*47",,,,
2021-12-13T21:28:17+01:00,46,2.00,15.00,38.00,20.00,33.00,"$GNGGA,202813.000,4900.5205,N,00825.4645,E,1,6,2.59,135.3,M,47.9,M,,*4D",,,,
2021-12-13T21:28:37+01:00,47,9.00,16.00,39.00,20.00,30.00,"$GNGGA,202833.000,4900.5211,N,00825.4705,E,1,6,2.60,131.6,M,47.9,M,,*44",,,,
2021-12-13T21:28:57+01:00,48,7.00,14.00,40.00,24.00,30.00,"$GNGGA,202853.000,4900.5202,N,00825.4564,E,1,6,2.61,131.0,M,47.9,M,,*42",,,,
2021-12-13T21:29:17+01:00,49,9.00,10.00,41.00,21.00,31.00,"$GNGGA,202913.000,4900.5200,N,00825.4581,E,1,6,2.62,128.7,M,47.9,M,,*42",,,,
2021-12-13T21:29:37+01:00,50,3.00,16.00,42.00,20.00,32.00,"$GNGGA,202933.000,4900.5225,N,00825.4636,E,1,6,2.63,126.7,M,47.9,M,,*47",,,,
2021-12-13T21:29:57+01:00,51,4.00,11.00,43.00,20.00,33.00,"$GNGGA,202953.000,4900.5218,N,00825.4647,E,1,6,2.64,127.7,M,47.9,M,,*4F",,,,
2021-12-13T21:30:17+01:00,52,7.00,13.00,44.00,23.00,32.00,"$GNGGA,203013.000,4900.5231,N,00825.4691,E,1,6,2.64,128.7,M,47.9,M,,*4C",,,,
2021-12-13T21:30:37+01:00,53,9.00,10.00,45.00,22.00,32.00,"$GNGGA,203033.000,4900.5240,N,00825.4774,E,1,6,2.65,129.0,M,47.9,M,,*45",,,,
2021-12-13T21:30:57+01:00,54,2.00,18.00,46.00,21.00,34.00,"$GNGGA,203053.000,4900.5233,N,00825.4715,E,1,6,2.66,131.0,M,47.9,M,,*4A",,,,
2021-12-13T21:31:17+01:00,55,2.00,12.00,47.00,21.00,33.00,"$GNGGA,203113.000,4900.5256,N,00825.4854,E,1,6,2.67,128.9,M,47.9,M,,*46",,,,
2021-12-13T21:31:37+01:00,56,3.00,19.00,48.00,23.00,34.00,"$GNGGA,203133.000,4900.5244,N,00825.4829,E,1,6,2.68,129.0,M,47.9,M,,*4A",,,,
2021-12-13T21:31:57+01:00,57,6.00,14.00,49.00,20.00,31.00,"$GNGGA,203153.000,4900.5240,N,00825.4896,E,1,6,2.69,129.9,M,47.9,M,,*44",,,,
2021-12-13T21:32:17+01:00,58,5.00,15.00,50.00,24.00,33.00,"$GNGGA,203213.000,4900.5246,N,00825.5027,E,1,6,2.70,131.4,M,47.9,M,,*4A",,,,
2021-12-13T21:32:37+01:00,59,4.00,12.00,51.00,20.00,34.00,"$GNGGA,203233.000,4900.5267,N,00825.5077,E,1,6,2.71,134.3,M,47.9,M,,*4D",,,,
2021-12-13T21:32:57+01:00,60,3.00,12.00,52.00,22.00,33.00,"$GNGGA,203253.000,4900.5255,N,00825.4967,E,1,6,2.72,138.0,M,47.9,M,,*4F",,,,
2021-12-13T21:33:17+01:00,61,8.00,13.00,53.00,22.00,32.00,"$GNGGA,203313.000,4900.5289,N,00825.5057,E,1,5,3.25,137.9,M,47.9,M,,*46",,,,
2021-12-13T21:33:37+01:00,62,7.00,12.00,54.00,20.00,33.00,"$GNGGA,203333.000,4900.5242,N,00825.4965,E,1,6,2.74,136.1,M,47.9,M,,*45",,,,
2021-12-13T21:33:57+01:00,63,7.00,13.00,55.00,21.00,34.00,"$GNGGA,203353.000,4900.5162,N,00825.4723,E,1,6,2.75,132.0,M,47.9,M,,*4A",,,,
2021-12-13T21:34:17+01:00,64,5.00,11.00,56.00,20.00,32.00,"$GNGGA,203413.000,4900.5192,N,00825.4626,E,1,6,2.76,128.0,M,47.9,M,,*4A",,,,
2021-12-13T21:34:37+01:00,65,5.00,14.00,57.00,20.00,31.00,"$GNGGA,203433.000,4900.5188,N,00825.4672,E,1,6,2.77,128.7,M,47.9,M,,*44",,,,
2021-12-13T21:34:57+01:00,66,3.00,11.00,58.00,22.00,33.00,"$GNGGA,203453.000,4900.5244,N,00825.4764,E,1,6,2.78,129.9,M,47.9,M,,*47",,,,
2021-12-13T21:35:17+01:00,67,6.00,16.00,59.00,20.00,33.00,"$GNGGA,203513.000,4900.5209,N,00825.4810,E,1,6,2.79,130.3,M,47.9,M,,*44",,,,
2021-12-13T21:35:37+01:00,68,7.00,12.00,60.00,20.00,34.00,"$GNGGA,203533.000,4900.5197,N,00825.4680,E,1,6,2.80,130.6,M,47.9,M,,*46",,,,
2021-12-13T21:35:57+01:00,69,4.00,19.00,61.00,23.00,33.00,"$GNGGA,203553.000,4900.5202,N,00825.4670,E,1,5,2.91,128.7,M,47.9,M,,*4B",,,,
2021-12-13T21:36:17+01:00,70,7.00,11.00,62.00,21.00,31.00,"$GNGGA,203613.000,4900.5205,N,00825.4678,E,1,5,2.92,127.2,M,47.9,M,,*4A",,,,
2021-12-13T21:36:37+01:00,71,4.00,16.00,63.00,21.00,32.00,"$GNGGA,203633.000,4900.5236,N,00825.4638,E,1,5,2.93,125.8,M,47.9,M,,*45",,,,
2021-12-13T21:36:57+01:00,72,6.00,19.00,64.00,24.00,30.00,"$GNGGA,203653.000,4900.5261,N,00825.4647,E,1,5,2.94,123.7,M,47.9,M,,*47",,,,
2021-12-13T21:37:17+01:00,73,5.00,17.00,65.00,24.00,34.00,"$GNGGA,203713.000,4900.5259,N,00825.4512,E,1,5,2.95,121.8,M,47.9,M,,*46",,,,
2021-12-13T21:37:37+01:00,74,6.00,14.00,66.00,22.00,31.00,"$GNGGA,203733.000,4900.5251,N,00825.4492,E,1,5,2.96,119.6,M,47.9,M,,*43",,,,
2021-12-13T21:37:57+01:00,75,6.00,14.00,67.00,22.00,31.00,"$GNGGA,203753.000,4900.5236,N,00825.4339,E,1,5,2.97,116.6,M,47.9,M,,*4C",,,,
2021-12-13T21:38:17+01:00,76,2.00,11.00,68.00,23.00,31.00,"$GNGGA,203813.000,4900.5249,N,00825.4156,E,1,5,2.98,112.5,M,47.9,M,,*4C",,,,
2021-12-13T21:38:37+01:00,77,5.00,16.00,69.00,24.00,32.00,"$GNGGA,203833.000,4900.5229,N,00825.4153,E,1,6,2.90,110.9,M,47.9,M,,*48",,,,
2021-12-13T21:38:57+01:00,78,3.00,17.00,70.00,24.00,33.00,"$GNGGA,203853.000,4900.5207,N,00825.4428,E,1,5,3.03,109.9,M,47.9,M,,*4B",,,,
2021-12-13T21:39:17+01:00,79,5.00,10.00,71.00,23.00,32.00,"$GNGGA,203913.000,4900.5198,N,00825.4562,E,1,5,3.04,109.6,M,47.9,M,,*4C",,,,
2021-12-13T21:39:37+01:00,80,7.00,11.00,72.00,21.00,32.00,"$GNGGA,203933.000,4900.5184,N,00825.4654,E,1,5,3.06,109.1,M,47.9,M,,*40",,,,
2021-12-13T21:39:57+01:00,81,2.00,19.00,73.00,21.00,31.00,"$GNGGA,203953.000,4900.5185,N,00825.4871,E,1,5,3.06,108.7,M,47.9,M,,*49",,,,
2021-12-13T21:40:17+01:00,82,8.00,19.00,74.00,22.00,30.00,"$GNGGA,204013.000,4900.5205,N,00825.4771,E,1,5,3.08,111.1,M,47.9,M,,*47",,,,
2021-12-13T21:40:37+01:00,83,3.00,13.00,75.00,23.00,31.00,"$GNGGA,204033.000,4900.5170,N,00825.4703,E,1,5,3.09,110.2,M,47.9,M,,*42",,,,
2021-12-13T21:40:57+01:00,84,9.00,18.00,76.00,21.00,34.00,"$GNGGA,204053.000,4900.5196,N,00825.4795,E,1,5,3.10,111.4,M,47.9,M,,*4C",,,,
2021-12-13T21:41:17+01:00,85,8.00,12.00,77.00,20.00,31.00,"$GNGGA,204113.000,4900.5208,N,00825.4986,E,1,5,3.11,112.1,M,47.9,M,,*46",,,,
2021-12-13T21:41:37+01:00,86,7.00,10.00,78.00,21.00,30.00,"$GNGGA,204133.000,4900.5183,N,00825.4733,E,1,4,4.78,111.5,M,47.9,M,,*4A",,,,
2021-12-13T21:41:57+01:00,87,9.00,10.00,79.00,23.00,32.00,"$GNGGA,204153.000,4900.5194,N,00825.4714,E,1,5,3.14,110.9,M,47.9,M,,*4E",,,,
2021-12-13T21:42:17+01:00,88,2.00,14.00,80.00,21.00,34.00,"$GNGGA,204213.000,4900.5196,N,00825.4579,E,1,5,3.16,112.5,M,47.9,M,,*4E",,,,
2021-12-13T21:42:37+01:00,89,3.00,16.00,81.00,20.00,33.00,"$GNGGA,204233.000,4900.5197,N,00825.4711,E,1,4,4.82,112.6,M,47.9,M,,*49",,,,
2021-12-13T21:42:57+01:00,90,2.00,11.00,82.00,24.00,33.00,"$GNGGA,204253.000,4900.5216,N,00825.4596,E,1,5,3.18,112.8,M,47.9,M,,*43",,,,
2021-12-13T21:43:17+01:00,91,3.00,17.00,83.00,22.00,34.00,"$GNGGA,204313.000,4900.5219,N,00825.4704,E,1,5,3.20,113.2,M,47.9,M,,*40",,,,
2021-12-13T21:43:37+01:00,92,4.00,18.00,84.00,22.00,31.00,"$GNGGA,204333.000,4900.5182,N,00825.4639,E,1,5,3.21,114.2,M,47.9,M,,*4A",,,,
2021-12-13T21:43:57+01:00,93,3.00,18.00,85.00,23.00,33.00,"$GNGGA,204353.000,4900.5190,N,00825.4637,E,1,4,4.88,112.6,M,47.9,M,,*46",,,,
2021-12-13T21:44:17+01:00,94,8.00,16.00,86.00,20.00,31.00,"$GNGGA,204413.000,4900.5192,N,00825.4656,E,1,5,3.24,111.4,M,47.9,M,,*41",,,,
2021-12-13T21:44:37+01:00,95,8.00,15.00,87.00,20.00,33.00,"$GNGGA,204433.000,4900.5166,N,00825.4548,E,1,5,3.26,111.2,M,47.9,M,,*40",,,,
2021-12-13T21:44:57+01:00,96,3.00,15.00,88.00,22.00,31.00,"$GNGGA,204453.000,4900.5161,N,00825.4385,E,1,5,3.27,111.2,M,47.9,M,,*47",,,,
2021-12-13T21:45:17+01:00,97,2.00,10.00,89.00,21.00,30.00,"$GNGGA,204513.000,4900.5126,N,00825.4329,E,1,5,3.29,112.1,M,47.9,M,,*49",,,,
2021-12-13T21:45:37+01:00,98,6.00,14.00,90.00,20.00,30.00,"$GNGGA,204533.000,4900.5207,N,00825.4515,E,1,5,3.30,114.1,M,47.9,M,,*4C",,,,
2021-12-13T21:45:57+01:00,99,2.00,11.00,91.00,22.00,34.00,"$GNGGA,204553.000,4900.5224,N,00825.4536,E,1,5,3.32,114.8,M,47.9,M,,*41",,,,
2021-12-13T21:46:17+01:00,100,9.00,12.00,92.00,24.00,32.00,"$GNGGA,204613.000,4900.5146,N,00825.4381,E,1,5,3.33,111.0,M,47.9,M,,*47",,,,
2021-12-13T21:46:37+01:00,101,7.00,14.00,93.00,21.00,31.00,"$GNGGA,204633.000,4900.5217,N,00825.4437,E,1,5,3.35,112.2,M,47.9,M,,*4F",,,,
2021-12-13T21:46:57+01:00,102,8.00,11.00,94.00,21.00,34.00,"$GNGGA,204653.000,4900.5223,N,00825.4512,E,1,5,3.37,115.0,M,47.9,M,,*4F",,,,
2021-12-13T21:47:17+01:00,103,4.00,12.00,95.00,22.00,34.00,"$GNGGA,204713.000,4900.5237,N,00825.4376,E,1,5,3.38,116.7,M,47.9,M,,*40",,,,
2021-12-13T21:47:37+01:00,104,5.00,15.00,96.00,21.00,34.00,"$GNGGA,204733.000,4900.5227,N,00825.4542,E,1,5,3.40,117.0,M,47.9,M,,*4B",,,,
2021-12-13T21:47:57+01:00,105,5.00,18.00,97.00,22.00,30.00,"$GNGGA,204753.000,4900.5215,N,00825.4556,E,1,5,3.42,119.5,M,47.9,M,,*40",,,,
2021-12-13T21:48:17+01:00,106,9.00,17.00,98.00,23.00,34.00,"$GNGGA,204813.000,4900.5240,N,00825.4527,E,1,5,3.43,120.8,M,47.9,M,,*4B",,,,
2021-12-13T21:48:37+01:00,107,6.00,10.00,99.00,22.00,34.00,"$GNGGA,204833.000,4900.5240,N,00825.4547,E,1,5,3.45,122.7,M,47.9,M,,*44",,,,
2021-12-13T21:48:57+01:00,108,8.00,19.00,100.00,21.00,33.00,"$GNGGA,204853.000,4900.5253,N,00825.4675,E,1,5,3.47,123.3,M,47.9,M,,*45",,,,
2021-12-13T21:49:17+01:00,109,5.00,11.00,101.00,22.00,30.00,"$GNGGA,204913.000,4900.5278,N,00825.4681,E,1,5,3.49,125.1,M,47.9,M,,*48",,,,
2021-12-13T21:49:37+01:00,110,7.00,15.00,102.00,22.00,33.00,"$GNGGA,204933.000,4900.5262,N,00825.4875,E,1,5,3.51,127.6,M,47.9,M,,*48",,,,
2021-12-13T21:49:57+01:00,111,9.00,10.00,103.00,20.00,33.00,"$GNGGA,204953.000,4900.5256,N,00825.4855,E,1,5,3.52,126.6,M,47.9,M,,*49",,,,
2021-12-13T21:50:17+01:00,112,6.00,18.00,104.00,22.00,32.00,"$GNGGA,205013.000,4900.5268,N,00825.4603,E,1,5,3.54,126.5,M,47.9,M,,*40",,,,
2021-12-13T21:50:37+01:00,113,4.00,13.00,105.00,23.00,30.00,"$GNGGA,205033.000,4900.5233,N,00825.4527,E,1,5,3.56,125.3,M,47.9,M,,*4E",,,,
2021-12-13T21:50:57+01:00,114,7.00,16.00,106.00,24.00,33.00,"$GNGGA,205053.000,4900.5210,N,00825.4387,E,1,4,5.17,124.9,M,47.9,M,,*4C",,,,
2021-12-13T21:51:17+01:00,115,4.00,17.00,107.00,23.00,31.00,"$GNGGA,205113.000,4900.5206,N,00825.4429,E,1,5,3.60,124.5,M,47.9,M,,*46",,,,
2021-12-13T21:51:37+01:00,116,4.00,17.00,108.00,20.00,34.00,"$GNGGA,205133.000,4900.5187,N,00825.4474,E,1,5,3.62,122.2,M,47.9,M,,*45",,,,
2021-12-13T21:51:57+01:00,117,8.00,10.00,109.00,21.00,30.00,"$GNGGA,205153.000,4900.5199,N,00825.4560,E,1,5,3.64,119.3,M,47.9,M,,*47",,,,
2021-12-13T21:52:17+01:00,118,4.00,15.00,110.00,22.00,33.00,"$GNGGA,205213.000,4900.5196,N,00825.4629,E,1,5,3.66,115.5,M,47.9,M,,*49",,,,
2021-12-13T21:52:37+01:00,119,3.00,15.00,111.00,20.00,31.00,"$GNGGA,205233.000,4900.5189,N,00825.4510,E,1,5,3.68,110.7,M,47.9,M,,*45",,,,
2021-12-13T21:52:57+01:00,120,8.00,11.00,112.00,20.00,32.00,"$GNGGA,205253.000,4900.5165,N,00825.4480,E,1,5,3.70,107.3,M,47.9,M,,*42",,,,
2021-12-13T21:53:17+01:00,121,4.00,13.00,113.00,24.00,33.00,"$GNGGA,205313.000,4900.5247,N,00825.4674,E,1,5,3.72,108.2,M,47.9,M,,*41",,,,
2021-12-13T21:53:37+01:00,122,8.00,18.00,114.00,20.00,34.00,"$GNGGA,205333.000,4900.5297,N,00825.4894,E,1,5,3.74,104.9,M,47.9,M,,*4F",,,,
2021-12-13T21:53:57+01:00,123,9.00,12.00,115.00,20.00,30.00,"$GNGGA,205353.000,4900.5334,N,00825.4998,E,1,5,3.77,102.7,M,47.9,M,,*47",,,,
2021-12-13T21:54:17+01:00,124,4.00,10.00,116.00,23.00,32.00,"$GNGGA,205413.000,4900.5133,N,00825.4574,E,1,4,4.43,100.9,M,47.9,M,,*42",,,,
2021-12-13T21:54:37+01:00,125,2.00,11.00,117.00,24.00,30.00,"$GNGGA,205433.000,4900.5057,N,00825.4183,E,1,3,99.99,100.4,M,47.9,M,,*76",,,,
2021-12-13T21:54:58+01:00,126,9.00,13.00,118.00,21.00,34.00,"$GNGGA,205454.000,4900.4948,N,00825.3838,E,0,3,,100.2,M,47.9,M,,*56",,,,
2021-12-13T21:55:18+01:00,127,6.00,14.00,119.00,23.00,30.00,"$GNGGA,205514.000,4900.5238,N,00825.4601,E,1,4,3.96,101.2,M,47.9,M,,*48",,,,
2021-12-13T21:55:38+01:00,128,8.00,13.00,120.00,24.00,30.00,"$GNGGA,205534.000,4900.5239,N,00825.4512,E,1,4,3.98,99.3,M,47.9,M,,*75",,,,
2021-12-13T21:55:58+01:00,129,6.00,16.00,121.00,20.00,33.00,"$GNGGA,205554.000,4900.5209,N,00825.4508,E,1,4,5.39,99.1,M,47.9,M,,*74",,,,
2021-12-13T21:56:18+01:00,130,4.00,11.00,122.00,23.00,32.00,"$GNGGA,205614.000,4900.5210,N,00825.4544,E,1,4,5.40,99.2,M,47.9,M,,*7E",,,,
2021-12-13T21:56:38+01:00,131,7.00,17.00,123.00,20.00,33.00,"$GNGGA,205634.000,4900.5206,N,00825.4602,E,1,4,5.42,99.2,M,47.9,M,,*78",,,,
2021-12-13T21:56:58+01:00,132,9.00,12.00,124.00,20.00,32.00,"$GNGGA,205654.000,4900.5200,N,00825.4666,E,1,4,4.07,98.5,M,47.9,M,,*7C",,,,
2021-12-13T21:57:18+01:00,133,2.00,19.00,125.00,21.00,33.00,"$GNGGA,205714.000,4900.5202,N,00825.4444,E,1,4,4.10,99.2,M,47.9,M,,*79",,,,
2021-12-13T21:57:38+01:00,134,6.00,12.00,126.00,22.00,30.00,"$GNGGA,205734.000,4900.5208,N,00825.4522,E,1,4,4.13,99.2,M,47.9,M,,*73",,,,
2021-12-13T21:57:58+01:00,135,9.00,14.00,127.00,20.00,31.00,"$GNGGA,205754.000,4900.5220,N,00825.4654,E,1,4,4.15,98.2,M,47.9,M,,*7A",,,,
2021-12-13T21:58:18+01:00,136,8.00,14.00,128.00,21.00,32.00,"$GNGGA,205814.000,4900.5223,N,00825.4637,E,1,4,5.93,97.9,M,47.9,M,,*7C",,,,
2021-12-13T21:58:38+01:00,137,3.00,15.00,129.00,20.00,33.00,"$GNGGA,205834.000,4900.5236,N,00825.4439,E,1,4,4.20,98.4,M,47.9,M,,*7D",,,,
2021-12-13T21:58:58+01:00,138,7.00,15.00,130.00,23.00,33.00,"$GNGGA,205854.000,4900.5155,N,00825.4555,E,1,4,4.23,98.2,M,47.9,M,,*73",,,,
2021-12-13T21:59:18+01:00,139,3.00,15.00,131.00,23.00,30.00,"$GNGGA,205914.000,4900.5164,N,00825.4490,E,1,4,4.25,97.9,M,47.9,M,,*7E",,,,
2021-12-13T21:59:38+01:00,140,9.00,18.00,132.00,24.00,33.00,"$GNGGA,205934.000,4900.5209,N,00825.4523,E,1,4,5.54,99.0,M,47.9,M,,*7D",,,,
2021-12-13T21:59:58+01:00,141,4.00,10.00,133.00,21.00,31.00,"$GNGGA,205954.000,4900.5205,N,00825.4571,E,1,4,4.30,100.8,M,47.9,M,,*4A",,,,
2021-12-13T22:00:18+01:00,142,8.00,17.00,134.00,20.00,34.00,"$GNGGA,210014.000,4900.5174,N,00825.4409,E,1,4,4.34,104.0,M,47.9,M,,*40",,,,
2021-12-13T22:00:38+01:00,143,2.00,16.00,135.00,24.00,34.00,"$GNGGA,210034.000,4900.5250,N,00825.4465,E,1,4,4.35,107.1,M,47.9,M,,*4E",,,,
2021-12-13T22:00:58+01:00,144,8.00,14.00,136.00,22.00,32.00,"$GNGGA,210054.000,4900.5244,N,00825.4614,E,1,4,4.38,110.1,M,47.9,M,,*42",,,,
2021-12-13T22:01:18+01:00,145,6.00,19.00,137.00,24.00,30.00,"$GNGGA,210114.000,4900.5200,N,00825.4368,E,1,4,4.41,113.2,M,47.9,M,,*47",,,,
2021-12-13T22:01:40+01:00,146,5.00,10.00,138.00,22.00,33.00,"$GNGGA,210136.000,4900.5211,N,00825.4490,E,1,4,4.44,115.0,M,47.9,M,,*46",,,,
2021-12-13T22:02:00+01:00,147,4.00,17.00,139.00,24.00,32.00,"$GNGGA,210156.000,4900.5234,N,00825.4773,E,1,4,4.47,116.4,M,47.9,M,,*4D",,,,
2021-12-13T22:02:20+01:00,148,4.00,10.00,140.00,24.00,34.00,"$GNGGA,210216.000,4900.5250,N,00825.4988,E,1,4,5.65,116.5,M,47.9,M,,*42",,,,
2021-12-13T22:02:40+01:00,149,6.00,16.00,141.00,21.00,32.00,"$GNGGA,210236.000,4900.5247,N,00825.5026,E,1,4,5.66,116.2,M,47.9,M,,*4E",,,,
2021-12-13T22:03:00+01:00,150,4.00,17.00,142.00,23.00,31.00,"$GNGGA,210256.000,4900.5259,N,00825.4807,E,1,4,5.67,115.2,M,47.9,M,,*4F",,,,
2021-12-13T22:03:21+01:00,151,4.00,13.00,143.00,21.00,32.00,"$GNGGA,210317.000,4900.5263,N,00825.4620,E,1,4,4.58,115.2,M,47.9,M,,*44",,,,
2021-12-13T22:03:41+01:00,152,9.00,10.00,144.00,21.00,31.00,"$GNGGA,210337.000,4900.5268,N,00825.4673,E,1,4,4.61,114.4,M,47.9,M,,*46",,,,
2021-12-13T22:04:01+01:00,153,9.00,10.00,145.00,20.00,34.00,"$GNGGA,210357.000,4900.5249,N,00825.4717,E,1,4,4.64,111.9,M,47.9,M,,*4D",,,,
2021-12-13T22:04:21+01:00,154,6.00,18.00,146.00,20.00,33.00,"$GNGGA,210417.000,4900.5237,N,00825.4599,E,1,4,4.67,111.4,M,47.9,M,,*4D",,,,
2021-12-13T22:04:41+01:00,155,4.00,15.00,147.00,22.00,34.00,"$GNGGA,210437.000,4900.5212,N,00825.4581,E,1,4,4.70,113.9,M,47.9,M,,*48",,,,
2021-12-13T22:05:01+01:00,156,3.00,11.00,148.00,23.00,31.00,"$GNGGA,210457.000,4900.5232,N,00825.4558,E,1,4,5.62,115.0,M,47.9,M,,*45",,,,
2021-12-13T22:05:21+01:00,157,6.00,19.00,149.00,23.00,32.00,"$GNGGA,210517.000,4900.5247,N,00825.4675,E,1,4,4.77,118.0,M,47.9,M,,*46",,,,
2021-12-13T22:05:41+01:00,158,3.00,14.00,150.00,23.00,33.00,"$GNGGA,210537.000,4900.5240,N,00825.4687,E,1,4,4.79,117.0,M,47.9,M,,*4F",,,,
2021-12-13T22:06:01+01:00,159,4.00,10.00,151.00,21.00,34.00,"$GNGGA,210557.000,4900.5229,N,00825.4774,E,1,4,4.82,112.6,M,47.9,M,,*4C",,,,
2021-12-13T22:06:21+01:00,160,6.00,11.00,152.00,21.00,33.00,"$GNGGA,210617.000,4900.5227,N,00825.4727,E,1,4,5.59,110.1,M,47.9,M,,*41",,,,
2021-12-13T22:06:41+01:00,161,4.00,14.00,153.00,21.00,33.00,"$GNGGA,210637.000,4900.5233,N,00825.4665,E,1,4,4.88,109.9,M,47.9,M,,*4C",,,,
2021-12-13T22:07:01+01:00,162,9.00,16.00,154.00,23.00,31.00,"$GNGGA,210657.000,4900.5218,N,00825.4493,E,1,4,4.91,110.3,M,47.9,M,,*42",,,,
2021-12-13T22:07:21+01:00,163,3.00,12.00,155.00,22.00,30.00,"$GNGGA,210717.000,4900.5216,N,00825.4458,E,1,4,4.94,111.8,M,47.9,M,,*41",,,,
2021-12-13T22:07:41+01:00,164,2.00,18.00,156.00,24.00,32.00,"$GNGGA,210737.000,4900.5228,N,00825.4484,E,1,4,4.98,111.9,M,47.9,M,,*42",,,,
2021-12-13T22:08:01+01:00,165,6.00,17.00,157.00,21.00,32.00,"$GNGGA,210757.000,4900.5232,N,00825.4404,E,1,4,5.02,111.5,M,47.9,M,,*49",,,,
2021-12-13T22:08:21+01:00,166,9.00,12.00,158.00,20.00,31.00,"$GNGGA,210817.000,4900.5245,N,00825.4450,E,1,4,5.04,111.0,M,47.9,M,,*40",,,,
2021-12-13T22:08:41+01:00,167,3.00,16.00,159.00,22.00,33.00,"$GNGGA,210837.000,4900.5256,N,00825.4571,E,1,4,5.07,110.0,M,47.9,M,,*40",,,,
2021-12-13T22:09:01+01:00,168,4.00,15.00,160.00,22.00,32.00,"$GNGGA,210857.000,4900.5236,N,00825.4604,E,1,4,5.10,109.8,M,47.9,M,,*47",,,,
2021-12-13T22:09:21+01:00,169,4.00,18.00,161.00,20.00,33.00,"$GNGGA,210917.000,4900.5232,N,00825.4469,E,1,4,5.13,111.5,M,47.9,M,,*48",,,,
2021-12-13T22:09:41+01:00,170,6.00,16.00,162.00,24.00,31.00,"$GNGGA,210937.000,4900.5254,N,00825.4025,E,1,3,5.85,112.8,M,47.9,M,,*40",,,,
2021-12-13T22:10:01+01:00,171,3.00,17.00,163.00,21.00,34.00,"$GNGGA,210957.000,4900.5258,N,00825.4227,E,1,3,5.91,112.7,M,47.9,M,,*40",,,,
2021-12-13T22:10:21+01:00,172,8.00,12.00,164.00,23.00,32.00,"$GNGGA,211017.000,4900.5280,N,00825.4323,E,1,3,5.98,112.5,M,47.9,M,,*47",,,,
2021-12-13T22:10:41+01:00,173,6.00,11.00,165.00,20.00,31.00,"$GNGGA,211037.000,4900.5253,N,00825.4507,E,1,4,5.26,112.3,M,47.9,M,,*4F",,,,
2021-12-13T22:11:01+01:00,174,4.00,14.00,166.00,23.00,33.00,"$GNGGA,211057.000,4900.5222,N,00825.4156,E,1,4,5.28,113.3,M,47.9,M,,*40",,,,
2021-12-13T22:11:21+01:00,175,3.00,15.00,167.00,21.00,31.00,"$GNGGA,211117.000,4900.5221,N,00825.4330,E,1,4,5.32,115.8,M,47.9,M,,*42",,,,
2021-12-13T22:11:41+01:00,176,8.00,19.00,168.00,24.00,32.00,"$GNGGA,211137.000,4900.5241,N,00825.4386,E,1,4,5.35,118.6,M,47.9,M,,*4F",,,,
2021-12-13T22:12:01+01:00,177,7.00,16.00,169.00,23.00,32.00,"$GNGGA,211157.000,4900.5250,N,00825.4446,E,1,4,5.38,120.3,M,47.9,M,,*41",,,,
2021-12-13T22:12:22+01:00,178,5.00,14.00,170.00,20.00,32.00,"$GNGGA,211218.000,4900.5239,N,00825.4212,E,1,4,5.41,121.7,M,47.9,M,,*4A",,,,
2021-12-13T22:12:42+01:00,179,5.00,10.00,171.00,23.00,31.00,"$GNGGA,211238.000,4900.5229,N,00825.4312,E,1,4,5.44,124.4,M,47.9,M,,*4B",,,,
2021-12-13T22:13:02+01:00,180,9.00,13.00,172.00,22.00,34.00,"$GNGGA,211258.000,4900.5231,N,00825.4247,E,1,4,5.48,128.3,M,47.9,M,,*42",,,,
2021-12-13T22:13:22+01:00,181,3.00,19.00,173.00,21.00,30.00,"$GNGGA,211318.000,4900.5249,N,00825.4597,E,1,4,5.50,126.8,M,47.9,M,,*4E",,,,
2021-12-13T22:13:42+01:00,182,5.00,18.00,174.00,21.00,34.00,"$GNGGA,211338.000,4900.5249,N,00825.4669,E,1,4,5.53,127.4,M,47.9,M,,*40",,,,
2021-12-13T22:14:02+01:00,183,6.00,15.00,175.00,22.00,33.00,"$GNGGA,211358.000,4900.5248,N,00825.4539,E,1,4,5.57,128.4,M,47.9,M,,*4A",,,,
2021-12-13T22:14:22+01:00,184,9.00,16.00,176.00,24.00,31.00,"$GNGGA,211418.000,4900.5244,N,00825.4607,E,1,4,5.60,129.4,M,47.9,M,,*4E",,,,
2021-12-13T22:14:42+01:00,185,8.00,17.00,177.00,22.00,33.00,"$GNGGA,211438.000,4900.5248,N,00825.4624,E,1,4,5.62,128.6,M,47.9,M,,*40",,,,
2021-12-13T22:15:02+01:00,186,4.00,16.00,178.00,24.00,34.00,"$GNGGA,211458.000,4900.5230,N,00825.4482,E,1,4,5.66,128.8,M,47.9,M,,*4D",,,,
2021-12-13T22:15:22+01:00,187,2.00,11.00,179.00,21.00,34.00,"$GNGGA,211518.000,4900.5224,N,00825.4341,E,1,4,5.68,128.5,M,47.9,M,,*46",,,,
2021-12-13T22:15:42+01:00,188,5.00,10.00,180.00,21.00,32.00,"$GNGGA,211538.000,4900.5240,N,00825.4539,E,1,4,5.71,128.8,M,47.9,M,,*4A",,,,
2021-12-13T22:16:02+01:00,189,2.00,12.00,181.00,21.00,33.00,"$GNGGA,211558.000,4900.5252,N,00825.4721,E,1,4,5.75,127.3,M,47.9,M,,*44",,,,
2021-12-13T22:16:23+01:00,190,2.00,12.00,182.00,21.00,31.00,"$GNGGA,211619.000,4900.5261,N,00825.4786,E,1,4,5.76,130.5,M,47.9,M,,*4C",,,,
2021-12-13T22:16:43+01:00,191,4.00,18.00,183.00,20.00,30.00,"$GNGGA,211639.000,4900.5273,N,00825.4802,E,1,4,5.79,132.0,M,47.9,M,,*46",,,,
2021-12-13T22:17:03+01:00,192,3.00,13.00,184.00,24.00,33.00,"$GNGGA,211659.000,4900.5256,N,00825.4703,E,1,4,5.82,130.7,M,47.9,M,,*48",,,,
2021-12-13T22:17:23+01:00,193,6.00,17.00,185.00,23.00,30.00,"$GNGGA,211719.000,4900.5256,N,00825.4848,E,1,4,5.84,130.4,M,47.9,M,,*48",,,,
2021-12-13T22:17:43+01:00,194,5.00,11.00,186.00,24.00,32.00,"$GNGGA,211739.000,4900.5240,N,00825.4807,E,1,4,5.86,132.1,M,47.9,M,,*43",,,,
