created_at,entry_id,field1,field2,field3,field4,field5,field6,field7,field8,latitude,longitude,elevation,status
2022-01-11T18:19:00+01:00,1,8.00,13.00,0.00,20.00,34.00,0,0,"$GNGGA,171856.000,4900.5331,N,00825.4757,E,0,4,,136.1,M,47.9,M,,*5D",,,,
2022-01-11T18:19:20+01:00,2,5.00,11.00,1.00,24.00,30.00,0,0,"$GNGGA,171916.000,4900.5241,N,00825.4745,E,1,4,3.57,143.6,M,47.9,M,,*46",,,,
2022-01-11T18:19:40+01:00,3,6.00,17.00,2.00,21.00,30.00,0,0,"$GNGGA,171936.000,4900.5225,N,00825.4768,E,1,4,3.56,153.2,M,47.9,M,,*4D",,,,
2022-01-11T18:20:00+01:00,4,9.00,17.00,3.00,22.00,30.00,0,0,"$GNGGA,171956.000,4900.5272,N,00825.4788,E,1,4,3.55,154.3,M,47.9,M,,*42",,,,
2022-01-11T18:20:20+01:00,5,2.00,18.00,4.00,23.00,32.00,0,0,"$GNGGA,172016.000,4900.5290,N,00825.4753,E,1,4,3.54,152.8,M,47.9,M,,*4A",,,,
2022-01-11T18:20:40+01:00,6,4.00,18.00,5.00,22.00,30.00,0,0,"$GNGGA,172036.000,4900.5290,N,00825.4702,E,1,4,3.53,151.7,M,47.9,M,,*47",,,,
2022-01-11T18:21:01+01:00,7,5.00,14.00,6.00,24.00,30.00,0,0,"$GNGGA,172057.000,4900.5263,N,00825.4720,E,1,4,3.52,150.0,M,47.9,M,,*4B",,,,
2022-01-11T18:21:21+01:00,8,8.00,18.00,7.00,21.00,33.00,0,0,"$GNGGA,172117.000,4900.5252,N,00825.4706,E,1,4,7.41,144.1,M,47.9,M,,*4A",,,,
2022-01-11T18:21:41+01:00,9,3.00,10.00,8.00,22.00,33.00,0,0,"$GNGGA,172137.000,4900.5272,N,00825.4734,E,1,4,3.51,144.2,M,47.9,M,,*4D",,,,
2022-01-11T18:22:01+01:00,10,9.00,13.00,9.00,21.00,32.00,0,0,"$GNGGA,172157.000,4900.5316,N,00825.4762,E,1,4,7.57,146.6,M,47.9,M,,*4F",,,,
2022-01-11T18:22:21+01:00,11,4.00,19.00,10.00,21.00,32.00,0,0,"$GNGGA,172217.000,4900.5317,N,00825.4737,E,1,4,3.49,148.8,M,47.9,M,,*42",,,,
2022-01-11T18:22:41+01:00,12,2.00,18.00,11.00,22.00,34.00,0,0,"$GNGGA,172237.000,4900.5287,N,00825.4760,E,1,4,3.48,149.0,M,47.9,M,,*42",,,,
2022-01-11T18:23:01+01:00,13,6.00,19.00,12.00,20.00,32.00,0,0,"$GNGGA,172257.000,4900.5297,N,00825.4730,E,1,4,3.48,149.6,M,47.9,M,,*46",,,,
2022-01-11T18:23:21+01:00,14,2.00,11.00,13.00,20.00,33.00,0,0,"$GNGGA,172317.000,4900.5358,N,00825.4695,E,1,4,3.47,149.3,M,47.9,M,,*45",,,,
2022-01-11T18:23:41+01:00,15,4.00,17.00,14.00,22.00,30.00,0,0,"$GNGGA,172337.000,4900.5299,N,00825.4755,E,1,4,3.46,150.6,M,47.9,M,,*4A",,,,
2022-01-11T18:24:01+01:00,16,9.00,19.00,15.00,24.00,32.00,0,0,"$GNGGA,172357.000,4900.5309,N,00825.4762,E,1,5,3.16,150.4,M,47.9,M,,*46",,,,
2022-01-11T18:24:22+01:00,17,9.00,10.00,16.00,22.00,34.00,0,0,"$GNGGA,172418.000,4900.5292,N,00825.4766,E,1,5,3.16,150.5,M,47.9,M,,*4C",,,,
2022-01-11T18:24:42+01:00,18,5.00,11.00,17.00,20.00,30.00,0,0,"$GNGGA,172438.000,4900.5262,N,00825.4827,E,1,5,3.16,153.0,M,47.9,M,,*4D",,,,
2022-01-11T18:25:02+01:00,19,9.00,17.00,18.00,23.00,32.00,0,0,"$GNGGA,172458.000,4900.5315,N,00825.4739,E,1,5,3.15,149.6,M,47.9,M,,*44",,,,
2022-01-11T18:25:22+01:00,20,3.00,18.00,19.00,24.00,32.00,0,0,"$GNGGA,172518.000,4900.5295,N,00825.4680,E,1,5,3.16,145.6,M,47.9,M,,*44",,,,
2022-01-11T18:25:42+01:00,21,7.00,16.00,20.00,24.00,34.00,0,0,"$GNGGA,172538.000,4900.5263,N,00825.4687,E,1,5,3.16,146.8,M,47.9,M,,*45",,,,
2022-01-11T18:26:02+01:00,22,7.00,10.00,21.00,21.00,30.00,0,0,"$GNGGA,172558.000,4900.5289,N,00825.4719,E,1,5,3.15,147.8,M,47.9,M,,*43",,,,
2022-01-11T18:26:22+01:00,23,5.00,10.00,22.00,20.00,30.00,0,0,"$GNGGA,172618.000,4900.5276,N,00825.4813,E,1,5,3.16,149.7,M,47.9,M,,*43",,,,
2022-01-11T18:26:42+01:00,24,4.00,17.00,23.00,21.00,30.00,0,0,"$GNGGA,172638.000,4900.5228,N,00825.4962,E,1,5,3.15,153.0,M,47.9,M,,*42",,,,
2022-01-11T18:27:02+01:00,25,4.00,15.00,24.00,20.00,33.00,0,0,"$GNGGA,172658.000,4900.5300,N,00825.4722,E,1,6,2.37,146.2,M,47.9,M,,*41",,,,
2022-01-11T18:27:22+01:00,26,5.00,10.00,25.00,22.00,33.00,0,0,"$GNGGA,172718.000,4900.5263,N,00825.4652,E,1,6,2.37,140.5,M,47.9,M,,*47",,,,
2022-01-11T18:27:42+01:00,27,2.00,13.00,26.00,22.00,33.00,0,0,"$GNGGA,172738.000,4900.5232,N,00825.4628,E,1,6,2.36,136.6,M,47.9,M,,*4F",,,,
2022-01-11T18:28:02+01:00,28,3.00,10.00,27.00,20.00,30.00,0,0,"$GNGGA,172758.000,4900.5244,N,00825.4538,E,1,6,2.35,132.2,M,47.9,M,,*49",,,,
2022-01-11T18:28:22+01:00,29,7.00,10.00,28.00,21.00,34.00,0,0,"$GNGGA,172818.000,4900.5232,N,00825.4588,E,1,6,2.35,127.2,M,47.9,M,,*4C",,,,
2022-01-11T18:28:42+01:00,30,6.00,10.00,29.00,24.00,33.00,0,0,"$GNGGA,172838.000,4900.5253,N,00825.4451,E,1,6,2.34,125.0,M,47.9,M,,*4D",,,,
2022-01-11T18:29:02+01:00,31,7.00,14.00,30.00,20.00,33.00,0,0,"$GNGGA,172858.000,4900.5276,N,00825.4586,E,1,6,2.33,126.3,M,47.9,M,,*40",,,,
2022-01-11T18:29:22+01:00,32,4.00,12.00,31.00,21.00,32.00,0,0,"$GNGGA,172918.000,4900.5296,N,00825.4615,E,1,6,2.33,123.9,M,47.9,M,,*4D",,,,
2022-01-11T18:29:42+01:00,33,6.00,18.00,32.00,22.00,33.00,0,0,"$GNGGA,172938.000,4900.5282,N,00825.4560,E,1,6,2.32,117.2,M,47.9,M,,*46",,,,
2022-01-11T18:30:02+01:00,34,6.00,15.00,33.00,24.00,31.00,0,0,"$GNGGA,172958.000,4900.5239,N,00825.4407,E,1,6,2.32,115.9,M,47.9,M,,*49",,,,
2022-01-11T18:30:22+01:00,35,5.00,10.00,34.00,21.00,30.00,0,0,"$GNGGA,173018.000,4900.5284,N,00825.4411,E,1,6,2.31,119.6,M,47.9,M,,*44",,,,
2022-01-11T18:30:42+01:00,36,4.00,16.00,35.00,20.00,31.00,0,0,"$GNGGA,173038.000,4900.5249,N,00825.4435,E,1,6,2.31,121.1,M,47.9,M,,*4D",,,,
2022-01-11T18:31:02+01:00,37,8.00,19.00,36.00,21.00,30.00,0,0,"$GNGGA,173058.000,4900.5252,N,00825.4488,E,1,6,2.30,113.8,M,47.9,M,,*4E",,,,
2022-01-11T18:31:22+01:00,38,5.00,10.00,37.00,23.00,33.00,0,0,"$GNGGA,173118.000,4900.5269,N,00825.4495,E,1,6,2.30,112.1,M,47.9,M,,*47",,,,
2022-01-11T18:31:42+01:00,39,5.00,13.00,38.00,22.00,31.00,0,0,"$GNGGA,173138.000,4900.5282,N,00825.4477,E,1,6,2.29,110.2,M,47.9,M,,*45",,,,
2022-01-11T18:32:02+01:00,40,4.00,17.00,39.00,22.00,31.00,0,0,"$GNGGA,173158.000,4900.5225,N,00825.4513,E,1,6,2.28,110.7,M,47.9,M,,*49",,,,
2022-01-11T18:32:22+01:00,41,7.00,12.00,40.00,20.00,32.00,0,0,"$GNGGA,173218.000,4900.5223,N,00825.4301,E,1,6,2.28,111.1,M,47.9,M,,*4A",,,,
2022-01-11T18:32:42+01:00,42,3.00,15.00,41.00,20.00,32.00,0,0,"$GNGGA,173238.000,4900.5216,N,00825.4213,E,1,6,2.27,112.1,M,47.9,M,,*40",,,,
2022-01-11T18:33:02+01:00,43,5.00,15.00,42.00,23.00,30.00,0,0,"$GNGGA,173258.000,4900.5237,N,00825.4311,E,1,6,2.27,114.7,M,47.9,M,,*46",,,,
2022-01-11T18:33:22+01:00,44,3.00,18.00,43.00,24.00,34.00,0,0,"$GNGGA,173318.000,4900.5224,N,00825.4454,E,1,6,2.27,116.5,M,47.9,M,,*47",,,,
2022-01-11T18:33:42+01:00,45,3.00,15.00,44.00,22.00,31.00,0,0,"$GNGGA,173338.000,4900.5243,N,00825.4545,E,1,6,2.26,118.2,M,47.9,M,,*4D",,,,
2022-01-11T18:34:02+01:00,46,6.00,12.00,45.00,21.00,30.00,0,0,"$GNGGA,173358.000,4900.5279,N,00825.4563,E,1,6,2.25,121.4,M,47.9,M,,*49",,,,
2022-01-11T18:34:22+01:00,47,7.00,17.00,46.00,23.00,32.00,0,0,"$GNGGA,173418.000,4900.5267,N,00825.4419,E,1,6,2.25,121.7,M,47.9,M,,*4A",,,,
2022-01-11T18:34:42+01:00,48,6.00,18.00,47.00,22.00,32.00,0,0,"$GNGGA,173438.000,4900.5225,N,00825.4446,E,1,6,2.24,120.9,M,47.9,M,,*4A",,,,
2022-01-11T18:35:02+01:00,49,4.00,11.00,48.00,23.00,30.00,0,0,"$GNGGA,173458.000,4900.5246,N,00825.4401,E,1,6,2.24,120.6,M,47.9,M,,*45",,,,
2022-01-11T18:35:22+01:00,50,8.00,12.00,49.00,23.00,32.00,0,0,"$GNGGA,173518.000,4900.5225,N,00825.4519,E,1,6,2.24,120.0,M,47.9,M,,*4B",,,,
2022-01-11T18:35:42+01:00,51,5.00,10.00,50.00,21.00,31.00,0,0,"$GNGGA,173538.000,4900.5259,N,00825.4452,E,1,6,2.23,119.0,M,47.9,M,,*41",,,,
2022-01-11T18:36:02+01:00,52,3.00,15.00,51.00,23.00,33.00,0,0,"$GNGGA,173558.000,4900.5264,N,00825.4470,E,1,6,2.23,121.9,M,47.9,M,,*4B",,,,
2022-01-11T18:36:22+01:00,53,7.00,10.00,52.00,24.00,30.00,0,0,"$GNGGA,173618.000,4900.5252,N,00825.4617,E,1,6,2.22,128.2,M,47.9,M,,*49",,,,
2022-01-11T18:36:42+01:00,54,5.00,10.00,53.00,20.00,33.00,0,0,"$GNGGA,173638.000,4900.5221,N,00825.4669,E,1,6,2.22,127.4,M,47.9,M,,*4F",,,,
2022-01-11T18:37:03+01:00,55,5.00,18.00,54.00,23.00,30.00,0,0,"$GNGGA,173658.000,4900.5248,N,00825.4598,E,1,6,2.21,125.1,M,47.9,M,,*4F",,,,
2022-01-11T18:37:22+01:00,56,9.00,14.00,55.00,20.00,33.00,0,0,"$GNGGA,173718.000,4900.5298,N,00825.4554,E,1,6,2.21,124.3,M,47.9,M,,*44",,,,
2022-01-11T18:37:42+01:00,57,8.00,12.00,56.00,21.00,31.00,0,0,"$GNGGA,173738.000,4900.5267,N,00825.4586,E,1,6,2.21,123.8,M,47.9,M,,*45",,,,
2022-01-11T18:38:02+01:00,58,2.00,10.00,57.00,22.00,34.00,0,0,"$GNGGA,173758.000,4900.5275,N,00825.4436,E,1,6,2.20,122.9,M,47.9,M,,*4B",,,,
2022-01-11T18:38:22+01:00,59,8.00,13.00,58.00,24.00,34.00,0,0,"$GNGGA,173818.000,4900.5283,N,00825.4436,E,1,6,3.85,123.3,M,47.9,M,,*4C",,,,
2022-01-11T18:38:42+01:00,60,4.00,16.00,59.00,22.00,32.00,0,0,"$GNGGA,173838.000,4900.5258,N,00825.4463,E,1,6,2.20,123.3,M,47.9,M,,*46",,,,
2022-01-11T18:39:02+01:00,61,3.00,13.00,60.00,23.00,32.00,0,0,"$GNGGA,173858.000,4900.5271,N,00825.4370,E,1,6,2.19,122.0,M,47.9,M,,*46",,,,
2022-01-11T18:39:22+01:00,62,2.00,10.00,61.00,20.00,30.00,0,0,"$GNGGA,173918.000,4900.5219,N,00825.4352,E,1,6,2.19,122.5,M,47.9,M,,*48",,,,
2022-01-11T18:39:42+01:00,63,2.00,17.00,62.00,20.00,30.00,0,0,"$GNGGA,173938.000,4900.5266,N,00825.4350,E,1,6,2.18,121.2,M,47.9,M,,*45",,,,
2022-01-11T18:40:02+01:00,64,5.00,15.00,63.00,21.00,33.00,0,0,"$GNGGA,173958.000,4900.5235,N,00825.4567,E,1,6,2.18,121.4,M,47.9,M,,*41",,,,
2022-01-11T18:40:22+01:00,65,3.00,17.00,64.00,24.00,32.00,0,0,"$GNGGA,174018.000,4900.5236,N,00825.4578,E,1,6,2.18,123.1,M,47.9,M,,*41",,,,
2022-01-11T18:40:42+01:00,66,5.00,19.00,65.00,21.00,30.00,0,0,"$GNGGA,174038.000,4900.5262,N,00825.4496,E,1,6,2.17,120.7,M,47.9,M,,*49",,,,
2022-01-11T18:41:02+01:00,67,2.00,19.00,66.00,24.00,34.00,0,0,"$GNGGA,174058.000,4900.5230,N,00825.4494,E,1,6,2.17,123.4,M,47.9,M,,*4A",,,,
2022-01-11T18:41:22+01:00,68,2.00,19.00,67.00,22.00,31.00,0,0,"$GNGGA,174118.000,4900.5215,N,00825.4511,E,1,6,2.17,126.4,M,47.9,M,,*41",,,,
2022-01-11T18:41:42+01:00,69,8.00,12.00,68.00,22.00,33.00,0,0,"$GNGGA,174138.000,4900.5248,N,00825.4579,E,1,6,2.17,131.6,M,47.9,M,,*41",,,,
2022-01-11T18:42:02+01:00,70,5.00,14.00,69.00,20.00,30.00,0,0,"$GNGGA,174158.000,4900.5222,N,00825.4549,E,1,6,2.16,133.3,M,47.9,M,,*4E",,,,
2022-01-11T18:42:22+01:00,71,2.00,13.00,70.00,23.00,30.00,0,0,"$GNGGA,174218.000,4900.5177,N,00825.4559,E,1,6,2.16,134.3,M,47.9,M,,*4C",,,,
2022-01-11T18:42:42+01:00,72,6.00,18.00,71.00,22.00,33.00,0,0,"$GNGGA,174238.000,4900.5222,N,00825.4507,E,1,6,2.16,134.1,M,47.9,M,,*44",,,,
2022-01-11T18:43:02+01:00,73,2.00,17.00,72.00,21.00,34.00,0,0,"$GNGGA,174258.000,4900.5244,N,00825.4615,E,1,6,2.15,139.2,M,47.9,M,,*4F",,,,
2022-01-11T18:43:22+01:00,74,8.00,14.00,73.00,22.00,31.00,0,0,"$GNGGA,174318.000,4900.5223,N,00825.4607,E,1,6,2.15,139.7,M,47.9,M,,*4D",,,,
2022-01-11T18:43:42+01:00,75,4.00,11.00,74.00,20.00,34.00,0,0,"$GNGGA,174338.000,4900.5275,N,00825.4538,E,1,6,2.15,137.9,M,47.9,M,,*43",,,,
2022-01-11T18:44:02+01:00,76,9.00,16.00,75.00,22.00,32.00,0,0,"$GNGGA,174358.000,4900.5298,N,00825.4490,E,1,6,2.15,136.8,M,47.9,M,,*45",,,,
2022-01-11T18:44:22+01:00,77,7.00,11.00,76.00,22.00,31.00,0,0,"$GNGGA,174418.000,4900.5316,N,00825.4553,E,1,6,2.15,136.7,M,47.9,M,,*40",,,,
2022-01-11T18:44:42+01:00,78,6.00,16.00,77.00,21.00,34.00,0,0,"$GNGGA,174438.000,4900.5314,N,00825.4491,E,1,6,2.15,134.7,M,47.9,M,,*4D",,,,
2022-01-11T18:45:02+01:00,79,4.00,14.00,78.00,23.00,34.00,0,0,"$GNGGA,174458.000,4900.5308,N,00825.4441,E,1,6,2.14,133.4,M,47.9,M,,*4E",,,,
2022-01-11T18:45:22+01:00,80,3.00,17.00,79.00,23.00,30.00,0,0,"$GNGGA,174518.000,4900.5242,N,00825.4502,E,1,6,2.14,128.9,M,47.9,M,,*45",,,,
2022-01-11T18:45:42+01:00,81,9.00,17.00,80.00,20.00,30.00,0,0,"$GNGGA,174538.000,4900.5245,N,00825.4460,E,1,6,2.14,130.9,M,47.9,M,,*4C",,,,
2022-01-11T18:46:02+01:00,82,7.00,11.00,81.00,21.00,31.00,0,0,"$GNGGA,174558.000,4900.5210,N,00825.4534,E,1,6,2.14,128.7,M,47.9,M,,*4D",,,,
2022-01-11T18:46:22+01:00,83,3.00,12.00,82.00,21.00,34.00,0,0,"$GNGGA,174618.000,4900.5187,N,00825.4557,E,1,6,2.14,125.1,M,47.9,M,,*49",,,,
2022-01-11T18:46:42+01:00,84,2.00,12.00,83.00,24.00,34.00,0,0,"$GNGGA,174638.000,4900.5206,N,00825.4544,E,1,6,2.13,122.8,M,47.9,M,,*4A",,,,
2022-01-11T18:47:02+01:00,85,5.00,14.00,84.00,20.00,34.00,0,0,"$GNGGA,174658.000,4900.5221,N,00825.4520,E,1,6,2.13,123.3,M,47.9,M,,*41",,,,
2022-01-11T18:47:22+01:00,86,6.00,14.00,85.00,24.00,32.00,0,0,"$GNGGA,174718.000,4900.5221,N,00825.4515,E,1,6,2.13,120.4,M,47.9,M,,*46",,,,
2022-01-11T18:47:42+01:00,87,6.00,12.00,86.00,23.00,34.00,0,0,"$GNGGA,174738.000,4900.5155,N,00825.4486,E,1,6,2.13,117.3,M,47.9,M,,*4C",,,,
2022-01-11T18:48:02+01:00,88,4.00,15.00,87.00,21.00,34.00,0,0,"$GNGGA,174758.000,4900.5200,N,00825.4399,E,1,6,2.13,113.3,M,47.9,M,,*44",,,,
2022-01-11T18:48:22+01:00,89,6.00,12.00,88.00,20.00,33.00,0,0,"$GNGGA,174818.000,4900.5226,N,00825.4357,E,1,6,2.13,110.7,M,47.9,M,,*4E",,,,
2022-01-11T18:48:43+01:00,90,7.00,17.00,89.00,22.00,34.00,0,0,"$GNGGA,174838.000,4900.5187,N,00825.4334,E,1,6,2.13,106.6,M,47.9,M,,*47",,,,
2022-01-11T18:49:02+01:00,91,5.00,16.00,90.00,22.00,34.00,0,0,"$GNGGA,174858.000,4900.5202,N,00825.4335,E,1,7,1.99,106.0,M,47.9,M,,*48",,,,
2022-01-11T18:49:22+01:00,92,8.00,10.00,91.00,22.00,31.00,0,0,"$GNGGA,174918.000,4900.5194,N,00825.4331,E,1,7,1.99,108.0,M,47.9,M,,*4B",,,,
2022-01-11T18:49:42+01:00,93,9.00,17.00,92.00,20.00,31.00,0,0,"$GNGGA,174938.000,4900.5233,N,00825.4409,E,1,7,1.99,107.5,M,47.9,M,,*41",,,,
2022-01-11T18:50:02+01:00,94,2.00,17.00,93.00,20.00,30.00,0,0,"$GNGGA,174958.000,4900.5219,N,00825.4418,E,1,7,1.99,111.4,M,47.9,M,,*49",,,,
2022-01-11T18:50:22+01:00,95,3.00,14.00,94.00,23.00,34.00,0,0,"$GNGGA,175018.000,4900.5189,N,00825.4412,E,1,7,1.99,113.2,M,47.9,M,,*41",,,,
2022-01-11T18:50:43+01:00,96,3.00,17.00,95.00,24.00,34.00,0,0,"$GNGGA,175038.000,4900.5188,N,00825.4401,E,1,7,1.99,113.8,M,47.9,M,,*4A",,,,
2022-01-11T18:51:03+01:00,97,9.00,16.00,96.00,22.00,33.00,0,0,"$GNGGA,175058.000,4900.5161,N,00825.4411,E,1,7,1.99,115.3,M,47.9,M,,*47",,,,
2022-01-11T18:51:23+01:00,98,3.00,14.00,97.00,20.00,33.00,0,0,"$GNGGA,175118.000,4900.5181,N,00825.4394,E,1,8,3.52,117.1,M,47.9,M,,*4C",,,,
2022-01-11T18:51:43+01:00,99,9.00,14.00,98.00,21.00,34.00,0,0,"$GNGGA,175138.000,4900.5185,N,00825.4519,E,1,9,1.90,118.8,M,47.9,M,,*42",,,,
2022-01-11T18:52:03+01:00,100,8.00,10.00,99.00,24.00,33.00,0,0,"$GNGGA,175158.000,4900.5157,N,00825.4547,E,1,10,1.79,120.9,M,47.9,M,,*75",,,,
2022-01-11T18:52:23+01:00,101,2.00,16.00,100.00,22.00,31.00,0,0,"$GNGGA,175218.000,4900.5188,N,00825.4549,E,1,10,1.79,121.4,M,47.9,M,,*72",,,,
2022-01-11T18:52:43+01:00,102,6.00,18.00,101.00,20.00,32.00,0,0,"$GNGGA,175238.000,4900.5172,N,00825.4605,E,1,10,1.79,123.1,M,47.9,M,,*79",,,,
2022-01-11T18:53:03+01:00,103,5.00,17.00,102.00,22.00,33.00,0,0,"$GNGGA,175258.000,4900.5161,N,00825.4583,E,1,10,1.79,122.7,M,47.9,M,,*77",,,,
2022-01-11T18:53:23+01:00,104,4.00,13.00,103.00,21.00,30.00,0,0,"$GNGGA,175318.000,4900.5144,N,00825.4605,E,1,10,1.79,123.3,M,47.9,M,,*7D",,,,
2022-01-11T18:53:43+01:00,105,3.00,12.00,104.00,20.00,31.00,0,0,"$GNGGA,175338.000,4900.5123,N,00825.4596,E,1,10,1.79,124.6,M,47.9,M,,*75",,,,
2022-01-11T18:54:03+01:00,106,5.00,18.00,105.00,22.00,31.00,0,0,"$GNGGA,175358.000,4900.5164,N,00825.4546,E,1,10,1.80,125.2,M,47.9,M,,*7E",,,,
2022-01-11T18:54:23+01:00,107,6.00,11.00,106.00,20.00,34.00,0,0,"$GNGGA,175418.000,4900.5181,N,00825.4456,E,1,9,2.15,125.6,M,47.9,M,,*45",,,,
2022-01-11T18:54:43+01:00,108,5.00,10.00,107.00,24.00,33.00,0,0,"$GNGGA,175438.000,4900.5215,N,00825.4480,E,1,9,2.15,124.5,M,47.9,M,,*40",,,,
2022-01-11T18:57:04+01:00,109,5.00,15.00,108.00,23.00,34.00,0,0,"$GNGGA,175659.000,4900.5191,N,00825.4474,E,1,10,2.13,126.4,M,47.9,M,,*7C",,,,
2022-01-11T18:57:24+01:00,110,3.00,19.00,109.00,22.00,33.00,0,0,"$GNGGA,175719.000,4900.5199,N,00825.4511,E,1,9,2.13,127.3,M,47.9,M,,*4D",,,,
2022-01-11T18:57:43+01:00,111,8.00,12.00,110.00,24.00,32.00,0,0,"$GNGGA,175739.000,4900.5195,N,00825.4296,E,1,9,2.76,123.3,M,47.9,M,,*4C",,,,
2022-01-11T18:58:04+01:00,112,4.00,17.00,111.00,21.00,32.00,0,0,"$GNGGA,175759.000,4900.5201,N,00825.4381,E,1,8,2.22,107.0,M,47.9,M,,*46",,,,
2022-01-11T18:58:24+01:00,113,3.00,18.00,112.00,22.00,31.00,0,0,"$GNGGA,175819.000,4900.5161,N,00825.4307,E,1,9,1.88,97.2,M,47.9,M,,*7E",,,,
2022-01-11T18:58:44+01:00,114,4.00,16.00,113.00,21.00,30.00,0,0,"$GNGGA,175839.000,4900.5133,N,00825.4241,E,1,10,1.82,98.5,M,47.9,M,,*42",,,,
2022-01-11T18:59:05+01:00,115,7.00,11.00,114.00,23.00,32.00,0,0,"$GNGGA,175900.000,4900.5168,N,00825.4194,E,1,10,1.83,102.9,M,47.9,M,,*73",,,,
2022-01-11T18:59:25+01:00,116,7.00,19.00,115.00,22.00,34.00,0,0,"$GNGGA,175920.000,4900.5149,N,00825.4187,E,1,10,1.83,108.0,M,47.9,M,,*73",,,,
2022-01-11T18:59:45+01:00,117,8.00,18.00,116.00,22.00,34.00,0,0,"$GNGGA,175940.000,4900.5157,N,00825.4308,E,1,10,1.83,111.7,M,47.9,M,,*70",,,,
2022-01-11T19:00:05+01:00,118,4.00,14.00,117.00,23.00,32.00,0,0,"$GNGGA,180000.000,4900.5151,N,00825.4384,E,1,10,1.83,106.4,M,47.9,M,,*70",,,,
2022-01-11T19:00:25+01:00,119,7.00,11.00,118.00,22.00,34.00,0,0,"$GNGGA,180020.000,4900.5168,N,00825.4306,E,1,10,2.14,107.9,M,47.9,M,,*73",,,,
2022-01-11T19:00:45+01:00,120,6.00,17.00,119.00,23.00,34.00,0,0,"$GNGGA,180040.000,4900.5189,N,00825.4296,E,1,10,1.84,108.1,M,47.9,M,,*7F",,,,
2022-01-11T19:01:05+01:00,121,7.00,13.00,120.00,24.00,34.00,0,0,"$GNGGA,180100.000,4900.5197,N,00825.4319,E,1,10,1.84,106.5,M,47.9,M,,*79",,,,
2022-01-11T19:01:25+01:00,122,2.00,17.00,121.00,21.00,31.00,0,0,"$GNGGA,180120.000,4900.5200,N,00825.4434,E,1,10,1.84,111.8,M,47.9,M,,*75",,,,
2022-01-11T19:01:46+01:00,123,6.00,13.00,122.00,20.00,33.00,0,0,"$GNGGA,180141.000,4900.5193,N,00825.4429,E,1,9,1.90,116.3,M,47.9,M,,*46",,,,
2022-01-11T19:02:06+01:00,124,8.00,17.00,123.00,21.00,30.00,0,0,"$GNGGA,180201.000,4900.5193,N,00825.4441,E,1,10,1.85,122.3,M,47.9,M,,*74",,,,
2022-01-11T19:02:26+01:00,125,8.00,10.00,124.00,23.00,32.00,0,0,"$GNGGA,180221.000,4900.5218,N,00825.4462,E,1,10,1.85,124.1,M,47.9,M,,*73",,,,
2022-01-11T19:02:46+01:00,126,3.00,11.00,125.00,23.00,32.00,0,0,"$GNGGA,180241.000,4900.5205,N,00825.4454,E,1,10,1.85,124.9,M,47.9,M,,*74",,,,
2022-01-11T19:03:06+01:00,127,9.00,18.00,126.00,21.00,33.00,0,0,"$GNGGA,180301.000,4900.5204,N,00825.4479,E,1,10,1.86,119.5,M,47.9,M,,*7E",,,,
2022-01-11T19:03:26+01:00,128,9.00,13.00,127.00,24.00,32.00,0,0,"$GNGGA,180321.000,4900.5222,N,00825.4486,E,1,10,1.86,113.1,M,47.9,M,,*76",,,,
2022-01-11T19:03:46+01:00,129,2.00,14.00,128.00,21.00,31.00,0,0,"$GNGGA,180341.000,4900.5182,N,00825.4406,E,1,10,1.86,114.6,M,47.9,M,,*71",,,,
2022-01-11T19:04:06+01:00,130,2.00,19.00,129.00,23.00,34.00,0,0,"$GNGGA,180401.000,4900.5170,N,00825.4376,E,1,10,1.86,119.1,M,47.9,M,,*75",,,,
2022-01-11T19:04:26+01:00,131,3.00,12.00,130.00,24.00,31.00,0,0,"$GNGGA,180421.000,4900.5186,N,00825.4431,E,1,10,1.87,120.1,M,47.9,M,,*71",,,,
2022-01-11T19:04:47+01:00,132,5.00,10.00,131.00,20.00,32.00,0,0,"$GNGGA,180442.000,4900.5214,N,00825.4453,E,1,10,1.87,111.3,M,47.9,M,,*78",,,,
2022-01-11T19:05:07+01:00,133,6.00,11.00,132.00,20.00,31.00,0,0,"$GNGGA,180502.000,4900.5208,N,00825.4432,E,1,10,1.87,107.0,M,47.9,M,,*73",,,,
2022-01-11T19:05:27+01:00,134,2.00,17.00,133.00,23.00,32.00,0,0,"$GNGGA,180522.000,4900.5181,N,00825.4315,E,1,10,1.88,107.3,M,47.9,M,,*7D",,,,
2022-01-11T19:05:47+01:00,135,5.00,17.00,134.00,21.00,34.00,0,0,"$GNGGA,180542.000,4900.5207,N,00825.4337,E,1,10,1.88,106.7,M,47.9,M,,*73",,,,
2022-01-11T19:06:07+01:00,136,6.00,14.00,135.00,23.00,33.00,0,0,"$GNGGA,180602.000,4900.5179,N,00825.4291,E,1,10,1.88,106.8,M,47.9,M,,*7C",,,,
2022-01-11T19:06:27+01:00,137,9.00,11.00,136.00,21.00,32.00,0,0,"$GNGGA,180622.000,4900.5197,N,00825.4378,E,1,10,1.88,109.3,M,47.9,M,,*7C",,,,
2022-01-11T19:06:47+01:00,138,5.00,17.00,137.00,21.00,33.00,0,0,"$GNGGA,180642.000,4900.5171,N,00825.4355,E,1,10,1.89,110.8,M,47.9,M,,*7F",,,,
2022-01-11T19:07:07+01:00,139,7.00,18.00,138.00,20.00,30.00,0,0,"$GNGGA,180702.000,4900.5180,N,00825.4351,E,1,10,1.89,110.6,M,47.9,M,,*7E",,,,
2022-01-11T19:07:27+01:00,140,2.00,14.00,139.00,24.00,34.00,0,0,"$GNGGA,180722.000,4900.5178,N,00825.4391,E,1,10,1.89,105.8,M,47.9,M,,*7D",,,,
2022-01-11T19:07:47+01:00,141,3.00,12.00,140.00,21.00,34.00,0,0,"$GNGGA,180742.000,4900.5177,N,00825.4339,E,1,10,2.19,100.7,M,47.9,M,,*76",,,,
2022-01-11T19:08:07+01:00,142,9.00,11.00,141.00,23.00,33.00,0,0,"$GNGGA,180802.000,4900.5164,N,00825.4239,E,1,10,1.90,96.0,M,47.9,M,,*45",,,,
2022-01-11T19:08:27+01:00,143,9.00,14.00,142.00,23.00,33.00,0,0,"$GNGGA,180822.000,4900.5188,N,00825.4287,E,1,10,1.90,98.2,M,47.9,M,,*4C",,,,
2022-01-11T19:08:48+01:00,144,6.00,17.00,143.00,21.00,33.00,0,0,"$GNGGA,180843.000,4900.5177,N,00825.4309,E,1,10,1.91,102.7,M,47.9,M,,*7A",,,,
2022-01-11T19:09:08+01:00,145,5.00,16.00,144.00,22.00,33.00,0,0,"$GNGGA,180903.000,4900.5155,N,00825.4297,E,1,10,4.43,106.5,M,47.9,M,,*75",,,,
2022-01-11T19:09:28+01:00,146,9.00,15.00,145.00,20.00,32.00,0,0,"$GNGGA,180923.000,4900.5152,N,00825.4306,E,1,10,1.91,109.4,M,47.9,M,,*7D",,,,
2022-01-11T19:09:49+01:00,147,4.00,19.00,146.00,22.00,33.00,0,0,"$GNGGA,180944.000,4900.5177,N,00825.4351,E,1,10,4.45,103.4,M,47.9,M,,*7F",,,,
2022-01-11T19:10:09+01:00,148,2.00,15.00,147.00,24.00,33.00,0,0,"$GNGGA,181004.000,4900.5188,N,00825.4369,E,1,10,2.21,101.1,M,47.9,M,,*7B",,,,
2022-01-11T19:10:29+01:00,149,3.00,15.00,148.00,20.00,31.00,0,0,"$GNGGA,181024.000,4900.5153,N,00825.4298,E,1,10,1.92,96.8,M,47.9,M,,*4D",,,,
2022-01-11T19:10:50+01:00,150,7.00,19.00,149.00,23.00,34.00,0,0,"$GNGGA,181045.000,4900.5161,N,00825.4244,E,1,9,1.99,93.8,M,47.9,M,,*7C",,,,
2022-01-11T19:11:10+01:00,151,8.00,19.00,150.00,20.00,33.00,0,0,"$GNGGA,181105.000,4900.5146,N,00825.4157,E,1,10,1.93,91.9,M,47.9,M,,*4C",,,,
2022-01-11T19:11:30+01:00,152,5.00,18.00,151.00,21.00,31.00,0,0,"$GNGGA,181125.000,4900.5119,N,00825.4168,E,1,10,1.94,92.5,M,47.9,M,,*40",,,,
2022-01-11T19:11:51+01:00,153,2.00,14.00,152.00,22.00,30.00,0,0,"$GNGGA,181146.000,4900.5156,N,00825.4227,E,1,10,1.94,90.7,M,47.9,M,,*46",,,,
2022-01-11T19:12:11+01:00,154,7.00,12.00,153.00,23.00,31.00,0,0,"$GNGGA,181206.000,4900.5163,N,00825.4187,E,1,10,1.94,81.6,M,47.9,M,,*4F",,,,
2022-01-11T19:12:31+01:00,155,6.00,14.00,154.00,22.00,31.00,0,0,"$GNGGA,181226.000,4900.5139,N,00825.4119,E,1,10,1.95,76.8,M,47.9,M,,*42",,,,
2022-01-11T19:12:51+01:00,156,3.00,13.00,155.00,22.00,32.00,0,0,"$GNGGA,181246.000,4900.5108,N,00825.4100,E,1,10,1.95,80.1,M,47.9,M,,*4E",,,,
2022-01-11T19:13:11+01:00,157,7.00,17.00,156.00,23.00,33.00,0,0,"$GNGGA,181306.000,4900.5121,N,00825.4075,E,1,10,1.95,78.0,M,47.9,M,,*45",,,,
2022-01-11T19:13:32+01:00,158,2.00,12.00,157.00,21.00,31.00,0,0,"$GNGGA,181327.000,4900.5118,N,00825.4110,E,1,10,1.96,83.4,M,47.9,M,,*4D",,,,
2022-01-11T19:13:52+01:00,159,5.00,16.00,158.00,21.00,30.00,0,0,"$GNGGA,181347.000,4900.5105,N,00825.4173,E,1,10,6.70,90.0,M,47.9,M,,*4B",,,,
2022-01-11T19:14:12+01:00,160,8.00,12.00,159.00,21.00,32.00,0,0,"$GNGGA,181407.000,4900.5112,N,00825.4132,E,1,10,1.97,86.8,M,47.9,M,,*4A",,,,
2022-01-11T19:14:33+01:00,161,9.00,16.00,160.00,23.00,34.00,0,0,"$GNGGA,181428.000,4900.5153,N,00825.4143,E,1,10,2.26,82.6,M,47.9,M,,*47",,,,
2022-01-11T19:14:53+01:00,162,7.00,16.00,161.00,20.00,30.00,0,0,"$GNGGA,181448.000,4900.5166,N,00825.4158,E,1,10,1.97,79.6,M,47.9,M,,*40",,,,
2022-01-11T19:15:13+01:00,163,4.00,17.00,162.00,22.00,30.00,0,0,"$GNGGA,181508.000,4900.5185,N,00825.4111,E,1,10,1.98,72.7,M,47.9,M,,*40",,,,
2022-01-11T19:15:34+01:00,164,6.00,12.00,163.00,24.00,32.00,0,0,"$GNGGA,181529.000,4900.5145,N,00825.3980,E,1,10,1.98,66.8,M,47.9,M,,*42",,,,
2022-01-11T19:15:54+01:00,165,7.00,15.00,164.00,22.00,33.00,0,0,"$GNGGA,181549.000,4900.5144,N,00825.3965,E,1,10,1.99,64.6,M,47.9,M,,*43",,,,
2022-01-11T19:16:14+01:00,166,2.00,12.00,165.00,20.00,33.00,0,0,"$GNGGA,181609.000,4900.5179,N,00825.3975,E,1,10,1.99,70.0,M,47.9,M,,*48",,,,
2022-01-11T19:16:34+01:00,167,6.00,18.00,166.00,20.00,30.00,0,0,"$GNGGA,181629.000,4900.5164,N,00825.4065,E,1,10,2.00,78.4,M,47.9,M,,*46",,,,
2022-01-11T19:16:54+01:00,168,6.00,17.00,167.00,22.00,32.00,0,0,"$GNGGA,181649.000,4900.5149,N,00825.4118,E,1,10,2.29,84.6,M,47.9,M,,*4E",,,,
2022-01-11T19:17:15+01:00,169,2.00,14.00,168.00,22.00,33.00,0,0,"$GNGGA,181710.000,4900.5173,N,00825.4189,E,1,10,2.00,86.8,M,47.9,M,,*45",,,,
2022-01-11T19:17:35+01:00,170,9.00,13.00,169.00,24.00,32.00,0,0,"$GNGGA,181730.000,4900.5180,N,00825.4250,E,1,11,1.19,90.4,M,47.9,M,,*4D",,,,
2022-01-11T19:17:55+01:00,171,8.00,17.00,170.00,24.00,30.00,0,0,"$GNGGA,181750.000,4900.5145,N,00825.4162,E,1,11,2.01,89.9,M,47.9,M,,*4F",,,,
2022-01-11T19:18:15+01:00,172,6.00,15.00,171.00,23.00,30.00,0,0,"$GNGGA,181810.000,4900.5134,N,00825.4127,E,1,10,2.30,91.5,M,47.9,M,,*45",,,,
2022-01-11T19:18:35+01:00,173,8.00,19.00,172.00,23.00,30.00,0,0,"$GNGGA,181830.000,4900.5141,N,00825.4118,E,1,10,2.02,92.8,M,47.9,M,,*46",,,,
2022-01-11T19:18:56+01:00,174,8.00,18.00,173.00,22.00,34.00,0,0,"$GNGGA,181851.000,4900.5193,N,00825.4229,E,1,11,1.19,90.6,M,47.9,M,,*4B",,,,
2022-01-11T19:19:16+01:00,175,7.00,10.00,174.00,24.00,30.00,0,0,"$GNGGA,181911.000,4900.5169,N,00825.4239,E,1,10,2.03,90.3,M,47.9,M,,*46",,,,
2022-01-11T19:19:36+01:00,176,3.00,18.00,175.00,23.00,34.00,0,0,"$GNGGA,181931.000,4900.5164,N,00825.4231,E,1,11,1.19,92.3,M,47.9,M,,*4A",,,,
2022-01-11T19:19:57+01:00,177,9.00,18.00,176.00,20.00,30.00,0,0,"$GNGGA,181952.000,4900.5148,N,00825.4254,E,1,11,1.19,94.3,M,47.9,M,,*44",,,,
2022-01-11T19:20:17+01:00,178,5.00,18.00,177.00,23.00,32.00,0,0,"$GNGGA,182012.000,4900.5174,N,00825.4309,E,1,11,1.19,98.3,M,47.9,M,,*40",,,,
2022-01-11T19:20:37+01:00,179,6.00,11.00,178.00,21.00,34.00,0,0,"$GNGGA,182032.000,4900.5292,N,00825.4446,E,1,11,1.19,103.9,M,47.9,M,,*7C",,,,
2022-01-11T19:20:58+01:00,180,9.00,11.00,179.00,20.00,33.00,0,0,"$GNGGA,182053.000,4900.5318,N,00825.4504,E,1,11,1.19,108.1,M,47.9,M,,*7C",,,,
2022-01-11T19:21:18+01:00,181,7.00,13.00,180.00,24.00,31.00,0,0,"$GNGGA,182113.000,4900.5266,N,00825.4627,E,1,11,1.19,125.0,M,47.9,M,,*7D",,,,
2022-01-11T19:21:38+01:00,182,2.00,18.00,181.00,20.00,34.00,0,0,"$GNGGA,182133.000,4900.5371,N,00825.5096,E,1,11,1.19,161.2,M,47.9,M,,*77",,,,
2022-01-11T19:21:59+01:00,183,6.00,13.00,182.00,21.00,32.00,0,0,"$GNGGA,182154.000,4900.5473,N,00825.5616,E,1,11,1.19,184.9,M,47.9,M,,*7D",,,,
2022-01-11T19:22:19+01:00,184,2.00,10.00,183.00,22.00,34.00,0,0,"$GNGGA,182214.000,4900.5479,N,00825.5583,E,1,10,1.38,199.5,M,47.9,M,,*7D",,,,
2022-01-11T19:22:39+01:00,185,5.00,19.00,184.00,21.00,34.00,0,0,"$GNGGA,182234.000,4900.5439,N,00825.5380,E,1,11,1.19,203.6,M,47.9,M,,*7F",,,,
2022-01-11T19:22:59+01:00,186,7.00,11.00,185.00,23.00,33.00,0,0,"$GNGGA,182254.000,4900.5478,N,00825.5461,E,1,11,1.19,203.9,M,47.9,M,,*7B",,,,
2022-01-11T19:23:19+01:00,187,7.00,13.00,186.00,23.00,34.00,0,0,"$GNGGA,182314.000,4900.5444,N,00825.5345,E,1,10,2.09,209.2,M,47.9,M,,*72",,,,
2022-01-11T19:23:39+01:00,188,2.00,16.00,187.00,20.00,34.00,0,0,"$GNGGA,182334.000,4900.5459,N,00825.5610,E,1,11,1.18,217.1,M,47.9,M,,*77",,,,
2022-01-11T19:23:59+01:00,189,6.00,12.00,188.00,20.00,34.00,0,0,"$GNGGA,182354.000,4900.5432,N,00825.5553,E,1,11,1.18,220.9,M,47.9,M,,*74",,,,
2022-01-11T19:24:19+01:00,190,9.00,11.00,189.00,23.00,32.00,0,0,"$GNGGA,182414.000,4900.5371,N,00825.5666,E,1,11,1.18,224.4,M,47.9,M,,*7B",,,,
2022-01-11T19:24:39+01:00,191,4.00,17.00,190.00,20.00,33.00,0,0,"$GNGGA,182434.000,4900.5465,N,00825.5869,E,1,11,1.18,232.8,M,47.9,M,,*71",,,,
2022-01-11T19:24:59+01:00,192,2.00,19.00,191.00,21.00,33.00,0,0,"$GNGGA,182454.000,4900.5582,N,00825.5971,E,1,11,1.18,240.0,M,47.9,M,,*7A",,,,
2022-01-11T19:25:20+01:00,193,5.00,11.00,192.00,23.00,30.00,0,0,"$GNGGA,182515.000,4900.5582,N,00825.5767,E,1,10,2.42,252.7,M,47.9,M,,*7E",,,,
2022-01-11T19:25:41+01:00,194,6.00,17.00,193.00,24.00,30.00,0,0,"$GNGGA,182536.000,4900.5660,N,00825.5955,E,1,11,1.18,264.1,M,47.9,M,,*71",,,,
2022-01-11T19:26:01+01:00,195,9.00,16.00,194.00,20.00,34.00,0,0,"$GNGGA,182556.000,4900.5619,N,00825.5682,E,1,11,1.18,269.4,M,47.9,M,,*74",,,,
2022-01-11T19:26:21+01:00,196,6.00,12.00,195.00,24.00,33.00,0,0,"$GNGGA,182616.000,4900.5627,N,00825.5734,E,1,11,1.18,267.4,M,47.9,M,,*7C",,,,
2022-01-11T19:26:42+01:00,197,3.00,19.00,196.00,24.00,31.00,0,0,"$GNGGA,182637.000,4900.5718,N,00825.5989,E,1,11,1.18,283.1,M,47.9,M,,*75",,,,
2022-01-11T19:27:03+01:00,198,7.00,19.00,197.00,23.00,32.00,0,0,"$GNGGA,182658.000,4900.5740,N,00825.6195,E,1,11,1.18,306.2,M,47.9,M,,*78",,,,
2022-01-11T19:27:24+01:00,199,3.00,18.00,198.00,24.00,31.00,0,0,"$GNGGA,182719.000,4900.5768,N,00825.6152,E,1,11,1.18,313.6,M,47.9,M,,*7D",,,,
2022-01-11T19:27:44+01:00,200,5.00,11.00,199.00,22.00,33.00,0,0,"$GNGGA,182739.000,4900.5702,N,00825.6053,E,1,11,1.18,309.5,M,47.9,M,,*7B",,,,
2022-01-11T19:28:04+01:00,201,5.00,11.00,200.00,23.00,31.00,0,0,"$GNGGA,182759.000,4900.5679,N,00825.6055,E,1,11,1.18,309.2,M,47.9,M,,*71",,,,
2022-01-11T19:28:24+01:00,202,7.00,10.00,201.00,24.00,32.00,0,0,"$GNGGA,182819.000,4900.5647,N,00825.6030,E,1,10,1.38,302.9,M,47.9,M,,*77",,,,
2022-01-11T19:28:44+01:00,203,3.00,17.00,202.00,24.00,31.00,0,0,"$GNGGA,182839.000,4900.5604,N,00825.6002,E,1,11,1.18,302.0,M,47.9,M,,*79",,,,
2022-01-11T19:29:04+01:00,204,8.00,11.00,203.00,23.00,33.00,0,0,"$GNGGA,182859.000,4900.5544,N,00825.5945,E,1,11,1.18,298.5,M,47.9,M,,*76",,,,
2022-01-11T19:29:24+01:00,205,3.00,11.00,204.00,23.00,31.00,0,0,"$GNGGA,182919.000,4900.5584,N,00825.6109,E,1,11,1.18,308.1,M,47.9,M,,*70",,,,
2022-01-11T19:29:44+01:00,206,4.00,18.00,205.00,21.00,34.00,0,0,"$GNGGA,182939.000,4900.5560,N,00825.6170,E,1,11,1.18,309.9,M,47.9,M,,*7F",,,,
2022-01-11T19:30:04+01:00,207,2.00,10.00,206.00,24.00,30.00,0,0,"$GNGGA,182959.000,4900.5539,N,00825.6096,E,1,11,1.18,306.8,M,47.9,M,,*72",,,,
2022-01-11T19:30:24+01:00,208,7.00,17.00,207.00,22.00,31.00,0,0,"$GNGGA,183019.000,4900.5493,N,00825.6031,E,1,11,1.18,305.8,M,47.9,M,,*71",,,,
2022-01-11T19:30:44+01:00,209,5.00,12.00,208.00,20.00,33.00,0,0,"$GNGGA,183039.000,4900.5441,N,00825.6069,E,1,11,1.18,303.4,M,47.9,M,,*7B",,,,
2022-01-11T19:31:04+01:00,210,3.00,18.00,209.00,23.00,30.00,0,0,"$GNGGA,183059.000,4900.5466,N,00825.6032,E,1,11,1.18,300.8,M,47.9,M,,*79",,,,
2022-01-11T19:31:24+01:00,211,3.00,13.00,210.00,22.00,32.00,0,0,"$GNGGA,183119.000,4900.5475,N,00825.6029,E,1,11,1.18,295.6,M,47.9,M,,*77",,,,
2022-01-11T19:31:44+01:00,212,7.00,11.00,211.00,24.00,33.00,0,0,"$GNGGA,183139.000,4900.5474,N,00825.5955,E,1,11,1.18,284.5,M,47.9,M,,*76",,,,
2022-01-11T19:32:04+01:00,213,2.00,11.00,212.00,20.00,31.00,0,0,"$GNGGA,183159.000,4900.5490,N,00825.5753,E,1,11,1.18,277.3,M,47.9,M,,*78",,,,
2022-01-11T19:32:24+01:00,214,2.00,17.00,213.00,24.00,31.00,0,0,"$GNGGA,183219.000,4900.5507,N,00825.5512,E,1,11,1.18,259.9,M,47.9,M,,*71",,,,
2022-01-11T19:32:44+01:00,215,3.00,14.00,214.00,21.00,32.00,0,0,"$GNGGA,183239.000,4900.5508,N,00825.5666,E,1,11,1.30,249.5,M,47.9,M,,*7B",,,,
2022-01-11T19:33:04+01:00,216,7.00,15.00,215.00,24.00,32.00,0,0,"$GNGGA,183259.000,4900.5480,N,00825.5699,E,1,11,1.30,247.4,M,47.9,M,,*73",,,,
2022-01-11T19:33:24+01:00,217,8.00,19.00,216.00,22.00,34.00,0,0,"$GNGGA,183319.000,4900.5501,N,00825.5733,E,1,11,1.18,247.2,M,47.9,M,,*73",,,,
2022-01-11T19:33:44+01:00,218,2.00,10.00,217.00,21.00,31.00,0,0,"$GNGGA,183339.000,4900.5517,N,00825.5753,E,1,11,1.30,246.7,M,47.9,M,,*7E",,,,
2022-01-11T19:34:04+01:00,219,3.00,10.00,218.00,22.00,34.00,0,0,"$GNGGA,183359.000,4900.5484,N,00825.5868,E,1,11,1.17,246.2,M,47.9,M,,*74",,,,
2022-01-11T19:34:24+01:00,220,8.00,17.00,219.00,24.00,34.00,0,0,"$GNGGA,183419.000,4900.5472,N,00825.5736,E,1,11,1.17,244.3,M,47.9,M,,*79",,,,
2022-01-11T19:34:44+01:00,221,3.00,11.00,220.00,24.00,30.00,0,0,"$GNGGA,183439.000,4900.5488,N,00825.5781,E,1,11,1.17,239.0,M,47.9,M,,*7B",,,,
2022-01-11T19:35:04+01:00,222,4.00,14.00,221.00,21.00,34.00,0,0,"$GNGGA,183459.000,4900.5505,N,00825.5807,E,1,11,1.17,236.5,M,47.9,M,,*72",,,,
2022-01-11T19:35:24+01:00,223,5.00,10.00,222.00,22.00,33.00,0,0,"$GNGGA,183519.000,4900.5514,N,00825.5914,E,1,11,1.17,235.9,M,47.9,M,,*7B",,,,
2022-01-11T19:35:44+01:00,224,9.00,13.00,223.00,23.00,30.00,0,0,"$GNGGA,183539.000,4900.5490,N,00825.5854,E,1,11,1.17,240.6,M,47.9,M,,*7C",,,,
2022-01-11T19:36:04+01:00,225,7.00,15.00,224.00,24.00,34.00,0,0,"$GNGGA,183559.000,4900.5499,N,00825.5923,E,1,11,1.17,245.9,M,47.9,M,,*78",,,,
2022-01-11T19:36:24+01:00,226,6.00,13.00,225.00,21.00,32.00,0,0,"$GNGGA,183619.000,4900.5483,N,00825.5844,E,1,11,1.17,244.0,M,47.9,M,,*7C",,,,
2022-01-11T19:36:44+01:00,227,9.00,13.00,226.00,24.00,33.00,0,0,"$GNGGA,183639.000,4900.5459,N,00825.5654,E,1,11,1.17,234.7,M,47.9,M,,*76",,,,
2022-01-11T19:37:04+01:00,228,8.00,12.00,227.00,23.00,32.00,0,0,"$GNGGA,183659.000,4900.5461,N,00825.5543,E,1,11,1.17,229.1,M,47.9,M,,*74",,,,
2022-01-11T19:37:24+01:00,229,7.00,12.00,228.00,21.00,34.00,0,0,"$GNGGA,183719.000,4900.5471,N,00825.5554,E,1,11,1.44,228.0,M,47.9,M,,*70",,,,
2022-01-11T19:37:44+01:00,230,7.00,17.00,229.00,21.00,32.00,0,0,"$GNGGA,183739.000,4900.5498,N,00825.5628,E,1,10,1.17,224.9,M,47.9,M,,*7F",,,,
2022-01-11T19:38:04+01:00,231,3.00,12.00,230.00,20.00,30.00,0,0,"$GNGGA,183759.000,4900.5503,N,00825.5571,E,1,11,1.17,221.4,M,47.9,M,,*7C",,,,
2022-01-11T19:38:24+01:00,232,2.00,19.00,231.00,24.00,32.00,0,0,"$GNGGA,183819.000,4900.5482,N,00825.5651,E,1,11,1.17,222.7,M,47.9,M,,*7E",,,,
2022-01-11T19:38:44+01:00,233,3.00,17.00,232.00,22.00,30.00,0,0,"$GNGGA,183839.000,4900.5443,N,00825.5785,E,1,11,1.17,225.9,M,47.9,M,,*70",,,,
2022-01-11T19:39:04+01:00,234,4.00,10.00,233.00,23.00,33.00,0,0,"$GNGGA,183859.000,4900.5487,N,00825.5848,E,1,11,1.17,241.5,M,47.9,M,,*7E",,,,
2022-01-11T19:39:24+01:00,235,9.00,19.00,234.00,21.00,32.00,0,0,"$GNGGA,183919.000,4900.5471,N,00825.5844,E,1,10,1.36,247.2,M,47.9,M,,*7D",,,,
2022-01-11T19:39:44+01:00,236,5.00,17.00,235.00,20.00,30.00,0,0,"$GNGGA,183939.000,4900.5421,N,00825.5973,E,1,10,1.36,250.0,M,47.9,M,,*7B",,,,
2022-01-11T19:40:05+01:00,237,4.00,12.00,236.00,23.00,31.00,0,0,"$GNGGA,184000.000,4900.5327,N,00825.6103,E,1,10,1.36,255.5,M,47.9,M,,*72",,,,
