created_at,entry_id,field1,field2,field3,field4,field5,field6,field7,field8,latitude,longitude,elevation,status
2022-02-18T20:23:37+01:00,585,22.6,30.11,995.98,21.1,22.2,0,19.5,"$GNGGA,192332.293,4900.5169,N,00825.4840,E,0,0,,131.1,M,47.9,M,,*54",,,,
2022-02-18T20:23:57+01:00,586,21.93,29.79,995.99,19.9,20.9,0,18.5,"$GNGGA,192352.311,4900.5169,N,00825.4840,E,0,0,,131.1,M,47.9,M,,*59",,,,
2022-02-18T20:24:17+01:00,587,21.31,30.5,995.97,19.3,20.3,0,17.5,"$GNGGA,192412.296,4900.4962,N,00825.4205,E,0,3,,131.1,M,47.9,M,,*5E",,,,
2022-02-18T20:24:38+01:00,588,20.57,31.12,995.97,18.3,19.3,0,17,"$GNGGA,192433.000,4900.4932,N,00825.4315,E,1,5,1.67,121.4,M,47.9,M,,*48",,,,
2022-02-18T20:24:58+01:00,589,19.69,32.89,995.94,18.8,19.8,0,16,"$GNGGA,192453.000,4900.4854,N,00825.4312,E,1,6,1.50,121.4,M,47.9,M,,*4F",,,,
2022-02-18T20:25:19+01:00,590,18.89,34.17,995.93,19.2,20.2,0,16,"$GNGGA,192514.000,4900.4789,N,00825.4303,E,1,6,1.51,104.0,M,47.9,M,,*40",,,,
2022-02-18T20:25:43+01:00,591,18.15,35.77,995.95,20.1,21.2,0,15.5,"$GNGGA,192538.000,4900.4626,N,00825.4180,E,1,7,1.45,109.4,M,47.9,M,,*4E",,,,
2022-02-18T20:26:04+01:00,592,17.64,36.17,995.95,20.7,21.8,0,15.5,"$GNGGA,192559.000,4900.4547,N,00825.4501,E,1,6,1.51,124.6,M,47.9,M,,*49",,,,
2022-02-18T20:26:25+01:00,593,17.29,36.2,995.97,21.5,22.6,0,15.5,"$GNGGA,192620.000,4900.4472,N,00825.4923,E,1,7,1.46,149.2,M,47.9,M,,*47",,,,
2022-02-18T20:26:46+01:00,594,16.69,36.7,995.97,20.8,21.9,0,14.5,"$GNGGA,192641.000,4900.4456,N,00825.5083,E,1,6,1.52,157.7,M,47.9,M,,*4A",,,,
2022-02-18T20:27:07+01:00,595,16.19,38.31,995.98,20.6,21.7,0,14.5,"$GNGGA,192702.000,4900.4479,N,00825.5361,E,1,7,1.47,154.9,M,47.9,M,,*46",,,,
2022-02-18T20:27:27+01:00,596,15.6,39.06,996.03,20.7,21.8,0,14,"$GNGGA,192722.000,4900.4463,N,00825.5581,E,1,7,1.47,147.9,M,47.9,M,,*45",,,,
2022-02-18T20:27:50+01:00,597,15.01,40.3,996.08,21.4,22.5,0,13.5,"$GNGGA,192744.000,4900.4428,N,00825.5779,E,2,7,1.47,147.3,M,47.9,M,,*46",,,,
2022-02-18T20:28:14+01:00,598,14.53,41.03,996.12,20.9,22,0,13.5,"$GNGGA,192805.000,4900.4403,N,00825.5940,E,2,7,1.09,135.1,M,47.9,M,,*4C",,,,
2022-02-18T20:28:35+01:00,599,14.2,41.46,996.14,20.7,21.8,0,13.5,"$GNGGA,192830.000,4900.4370,N,00825.6121,E,2,8,1.02,130.0,M,47.9,M,,*45",,,,
2022-02-18T20:28:57+01:00,600,13.95,41.7,996.14,20,21.1,0,13,"$GNGGA,192852.000,4900.4259,N,00825.6173,E,2,6,1.41,128.8,M,47.9,M,,*44",,,,
2022-02-18T20:29:18+01:00,601,13.62,42.22,996.16,18.6,19.6,0,12.5,"$GNGGA,192913.000,4900.4169,N,00825.6127,E,2,7,1.11,129.6,M,47.9,M,,*4A",,,,
2022-02-18T20:29:39+01:00,602,13.2,43.39,996.14,17.2,18.1,0,12.5,"$GNGGA,192934.000,4900.4208,N,00825.5967,E,2,8,1.03,128.2,M,47.9,M,,*4D",,,,
2022-02-18T20:30:00+01:00,603,12.83,44.54,996.11,17.7,18.6,0,12,"$GNGGA,192955.000,4900.4240,N,00825.5766,E,2,8,1.03,124.2,M,47.9,M,,*45",,,,
2022-02-18T20:30:21+01:00,604,12.57,44.92,996.1,18.7,19.7,0,12,"$GNGGA,193016.000,4900.4270,N,00825.5556,E,2,8,1.03,126.0,M,47.9,M,,*48",,,,
2022-02-18T20:30:42+01:00,605,12.34,45.22,996.05,19.8,20.8,0,12,"$GNGGA,193037.000,4900.4309,N,00825.5364,E,2,8,1.03,126.2,M,47.9,M,,*41",,,,
2022-02-18T20:31:03+01:00,606,12.21,45.49,996.05,20.2,21.3,0,12,"$GNGGA,193058.000,4900.4336,N,00825.5174,E,2,8,1.07,130.5,M,47.9,M,,*43",,,,
2022-02-18T20:31:24+01:00,607,12.11,45.55,996.05,19.6,20.6,0,12,"$GNGGA,193119.000,4900.4376,N,00825.4967,E,2,8,1.03,130.6,M,47.9,M,,*4F",,,,
2022-02-18T20:31:45+01:00,608,12.05,45.57,996.07,18.7,19.7,0,12,"$GNGGA,193140.000,4900.4443,N,00825.4838,E,2,8,1.03,122.9,M,47.9,M,,*45",,,,
2022-02-18T20:32:06+01:00,609,11.94,45.52,996.07,17.8,18.7,0,12,"$GNGGA,193201.000,4900.4475,N,00825.4668,E,2,8,1.03,124.5,M,47.9,M,,*47",,,,
2022-02-18T20:32:27+01:00,610,11.92,45.75,996.07,18.2,19.2,0,12,"$GNGGA,193222.000,4900.4485,N,00825.4556,E,2,7,1.17,129.3,M,47.9,M,,*46",,,,
2022-02-18T20:32:48+01:00,611,11.9,45.64,996.09,18.2,19.2,0,12,"$GNGGA,193243.000,4900.4402,N,00825.4673,E,2,8,1.03,127.7,M,47.9,M,,*4A",,,,
2022-02-18T20:33:09+01:00,612,11.92,45.45,996.1,20.7,21.8,0,12,"$GNGGA,193304.000,4900.4418,N,00825.4644,E,2,10,0.83,126.4,M,47.9,M,,*75",,,,
2022-02-18T20:33:30+01:00,613,11.96,45.36,996.11,23,24.2,0,12,"$GNGGA,193325.000,4900.4430,N,00825.4626,E,2,10,0.83,125.8,M,47.9,M,,*77",,,,
2022-02-18T20:33:51+01:00,614,12.02,45.65,996.14,24.2,25.5,0,12,"$GNGGA,193346.000,4900.4453,N,00825.4610,E,2,10,0.83,125.3,M,47.9,M,,*79",,,,
2022-02-18T20:34:12+01:00,615,11.96,45.48,996.17,22.9,24.1,0,11.5,"$GNGGA,193407.000,4900.4314,N,00825.4542,E,2,10,0.83,124.3,M,47.9,M,,*7A",,,,
2022-02-18T20:34:33+01:00,616,11.9,45.81,996.19,21.8,22.9,0,11.5,"$GNGGA,193428.000,4900.4174,N,00825.4524,E,2,9,0.85,122.1,M,47.9,M,,*49",,,,
2022-02-18T20:34:54+01:00,617,11.83,45.95,996.22,21.6,22.7,0,11.5,"$GNGGA,193449.000,4900.4064,N,00825.4542,E,2,10,0.83,123.7,M,47.9,M,,*77",,,,
2022-02-18T20:35:15+01:00,618,11.71,46.3,996.25,21.4,22.5,0,11.5,"$GNGGA,193510.000,4900.3943,N,00825.4530,E,2,10,0.83,123.2,M,47.9,M,,*71",,,,
2022-02-18T20:35:36+01:00,619,11.59,46.7,996.28,21.2,22.3,0,11.5,"$GNGGA,193531.000,4900.3796,N,00825.4531,E,2,10,0.83,128.3,M,47.9,M,,*7F",,,,
2022-02-18T20:35:57+01:00,620,11.49,47.01,996.31,20.7,21.8,0,11.5,"$GNGGA,193552.000,4900.3660,N,00825.4507,E,2,10,0.83,130.1,M,47.9,M,,*7C",,,,
2022-02-18T20:36:18+01:00,621,11.41,47.32,996.35,21.7,22.8,0,11.5,"$GNGGA,193613.000,4900.3533,N,00825.4560,E,2,10,0.83,133.1,M,47.9,M,,*7D",,,,
2022-02-18T20:36:39+01:00,622,11.36,47.46,996.35,21.7,22.8,0,11,"$GNGGA,193634.000,4900.3414,N,00825.4660,E,2,10,0.83,137.0,M,47.9,M,,*7A",,,,
2022-02-18T20:37:00+01:00,623,11.34,47.73,996.35,22.8,24,0,11,"$GNGGA,193655.000,4900.3325,N,00825.4659,E,2,10,0.83,126.8,M,47.9,M,,*7A",,,,
2022-02-18T20:37:21+01:00,624,11.33,47.59,996.37,21.6,22.7,0,11,"$GNGGA,193716.000,4900.3199,N,00825.4660,E,2,10,0.83,120.2,M,47.9,M,,*7F",,,,
2022-02-18T20:37:42+01:00,625,11.29,47.47,996.39,21.2,22.3,0,11,"$GNGGA,193737.000,4900.3060,N,00825.4664,E,2,10,0.83,124.1,M,47.9,M,,*78",,,,
2022-02-18T20:38:03+01:00,626,11.23,47.82,996.38,20.9,22,0,11,"$GNGGA,193758.000,4900.2932,N,00825.4671,E,2,10,0.83,121.8,M,47.9,M,,*76",,,,
2022-02-18T20:38:24+01:00,627,11.22,48.07,996.35,21.8,22.9,0,11,"$GNGGA,193819.000,4900.2820,N,00825.4669,E,2,10,0.83,116.2,M,47.9,M,,*79",,,,
2022-02-18T20:38:45+01:00,628,11.25,48.15,996.36,22,23.2,0,11,"$GNGGA,193840.000,4900.2697,N,00825.4687,E,2,10,0.83,118.1,M,47.9,M,,*7A",,,,
2022-02-18T20:39:06+01:00,629,11.26,48.18,996.35,21.7,22.8,0,11,"$GNGGA,193901.000,4900.2558,N,00825.4704,E,2,10,0.83,119.6,M,47.9,M,,*72",,,,
2022-02-18T20:39:27+01:00,630,11.31,47.97,996.36,20.9,22,0,11,"$GNGGA,193922.000,4900.2415,N,00825.4670,E,2,10,0.83,122.1,M,47.9,M,,*76",,,,
2022-02-18T20:39:48+01:00,631,11.3,47.93,996.37,20.8,21.9,0,11,"$GNGGA,193943.000,4900.2293,N,00825.4657,E,2,9,0.90,122.3,M,47.9,M,,*44",,,,
2022-02-18T20:40:08+01:00,632,11.28,48.34,996.35,20.1,21.2,0,11,"$GNGGA,194003.000,4900.2185,N,00825.4641,E,2,11,0.79,124.9,M,47.9,M,,*7F",,,,
2022-02-18T20:40:29+01:00,633,11.31,47.97,996.38,20.1,21.2,0,11,"$GNGGA,194024.000,4900.2176,N,00825.4414,E,2,10,0.87,122.1,M,47.9,M,,*7A",,,,
2022-02-18T20:40:50+01:00,634,11.35,47.86,996.38,19.7,20.7,0,11,"$GNGGA,194045.000,4900.2108,N,00825.4284,E,2,11,0.79,122.0,M,47.9,M,,*7A",,,,
2022-02-18T20:41:11+01:00,635,11.34,47.98,996.39,19.6,20.6,0,11,"$GNGGA,194106.000,4900.2107,N,00825.4293,E,2,11,0.79,122.5,M,47.9,M,,*70",,,,
2022-02-18T20:41:32+01:00,636,11.38,48.69,996.39,19.9,20.9,0,11,"$GNGGA,194127.000,4900.2116,N,00825.4297,E,2,11,0.79,122.3,M,47.9,M,,*71",,,,
2022-02-18T20:41:53+01:00,637,11.43,48.85,996.41,20.6,21.7,0,11,"$GNGGA,194148.000,4900.2094,N,00825.4291,E,2,11,0.79,122.3,M,47.9,M,,*75",,,,
2022-02-18T20:42:14+01:00,638,11.42,48.67,996.41,21.2,22.3,0,11,"$GNGGA,194209.000,4900.1955,N,00825.4241,E,2,11,0.79,121.6,M,47.9,M,,*7F",,,,
2022-02-18T20:42:35+01:00,639,11.39,48.25,996.39,22.1,23.3,0,11,"$GNGGA,194230.000,4900.1918,N,00825.4043,E,2,11,0.79,120.2,M,47.9,M,,*79",,,,
2022-02-18T20:42:56+01:00,640,11.42,48.99,996.38,21.7,22.8,0,11,"$GNGGA,194251.000,4900.2007,N,00825.3904,E,2,9,0.87,120.1,M,47.9,M,,*4C",,,,
2022-02-18T20:43:17+01:00,641,11.44,48.59,996.38,21.5,22.6,0,11,"$GNGGA,194312.000,4900.2148,N,00825.3706,E,2,10,0.83,126.7,M,47.9,M,,*70",,,,
2022-02-18T20:43:38+01:00,642,11.46,48.42,996.38,21.3,22.4,0,11,"$GNGGA,194333.000,4900.2150,N,00825.3519,E,2,9,1.16,125.6,M,47.9,M,,*41",,,,
2022-02-18T20:43:59+01:00,643,11.46,48.32,996.39,20.2,21.3,0,11,"$GNGGA,194354.000,4900.2237,N,00825.3334,E,2,9,1.16,130.0,M,47.9,M,,*49",,,,
2022-02-18T20:44:20+01:00,644,11.44,48.03,996.39,20.4,21.5,0,11,"$GNGGA,194415.000,4900.2379,N,00825.3142,E,2,11,0.79,139.6,M,47.9,M,,*7D",,,,
2022-02-18T20:44:41+01:00,645,11.43,47.9,996.39,20.6,21.7,0,11,"$GNGGA,194436.000,4900.2647,N,00825.2979,E,2,10,0.83,157.8,M,47.9,M,,*77",,,,
2022-02-18T20:45:02+01:00,646,11.39,47.84,996.4,22.3,23.5,0,11,"$GNGGA,194457.000,4900.2502,N,00825.2791,E,2,11,0.82,146.9,M,47.9,M,,*7B",,,,
2022-02-18T20:45:23+01:00,647,11.35,47.93,996.39,21.6,22.7,0,11,"$GNGGA,194518.000,4900.2348,N,00825.2551,E,2,10,0.82,131.4,M,47.9,M,,*7B",,,,
2022-02-18T20:45:44+01:00,648,11.38,48.41,996.32,20.7,21.8,0,11,"$GNGGA,194539.000,4900.2649,N,00825.2395,E,2,10,0.83,141.3,M,47.9,M,,*73",,,,
2022-02-18T20:46:05+01:00,649,11.46,48.33,996.31,19,20,0,11.5,"$GNGGA,194600.000,4900.2752,N,00825.2190,E,2,9,0.92,148.6,M,47.9,M,,*42",,,,
2022-02-18T20:46:26+01:00,650,11.47,47.81,996.38,20.1,21.2,0,11,"$GNGGA,194621.000,4900.2695,N,00825.1947,E,2,11,0.82,148.7,M,47.9,M,,*73",,,,
2022-02-18T20:46:47+01:00,651,11.45,47.84,996.39,20.5,21.6,0,11,"$GNGGA,194642.000,4900.2418,N,00825.1729,E,2,9,0.87,119.6,M,47.9,M,,*4E",,,,
2022-02-18T20:47:08+01:00,652,11.4,48.62,996.39,21.5,22.6,0,11,"$GNGGA,194703.000,4900.2652,N,00825.1592,E,2,9,0.90,129.5,M,47.9,M,,*42",,,,
2022-02-18T20:47:29+01:00,653,11.37,49.04,996.42,20.9,22,0,11,"$GNGGA,194724.000,4900.2888,N,00825.1402,E,2,11,0.79,142.9,M,47.9,M,,*79",,,,
2022-02-18T20:47:50+01:00,654,11.37,49.11,996.44,21.5,22.6,0,11,"$GNGGA,194745.000,4900.2962,N,00825.1217,E,2,10,0.84,150.3,M,47.9,M,,*73",,,,
2022-02-18T20:48:11+01:00,655,11.36,48.52,996.47,21.4,22.5,0,11,"$GNGGA,194806.000,4900.3006,N,00825.1042,E,2,10,0.99,152.4,M,47.9,M,,*7A",,,,
2022-02-18T20:48:32+01:00,656,11.38,48.56,996.47,21.9,23,0,11,"$GNGGA,194827.000,4900.3052,N,00825.0862,E,2,10,0.83,153.2,M,47.9,M,,*7F",,,,
2022-02-18T20:48:53+01:00,657,11.4,48.39,996.44,22.6,23.8,0,11,"$GNGGA,194848.000,4900.3045,N,00825.0667,E,2,9,1.21,145.4,M,47.9,M,,*4B",,,,
2022-02-18T20:49:14+01:00,658,11.36,48.4,996.43,22.9,24.1,0,11,"$GNGGA,194909.000,4900.3055,N,00825.0459,E,2,10,1.06,140.2,M,47.9,M,,*7F",,,,
2022-02-18T20:49:35+01:00,659,11.3,48.65,996.46,23.6,24.8,0,11,"$GNGGA,194930.000,4900.2768,N,00825.0225,E,2,11,0.79,118.1,M,47.9,M,,*76",,,,
2022-02-18T20:49:56+01:00,660,11.27,48.75,996.46,23.3,24.5,0,11,"$GNGGA,194951.000,4900.2800,N,00825.0025,E,2,11,0.79,114.9,M,47.9,M,,*76",,,,
2022-02-18T20:50:17+01:00,661,11.27,49.28,996.47,23.1,24.3,0,11,"$GNGGA,195012.000,4900.2872,N,00824.9869,E,2,9,1.22,112.9,M,47.9,M,,*44",,,,
2022-02-18T20:50:38+01:00,662,11.29,49.37,996.47,23.7,24.9,0,11,"$GNGGA,195033.000,4900.3054,N,00824.9696,E,2,9,1.39,122.5,M,47.9,M,,*41",,,,
2022-02-18T20:50:59+01:00,663,11.35,49.42,996.48,23.9,25.1,0,11,"$GNGGA,195054.000,4900.3231,N,00824.9493,E,2,10,0.99,136.9,M,47.9,M,,*7C",,,,
2022-02-18T20:51:20+01:00,664,11.33,48.83,996.49,23.8,25,0,11,"$GNGGA,195115.000,4900.3009,N,00824.9234,E,2,11,0.78,123.0,M,47.9,M,,*79",,,,
2022-02-18T20:51:41+01:00,665,11.27,48.82,996.5,23.2,24.4,0,11,"$GNGGA,195136.000,4900.3085,N,00824.9081,E,2,10,1.05,117.3,M,47.9,M,,*7E",,,,
2022-02-18T20:52:02+01:00,666,11.21,49.34,996.51,22.6,23.8,0,11,"$GNGGA,195157.000,4900.3114,N,00824.8877,E,2,9,1.24,114.3,M,47.9,M,,*48",,,,
2022-02-18T20:52:23+01:00,667,11.16,49.45,996.52,22.3,23.5,0,11,"$GNGGA,195218.000,4900.3201,N,00824.8699,E,2,9,1.08,116.2,M,47.9,M,,*44",,,,
2022-02-18T20:52:44+01:00,668,11.15,49.5,996.53,21.8,22.9,0,11,"$GNGGA,195239.000,4900.3418,N,00824.8542,E,2,11,0.99,133.3,M,47.9,M,,*7A",,,,
2022-02-18T20:53:05+01:00,669,11.15,49.35,996.52,21.5,22.6,0,11,"$GNGGA,195300.000,4900.3588,N,00824.8436,E,2,10,0.99,139.8,M,47.9,M,,*7B",,,,
2022-02-18T20:53:26+01:00,670,11.15,49.28,996.53,22.3,23.5,0,11,"$GNGGA,195321.000,4900.3627,N,00824.8291,E,2,10,0.86,146.0,M,47.9,M,,*7B",,,,
2022-02-18T20:53:47+01:00,671,11.14,49.34,996.53,23.4,24.6,0,11,"$GNGGA,195342.000,4900.3590,N,00824.8129,E,2,11,0.78,146.1,M,47.9,M,,*70",,,,
2022-02-18T20:54:08+01:00,672,11.17,49.53,996.53,23.5,24.7,0,11,"$GNGGA,195403.000,4900.3652,N,00824.7938,E,2,10,0.83,148.8,M,47.9,M,,*7A",,,,
2022-02-18T20:54:29+01:00,673,11.21,49.28,996.53,23,24.2,0,11,"$GNGGA,195424.000,4900.3716,N,00824.7761,E,2,9,0.93,148.0,M,47.9,M,,*4D",,,,
2022-02-18T20:54:50+01:00,674,11.28,49.11,996.54,22.7,23.9,0,11,"$GNGGA,195445.000,4900.3764,N,00824.7568,E,2,9,0.93,147.8,M,47.9,M,,*43",,,,
2022-02-18T20:55:10+01:00,675,11.36,49.24,996.55,22.5,23.7,0,11,"$GNGGA,195505.000,4900.3802,N,00824.7381,E,2,10,0.83,147.9,M,47.9,M,,*70",,,,
2022-02-18T20:55:31+01:00,676,11.44,49.27,996.57,22.5,23.7,0,11,"$GNGGA,195526.000,4900.3794,N,00824.7187,E,2,10,0.84,149.2,M,47.9,M,,*77",,,,
2022-02-18T20:55:52+01:00,677,11.46,48.7,996.58,22.2,23.4,0,11,"$GNGGA,195547.000,4900.3901,N,00824.6979,E,2,11,0.78,148.8,M,47.9,M,,*73",,,,
2022-02-18T20:56:13+01:00,678,11.5,49,996.58,22,23.2,0,11,"$GNGGA,195608.000,4900.3885,N,00824.6752,E,2,11,0.78,147.2,M,47.9,M,,*74",,,,
2022-02-18T20:56:34+01:00,679,11.54,48.6,996.58,22.1,23.3,0,11.5,"$GNGGA,195629.000,4900.3822,N,00824.6570,E,2,11,0.91,147.0,M,47.9,M,,*7D",,,,
2022-02-18T20:56:55+01:00,680,11.58,48.17,996.59,22.7,23.9,0,11,"$GNGGA,195650.000,4900.3628,N,00824.6429,E,2,11,0.78,121.3,M,47.9,M,,*7E",,,,
2022-02-18T20:57:16+01:00,681,11.62,48.25,996.61,23,24.2,0,11.5,"$GNGGA,195711.000,4900.3637,N,00824.6448,E,2,11,0.99,122.0,M,47.9,M,,*7C",,,,
2022-02-18T20:57:37+01:00,682,11.68,48.48,996.62,23.1,24.3,0,11.5,"$GNGGA,195732.000,4900.3656,N,00824.6425,E,2,10,0.82,121.6,M,47.9,M,,*7F",,,,
2022-02-18T20:57:58+01:00,683,11.64,48.08,996.63,22.9,24.1,0,11,"$GNGGA,195753.000,4900.3765,N,00824.6385,E,2,11,0.78,125.1,M,47.9,M,,*73",,,,
2022-02-18T20:58:19+01:00,684,11.63,48.33,996.6,23.8,25,0,11,"$GNGGA,195814.000,4900.3755,N,00824.6374,E,2,11,0.78,126.3,M,47.9,M,,*73",,,,
2022-02-18T20:58:40+01:00,685,11.64,48.24,996.64,23.6,24.8,0,11,"$GNGGA,195835.000,4900.3785,N,00824.6260,E,2,12,0.75,128.4,M,47.9,M,,*7E",,,,
2022-02-18T20:59:01+01:00,686,11.59,47.99,996.66,23.6,24.8,0,11,"$GNGGA,195856.000,4900.3800,N,00824.6154,E,2,12,0.75,136.0,M,47.9,M,,*76",,,,
2022-02-18T20:59:22+01:00,687,11.62,48.02,996.67,22.6,23.8,0,11.5,"$GNGGA,195917.000,4900.3909,N,00824.6175,E,2,12,0.75,140.7,M,47.9,M,,*7F",,,,
2022-02-18T20:59:43+01:00,688,11.68,47.8,996.65,22.1,23.3,0,11.5,"$GNGGA,195938.000,4900.4048,N,00824.6212,E,2,12,0.75,140.1,M,47.9,M,,*7D",,,,
2022-02-18T21:00:06+01:00,689,11.71,47.46,996.7,22,23.2,0,11.5,"$GNGGA,200001.000,4900.4198,N,00824.6259,E,2,12,0.75,134.6,M,47.9,M,,*76",,,,
2022-02-18T21:00:27+01:00,690,11.69,47.31,996.67,22.2,23.4,0,11.5,"$GNGGA,200022.000,4900.4266,N,00824.6146,E,2,12,0.78,136.3,M,47.9,M,,*72",,,,
2022-02-18T21:00:48+01:00,691,11.72,47.41,996.64,22.2,23.4,0,11.5,"$GNGGA,200043.000,4900.4342,N,00824.6040,E,2,12,0.79,139.9,M,47.9,M,,*71",,,,
2022-02-18T21:01:09+01:00,692,11.77,47.33,996.62,21.8,22.9,0,11.5,"$GNGGA,200104.000,4900.4430,N,00824.5972,E,2,12,0.76,151.9,M,47.9,M,,*7B",,,,
2022-02-18T21:01:55+01:00,693,13.12,46.76,996.64,22.6,23.8,0,11.5,"$GNGGA,200150.000,4900.4559,N,00824.5981,E,1,5,3.32,153.6,M,47.9,M,,*43",,,,
2022-02-18T21:02:16+01:00,694,12.8,46.85,996.65,22.5,23.7,0,11.5,"$GNGGA,200211.000,4900.4689,N,00824.5912,E,1,5,2.26,166.0,M,47.9,M,,*45",,,,
2022-02-18T21:02:36+01:00,695,12.59,47.25,996.67,21.9,23,0,11.5,"$GNGGA,200231.000,4900.4936,N,00824.5920,E,1,5,2.27,175.5,M,47.9,M,,*4B",,,,
2022-02-18T21:07:31+01:00,696,13.27,46.93,996.67,22.6,23.8,0,11.5,"$GNGGA,200726.000,4900.5943,N,00824.7592,E,1,5,2.37,165.9,M,47.9,M,,*40",,,,
2022-02-18T21:07:51+01:00,697,13.06,46.75,996.7,21,22.1,0,11.5,"$GNGGA,200746.000,4900.5779,N,00824.7677,E,1,6,1.45,128.0,M,47.9,M,,*4C",,,,
2022-02-18T21:08:12+01:00,698,12.87,46.39,996.71,20.9,22,0,11.5,"$GNGGA,200807.000,4900.5787,N,00824.7891,E,1,6,1.45,117.7,M,47.9,M,,*4A",,,,
2022-02-18T21:08:32+01:00,699,12.6,46.8,996.75,21.3,22.4,0,11.5,"$GNGGA,200827.000,4900.5782,N,00824.8096,E,1,6,1.45,116.9,M,47.9,M,,*42",,,,
2022-02-18T21:08:53+01:00,700,12.28,47.51,996.75,23.6,24.8,0,11,"$GNGGA,200848.000,4900.5800,N,00824.8340,E,1,6,1.45,126.4,M,47.9,M,,*48",,,,
2022-02-18T21:09:14+01:00,701,12.05,48.08,996.76,23.9,25.1,0,11,"$GNGGA,200909.000,4900.5724,N,00824.8441,E,1,6,1.45,123.4,M,47.9,M,,*46",,,,
2022-02-18T21:09:35+01:00,702,11.93,48.15,996.78,22.5,23.7,0,11.5,"$GNGGA,200930.000,4900.5724,N,00824.8749,E,1,6,1.45,110.9,M,47.9,M,,*4A",,,,
2022-02-18T21:09:56+01:00,703,11.84,47.91,996.77,21.1,22.2,0,11.5,"$GNGGA,200951.000,4900.5771,N,00824.8929,E,1,6,1.45,114.5,M,47.9,M,,*4D",,,,
2022-02-18T21:10:17+01:00,704,11.74,47.8,996.8,20.9,22,0,11,"$GNGGA,201012.000,4900.5855,N,00824.9069,E,1,6,1.46,111.5,M,47.9,M,,*41",,,,
2022-02-18T21:10:38+01:00,705,11.7,48.19,996.83,20.4,21.5,0,11.5,"$GNGGA,201033.000,4900.5855,N,00824.9279,E,1,6,1.46,110.4,M,47.9,M,,*41",,,,
2022-02-18T21:10:59+01:00,706,11.72,48.43,996.86,19.9,20.9,0,11.5,"$GNGGA,201054.000,4900.5843,N,00824.9469,E,1,6,1.46,109.9,M,47.9,M,,*45",,,,
2022-02-18T21:11:20+01:00,707,11.76,48.26,996.87,19.9,20.9,0,11.5,"$GNGGA,201115.000,4900.5783,N,00824.9621,E,1,6,1.46,114.2,M,47.9,M,,*4B",,,,
2022-02-18T21:11:41+01:00,708,11.78,48.15,996.88,21.1,22.2,0,11,"$GNGGA,201136.000,4900.5684,N,00824.9772,E,1,6,1.46,108.2,M,47.9,M,,*46",,,,
2022-02-18T21:12:02+01:00,709,11.75,47.97,996.89,21.3,22.4,0,11,"$GNGGA,201157.000,4900.5644,N,00824.9983,E,1,6,1.47,115.1,M,47.9,M,,*43",,,,
2022-02-18T21:12:23+01:00,710,11.73,47.96,996.9,22.3,23.5,0,11.5,"$GNGGA,201218.000,4900.5629,N,00825.0148,E,1,6,1.47,122.1,M,47.9,M,,*43",,,,
2022-02-18T21:12:44+01:00,711,11.76,48.12,996.91,21.7,22.8,0,11.5,"$GNGGA,201239.000,4900.5592,N,00825.0297,E,1,6,1.47,112.5,M,47.9,M,,*45",,,,
2022-02-18T21:13:05+01:00,712,11.73,47.75,996.93,22.2,23.4,0,11,"$GNGGA,201300.000,4900.5488,N,00825.0427,E,1,6,1.47,110.7,M,47.9,M,,*49",,,,
2022-02-18T21:13:26+01:00,713,11.76,47.76,996.92,21.8,22.9,0,11.5,"$GNGGA,201321.000,4900.5480,N,00825.0451,E,1,6,1.47,109.9,M,47.9,M,,*45",,,,
2022-02-18T21:13:47+01:00,714,11.83,47.46,996.92,22.5,23.7,0,11.5,"$GNGGA,201342.000,4900.5481,N,00825.0456,E,1,6,1.47,110.2,M,47.9,M,,*45",,,,
2022-02-18T21:14:08+01:00,715,11.91,47.29,996.9,22.8,24,0,11.5,"$GNGGA,201403.000,4900.5481,N,00825.0464,E,1,6,1.58,110.1,M,47.9,M,,*4B",,,,
2022-02-18T21:14:29+01:00,716,11.86,47.06,996.89,23.7,24.9,0,11,"$GNGGA,201424.000,4900.5428,N,00825.0560,E,1,7,1.30,110.3,M,47.9,M,,*45",,,,
2022-02-18T21:14:49+01:00,717,11.81,47.55,996.89,23.7,24.9,0,11,"$GNGGA,201444.000,4900.5391,N,00825.0731,E,1,7,1.30,109.7,M,47.9,M,,*4C",,,,
2022-02-18T21:15:10+01:00,718,11.79,47.75,996.91,21.6,22.7,0,11,"$GNGGA,201505.000,4900.5327,N,00825.0911,E,1,7,1.30,110.0,M,47.9,M,,*46",,,,
2022-02-18T21:15:31+01:00,719,11.77,47.89,996.94,21.9,23,0,11,"$GNGGA,201526.000,4900.5296,N,00825.1101,E,1,7,1.30,109.5,M,47.9,M,,*49",,,,
2022-02-18T21:15:52+01:00,720,11.72,47.94,996.96,22.2,23.4,0,11,"$GNGGA,201547.000,4900.5251,N,00825.1299,E,1,7,1.30,109.8,M,47.9,M,,*4A",,,,
2022-02-18T21:16:13+01:00,721,11.7,48.16,996.97,22.8,24,0,11.5,"$GNGGA,201608.000,4900.5224,N,00825.1516,E,1,7,1.30,107.5,M,47.9,M,,*43",,,,
2022-02-18T21:16:34+01:00,722,11.66,47.92,997.02,22.6,23.8,0,11,"$GNGGA,201629.000,4900.5183,N,00825.1678,E,1,7,1.30,114.0,M,47.9,M,,*42",,,,
2022-02-18T21:16:55+01:00,723,11.61,47.97,997.04,22.1,23.3,0,11,"$GNGGA,201650.000,4900.5157,N,00825.1858,E,1,7,1.30,115.9,M,47.9,M,,*41",,,,
2022-02-18T21:17:16+01:00,724,11.6,48.04,997.05,22.4,23.6,0,11,"$GNGGA,201711.000,4900.5141,N,00825.2037,E,1,7,1.30,118.4,M,47.9,M,,*40",,,,
2022-02-18T21:17:37+01:00,725,11.66,47.88,997.06,22.4,23.6,0,11.5,"$GNGGA,201732.000,4900.5108,N,00825.2270,E,1,7,1.30,112.8,M,47.9,M,,*4B",,,,
2022-02-18T21:17:58+01:00,726,11.72,47.58,997.05,22,23.2,0,11.5,"$GNGGA,201753.000,4900.5045,N,00825.2459,E,1,7,1.30,111.4,M,47.9,M,,*46",,,,
2022-02-18T21:18:18+01:00,727,11.73,47.42,997.07,21.9,23,0,11,"$GNGGA,201813.000,4900.4981,N,00825.2630,E,2,8,1.11,118.2,M,47.9,M,,*40",,,,
2022-02-18T21:18:39+01:00,728,11.77,47.52,997.09,22.5,23.7,0,11,"$GNGGA,201834.000,4900.4925,N,00825.2772,E,2,8,1.11,127.7,M,47.9,M,,*45",,,,
2022-02-18T21:19:00+01:00,729,11.8,47.56,997.11,22,23.2,0,11,"$GNGGA,201855.000,4900.4911,N,00825.2961,E,2,8,1.11,134.6,M,47.9,M,,*4A",,,,
2022-02-18T21:19:21+01:00,730,11.87,47.48,997.13,22,23.2,0,11.5,"$GNGGA,201916.000,4900.4898,N,00825.3175,E,2,8,1.11,124.9,M,47.9,M,,*4E",,,,
2022-02-18T21:19:42+01:00,731,11.95,47.07,997.14,22.1,23.3,0,11.5,"$GNGGA,201937.000,4900.4850,N,00825.3367,E,2,8,1.11,122.0,M,47.9,M,,*47",,,,
2022-02-18T21:20:03+01:00,732,12.03,46.9,997.14,22.3,23.5,0,11.5,"$GNGGA,201958.000,4900.4809,N,00825.3525,E,2,8,1.11,128.4,M,47.9,M,,*4C",,,,
2022-02-18T21:20:24+01:00,733,12.12,46.8,997.14,21.8,22.9,0,11.5,"$GNGGA,202019.000,4900.4794,N,00825.3735,E,2,8,1.11,126.2,M,47.9,M,,*43",,,,
2022-02-18T21:20:45+01:00,734,12.16,46.91,997.14,21.5,22.6,0,11.5,"$GNGGA,202040.000,4900.4767,N,00825.3942,E,2,8,1.11,119.8,M,47.9,M,,*4B",,,,
2022-02-18T21:21:06+01:00,735,12.18,47.03,997.15,21.6,22.7,0,11,"$GNGGA,202101.000,4900.4715,N,00825.4121,E,2,8,1.11,120.9,M,47.9,M,,*4B",,,,
2022-02-18T21:21:28+01:00,736,12.22,46.86,997.16,21.7,22.8,0,11.5,"$GNGGA,202123.000,4900.4762,N,00825.4333,E,2,7,1.32,115.0,M,47.9,M,,*4B",,,,
2022-02-18T21:21:49+01:00,737,12.19,46.42,997.18,22.4,23.6,0,11.5,"$GNGGA,202144.000,4900.4869,N,00825.4396,E,2,7,1.30,125.7,M,47.9,M,,*47",,,,
