created_at,entry_id,field1,field2,field3,field4,field5,field6,field7,field8,latitude,longitude,elevation,status
2022-03-12T01:57:56+01:00,1,23.46,22.97,1003.73,173.80,182.50,0,-127.00,"$GNGGA,000024.264,4900.5725,N,00824.4025,E,0,0,,102.1,M,47.9,M,,*56",,,,
2022-03-12T01:58:17+01:00,2,23.63,22.71,1003.76,169.40,177.90,0,-127.00,"$GNGGA,005812.088,4900.5725,N,00824.4025,E,0,0,,131.9,M,47.9,M,,*56",,,,
2022-03-12T01:58:38+01:00,3,24.10,21.74,1003.78,172.20,180.90,0,-127.00,"$GNGGA,005833.095,4905.7700,N,00829.7398,E,0,1,,134.2,M,47.9,M,,*5D",,,,
2022-03-12T01:58:59+01:00,4,24.73,20.80,1003.80,167.90,176.30,0,-127.00,"$GNGGA,005854.091,9000.0000,N,00000.0000,E,0,0,,137.0,M,13.0,M,,*57",,,,
2022-03-12T01:59:19+01:00,5,25.41,20.06,1003.83,167.90,176.30,0,-127.00,"$GNGGA,005914.306,4900.5257,N,00825.3313,E,0,3,,102.1,M,47.9,M,,*5F",,,,
2022-03-12T01:59:39+01:00,6,26.11,19.47,1003.85,161.70,169.80,0,-127.00,"$GNGGA,005934.302,4900.5260,N,00825.3366,E,0,3,,102.1,M,47.9,M,,*5F",,,,
2022-03-12T01:59:58+01:00,7,26.79,18.91,1003.87,160.90,169.00,0,-127.00,"$GNGGA,005954.092,4900.5218,N,00825.4923,E,0,3,,102.1,M,47.9,M,,*50",,,,
2022-03-12T02:00:18+01:00,8,27.44,18.61,1003.88,162.20,170.40,0,-127.00,"$GNGGA,010014.091,4900.5271,N,00825.4560,E,0,3,,102.1,M,47.9,M,,*5E",,,,
2022-03-12T02:00:39+01:00,9,28.06,18.29,1003.89,163.90,172.10,0,-127.00,"$GNGGA,010034.305,4900.5276,N,00825.5026,E,0,3,,102.1,M,47.9,M,,*53",,,,
2022-03-12T02:00:58+01:00,10,28.65,18.07,1003.89,165.50,173.80,0,-127.00,"$GNGGA,010054.093,4900.5244,N,00825.3539,E,0,3,,102.1,M,47.9,M,,*55",,,,
2022-03-12T02:01:18+01:00,11,29.19,17.80,1003.88,164.60,172.90,0,-127.00,"$GNGGA,010113.301,4900.5295,N,00825.3477,E,0,3,,102.1,M,47.9,M,,*58",,,,
2022-03-12T02:01:38+01:00,12,29.70,17.58,1003.90,163.10,171.30,0,-127.00,"$GNGGA,010133.302,4900.5317,N,00825.3016,E,0,3,,102.1,M,47.9,M,,*51",,,,
2022-03-12T02:01:58+01:00,13,30.18,17.40,1003.89,161.30,169.40,0,-127.00,"$GNGGA,010154.091,4900.5286,N,00825.3133,E,0,3,,102.1,M,47.9,M,,*56",,,,
2022-03-12T02:02:19+01:00,14,30.62,17.23,1003.89,161.80,169.90,0,-127.00,"$GNGGA,010214.311,4900.5273,N,00825.4146,E,0,3,,102.1,M,47.9,M,,*55",,,,
2022-03-12T02:02:41+01:00,15,31.06,17.00,1003.89,163.40,171.60,0,-127.00,"$GNGGA,010236.000,4900.5282,N,00825.4180,E,1,4,3.17,81.7,M,47.9,M,,*73",,,,
2022-03-12T02:03:01+01:00,16,31.46,16.84,1003.89,163.90,172.10,0,-127.00,"$GNGGA,010256.000,4900.5264,N,00825.4342,E,1,3,4.44,93.0,M,47.9,M,,*73",,,,
2022-03-12T02:03:21+01:00,17,31.84,16.65,1003.89,162.50,170.70,0,-127.00,"$GNGGA,010316.000,4900.5336,N,00825.4192,E,1,4,3.16,97.5,M,47.9,M,,*79",,,,
2022-03-12T02:03:42+01:00,18,32.21,16.01,1003.88,160.90,169.00,0,-127.00,"$GNGGA,010337.000,4900.5335,N,00825.4446,E,1,4,3.16,100.8,M,47.9,M,,*47",,,,
2022-03-12T02:04:02+01:00,19,32.54,16.09,1003.87,160.10,168.20,0,-127.00,"$GNGGA,010357.000,4900.5282,N,00825.4494,E,1,3,4.46,105.7,M,47.9,M,,*4C",,,,
2022-03-12T02:04:22+01:00,20,32.86,16.19,1003.87,159.50,167.50,0,-127.00,"$GNGGA,010417.000,4900.5234,N,00825.4269,E,1,4,7.20,102.1,M,47.9,M,,*43",,,,
2022-03-12T02:04:43+01:00,21,33.16,16.05,1003.87,159.20,167.20,0,-127.00,"$GNGGA,010438.000,4900.5239,N,00825.4229,E,1,4,7.10,103.0,M,47.9,M,,*44",,,,
2022-03-12T02:05:03+01:00,22,33.45,15.94,1003.88,164.40,172.70,0,-127.00,"$GNGGA,010458.000,4900.5168,N,00825.4215,E,1,4,4.39,100.2,M,47.9,M,,*43",,,,
2022-03-12T02:05:23+01:00,23,33.72,15.81,1003.88,169.10,177.60,0,-127.00,"$GNGGA,010518.000,4900.5245,N,00825.4337,E,1,4,4.40,97.6,M,47.9,M,,*7E",,,,
2022-03-12T02:05:44+01:00,24,33.98,15.38,1003.88,173.80,182.50,0,-127.00,"$GNGGA,010539.000,4900.5301,N,00825.4561,E,1,4,6.84,97.5,M,47.9,M,,*70",,,,
2022-03-12T02:06:04+01:00,25,34.23,15.00,1003.88,173.50,182.20,0,-127.00,"$GNGGA,010559.000,4900.5279,N,00825.4554,E,1,4,6.75,97.8,M,47.9,M,,*7D",,,,
2022-03-12T02:06:25+01:00,26,34.46,15.28,1003.87,173.20,181.90,0,-127.00,"$GNGGA,010620.000,4900.5316,N,00825.4502,E,1,4,6.67,95.5,M,47.9,M,,*77",,,,
2022-03-12T02:06:46+01:00,27,34.69,15.19,1003.87,169.50,178.00,0,-127.00,"$GNGGA,010641.000,4900.5320,N,00825.4477,E,0,4,,95.2,M,47.9,M,,*69",,,,
2022-03-12T02:07:06+01:00,28,34.91,15.06,1003.88,166.90,175.30,0,-127.00,"$GNGGA,010701.000,4900.5240,N,00825.4088,E,0,4,,93.8,M,47.9,M,,*63",,,,
2022-03-12T02:07:26+01:00,29,35.12,14.91,1003.88,163.30,171.50,0,-127.00,"$GNGGA,010721.000,4900.5210,N,00825.4317,E,1,4,4.43,87.5,M,47.9,M,,*75",,,,
2022-03-12T02:07:47+01:00,30,35.32,14.84,1003.88,168.90,177.40,0,-127.00,"$GNGGA,010742.000,4900.5198,N,00825.4293,E,1,4,4.44,87.0,M,47.9,M,,*7C",,,,
2022-03-12T02:08:07+01:00,31,35.51,14.79,1003.88,171.40,180.00,0,-127.00,"$GNGGA,010802.000,4900.5216,N,00825.4339,E,1,4,4.44,86.0,M,47.9,M,,*72",,,,
2022-03-12T02:08:28+01:00,32,35.70,14.72,1003.88,174.20,183.00,0,-127.00,"$GNGGA,010823.000,4900.5228,N,00825.4355,E,1,4,9.45,85.6,M,47.9,M,,*7F",,,,
2022-03-12T02:08:49+01:00,33,35.88,14.55,1003.89,173.10,181.80,0,-127.00,"$GNGGA,010844.000,4900.5238,N,00825.4090,E,1,5,5.98,85.0,M,47.9,M,,*7E",,,,
2022-03-12T02:09:09+01:00,34,36.05,14.58,1003.89,173.60,182.30,0,-127.00,"$GNGGA,010904.000,4900.5174,N,00825.4212,E,1,5,5.93,85.1,M,47.9,M,,*72",,,,
2022-03-12T02:09:29+01:00,35,36.22,14.56,1003.90,173.50,182.20,0,-127.00,"$GNGGA,010924.000,4900.5186,N,00825.4155,E,1,5,5.86,85.4,M,47.9,M,,*7C",,,,
2022-03-12T02:09:50+01:00,36,36.38,14.41,1003.91,171.40,180.00,0,-127.00,"$GNGGA,010945.000,4900.5149,N,00825.3999,E,1,4,9.17,85.6,M,47.9,M,,*70",,,,
2022-03-12T02:10:10+01:00,37,36.54,14.32,1003.91,168.20,176.70,0,-127.00,"$GNGGA,011005.000,4900.5125,N,00825.3690,E,1,4,9.11,84.7,M,47.9,M,,*76",,,,
2022-03-12T02:10:30+01:00,38,36.69,14.24,1003.91,167.30,175.70,0,-127.00,"$GNGGA,011025.000,4900.5098,N,00825.3434,E,1,4,9.05,83.3,M,47.9,M,,*79",,,,
2022-03-12T02:10:51+01:00,39,36.83,14.17,1003.92,172.30,181.00,0,-127.00,"$GNGGA,011046.000,4900.5084,N,00825.3430,E,1,5,13.54,80.9,M,47.9,M,,*42",,,,
2022-03-12T02:11:12+01:00,40,36.97,14.13,1003.92,173.10,181.80,0,-127.00,"$GNGGA,011107.000,4900.5113,N,00825.3618,E,1,5,4.57,77.5,M,47.9,M,,*70",,,,
2022-03-12T02:11:33+01:00,41,37.11,14.08,1003.93,170.10,178.70,0,-127.00,"$GNGGA,011128.000,4900.5173,N,00825.3799,E,1,5,4.57,74.6,M,47.9,M,,*73",,,,
2022-03-12T02:11:54+01:00,42,37.25,14.01,1003.92,165.30,173.60,0,-127.00,"$GNGGA,011149.000,4900.5065,N,00825.3426,E,1,5,4.57,72.5,M,47.9,M,,*70",,,,
2022-03-12T02:12:14+01:00,43,37.38,13.95,1003.92,164.80,173.10,0,-127.00,"$GNGGA,011209.000,4900.5056,N,00825.3397,E,1,6,2.88,77.5,M,47.9,M,,*78",,,,
2022-03-12T02:12:35+01:00,44,37.51,13.86,1003.92,165.70,174.00,0,-127.00,"$GNGGA,011230.000,4900.5096,N,00825.3677,E,1,6,2.72,83.6,M,47.9,M,,*78",,,,
2022-03-12T02:12:56+01:00,45,37.63,13.78,1003.91,169.90,178.40,0,-127.00,"$GNGGA,011251.000,4900.5142,N,00825.3718,E,1,6,2.71,86.7,M,47.9,M,,*78",,,,
2022-03-12T02:13:17+01:00,46,37.75,13.75,1003.91,172.60,181.30,0,-127.00,"$GNGGA,011312.000,4900.5086,N,00825.3660,E,1,6,5.99,93.0,M,47.9,M,,*7B",,,,
2022-03-12T02:13:38+01:00,47,37.87,13.68,1003.90,174.10,182.90,0,-127.00,"$GNGGA,011333.000,4900.5088,N,00825.3480,E,1,6,5.93,98.4,M,47.9,M,,*7F",,,,
2022-03-12T02:13:59+01:00,48,37.99,13.63,1003.90,172.70,181.40,0,-127.00,"$GNGGA,011354.000,4900.5129,N,00825.3618,E,1,6,5.88,101.5,M,47.9,M,,*4D",,,,
2022-03-12T02:14:20+01:00,49,38.10,13.56,1003.90,173.30,182.00,0,-127.00,"$GNGGA,011415.000,4900.5149,N,00825.3820,E,1,5,4.58,99.2,M,47.9,M,,*74",,,,
2022-03-12T02:14:41+01:00,50,38.21,13.52,1003.90,172.10,180.80,0,-127.00,"$GNGGA,011436.000,4900.5105,N,00825.3615,E,1,6,3.07,97.9,M,47.9,M,,*7E",,,,
2022-03-12T02:15:02+01:00,51,38.31,13.45,1003.89,171.10,179.70,0,-127.00,"$GNGGA,011457.000,4900.4936,N,00825.3138,E,1,6,3.08,96.4,M,47.9,M,,*7B",,,,
2022-03-12T02:15:23+01:00,52,38.42,13.35,1003.89,174.30,183.10,0,-127.00,"$GNGGA,011518.000,4900.5243,N,00825.4094,E,1,7,2.33,101.3,M,47.9,M,,*49",,,,
2022-03-12T02:15:44+01:00,53,38.52,13.31,1003.90,177.60,186.50,0,-127.00,"$GNGGA,011539.000,4900.5247,N,00825.4499,E,1,7,2.31,103.4,M,47.9,M,,*40",,,,
2022-03-12T02:16:05+01:00,54,38.62,13.28,1003.90,180.10,189.20,0,-127.00,"$GNGGA,011600.000,4900.5346,N,00825.4650,E,1,6,3.09,106.6,M,47.9,M,,*42",,,,
2022-03-12T02:16:26+01:00,55,38.72,13.21,1003.90,177.80,186.70,0,-127.00,"$GNGGA,011621.000,4900.5317,N,00825.4488,E,1,7,2.30,106.9,M,47.9,M,,*47",,,,
2022-03-12T02:16:47+01:00,56,38.82,13.16,1003.90,175.50,184.30,0,-127.00,"$GNGGA,011642.000,4900.5275,N,00825.4419,E,1,7,2.30,106.6,M,47.9,M,,*40",,,,
2022-03-12T02:17:08+01:00,57,38.92,13.15,1003.90,171.80,180.40,0,-127.00,"$GNGGA,011703.000,4900.5351,N,00825.4639,E,1,7,2.30,106.3,M,47.9,M,,*46",,,,
2022-03-12T02:17:29+01:00,58,39.01,13.07,1003.89,172.50,181.20,0,-127.00,"$GNGGA,011724.000,4900.5323,N,00825.4425,E,1,7,5.38,108.8,M,47.9,M,,*43",,,,
2022-03-12T02:17:50+01:00,59,39.09,13.01,1003.89,172.20,180.90,0,-127.00,"$GNGGA,011745.000,4900.5298,N,00825.4387,E,1,8,2.08,112.4,M,47.9,M,,*46",,,,
2022-03-12T02:18:11+01:00,60,39.17,12.94,1003.89,172.20,180.90,0,-127.00,"$GNGGA,011806.000,4900.5314,N,00825.4384,E,1,8,3.09,114.7,M,47.9,M,,*4D",,,,
2022-03-12T02:18:32+01:00,61,39.26,12.88,1003.89,170.60,179.20,0,-127.00,"$GNGGA,011827.000,4900.5319,N,00825.4343,E,1,8,3.08,117.1,M,47.9,M,,*4C",,,,
2022-03-12T02:18:53+01:00,62,39.34,12.83,1003.88,171.80,180.40,0,-127.00,"$GNGGA,011848.000,4900.5338,N,00825.4493,E,1,8,2.08,116.9,M,47.9,M,,*44",,,,
2022-03-12T02:19:14+01:00,63,39.41,12.80,1003.88,173.10,181.80,0,-127.00,"$GNGGA,011909.000,4900.5403,N,00825.4715,E,1,8,3.08,115.7,M,47.9,M,,*4E",,,,
2022-03-12T02:19:34+01:00,64,39.49,12.75,1003.88,173.10,181.80,0,-127.00,"$GNGGA,011929.000,4900.5504,N,00825.4778,E,1,8,2.08,116.7,M,47.9,M,,*43",,,,
2022-03-12T02:19:55+01:00,65,39.56,12.70,1003.87,170.70,179.30,0,-127.00,"$GNGGA,011950.000,4900.5396,N,00825.4580,E,1,8,3.08,115.5,M,47.9,M,,*45",,,,
2022-03-12T02:20:16+01:00,66,39.63,12.66,1003.87,169.90,178.40,0,-127.00,"$GNGGA,012011.000,4900.5347,N,00825.4254,E,1,8,2.08,115.4,M,47.9,M,,*48",,,,
2022-03-12T02:20:37+01:00,67,39.71,12.63,1003.86,169.00,177.50,0,-127.00,"$GNGGA,012032.000,4900.5375,N,00825.4401,E,1,8,3.07,113.2,M,47.9,M,,*40",,,,
2022-03-12T02:20:58+01:00,68,39.78,12.60,1003.85,168.90,177.40,0,-127.00,"$GNGGA,012053.000,4900.5472,N,00825.4633,E,1,8,2.08,111.3,M,47.9,M,,*49",,,,
2022-03-12T02:21:19+01:00,69,39.84,12.56,1003.85,167.90,176.30,0,-127.00,"$GNGGA,012114.000,4900.5432,N,00825.4549,E,1,8,3.07,111.0,M,47.9,M,,*4C",,,,
2022-03-12T02:21:40+01:00,70,39.91,12.56,1003.85,170.50,179.10,0,-127.00,"$GNGGA,012135.000,4900.5387,N,00825.4537,E,1,7,2.48,111.0,M,47.9,M,,*4A",,,,
2022-03-12T02:22:01+01:00,71,39.98,12.51,1003.85,170.40,179.00,0,-127.00,"$GNGGA,012156.000,4900.5530,N,00825.4694,E,1,7,2.48,109.6,M,47.9,M,,*40",,,,
2022-03-12T02:22:22+01:00,72,40.04,12.44,1003.86,169.90,178.40,0,-127.00,"$GNGGA,012217.000,4900.5381,N,00825.4746,E,1,7,28.47,108.2,M,47.9,M,,*76",,,,
2022-03-12T02:22:43+01:00,73,40.11,12.39,1003.86,170.60,179.20,0,-127.00,"$GNGGA,012238.000,4900.5423,N,00825.4614,E,1,7,2.49,108.3,M,47.9,M,,*45",,,,
2022-03-12T02:23:04+01:00,74,40.17,12.35,1003.87,170.00,178.60,0,-127.00,"$GNGGA,012259.000,4900.5454,N,00825.4421,E,1,6,3.25,107.8,M,47.9,M,,*48",,,,
2022-03-12T02:23:25+01:00,75,40.23,12.35,1003.87,170.30,178.90,0,-127.00,"$GNGGA,012320.000,4900.5401,N,00825.4461,E,1,5,3.47,106.1,M,47.9,M,,*4C",,,,
2022-03-12T02:23:46+01:00,76,40.29,12.30,1003.87,168.80,177.30,0,-127.00,"$GNGGA,012341.000,4900.5440,N,00825.4537,E,1,6,3.27,104.4,M,47.9,M,,*4E",,,,
2022-03-12T02:24:06+01:00,77,40.34,12.26,1003.87,170.10,178.70,0,-127.00,"$GNGGA,012401.000,4900.5415,N,00825.4507,E,1,6,3.28,102.4,M,47.9,M,,*47",,,,
2022-03-12T02:24:27+01:00,78,40.40,12.22,1003.86,171.80,180.40,0,-127.00,"$GNGGA,012422.000,4900.5294,N,00825.4264,E,1,7,2.51,98.0,M,47.9,M,,*73",,,,
2022-03-12T02:24:48+01:00,79,40.46,12.16,1003.86,171.60,180.20,0,-127.00,"$GNGGA,012443.000,4900.5290,N,00825.4122,E,1,7,2.51,95.8,M,47.9,M,,*74",,,,
2022-03-12T02:25:09+01:00,80,40.51,12.15,1003.87,170.80,179.40,0,-127.00,"$GNGGA,012504.000,4900.5282,N,00825.4197,E,1,6,3.32,93.2,M,47.9,M,,*72",,,,
2022-03-12T02:25:30+01:00,81,40.57,12.13,1003.86,169.00,177.50,0,-127.00,"$GNGGA,012525.000,4900.5239,N,00825.4105,E,1,6,3.33,89.9,M,47.9,M,,*7B",,,,
2022-03-12T02:25:51+01:00,82,40.62,12.07,1003.86,172.60,181.30,0,-127.00,"$GNGGA,012546.000,4900.5227,N,00825.4160,E,1,6,3.34,86.1,M,47.9,M,,*72",,,,
2022-03-12T02:26:11+01:00,83,40.66,12.05,1003.87,174.40,183.20,0,-127.00,"$GNGGA,012606.000,4900.5180,N,00825.3976,E,1,6,3.35,82.5,M,47.9,M,,*72",,,,
2022-03-12T02:26:32+01:00,84,40.72,12.00,1003.87,175.90,184.70,0,-127.00,"$GNGGA,012627.000,4900.5132,N,00825.3856,E,1,6,3.36,78.3,M,47.9,M,,*7B",,,,
2022-03-12T02:26:53+01:00,85,40.77,11.98,1003.87,172.80,181.50,0,-127.00,"$GNGGA,012648.000,4900.5170,N,00825.3936,E,1,6,3.37,72.5,M,47.9,M,,*7E",,,,
2022-03-12T02:27:14+01:00,86,40.82,11.95,1003.88,172.90,181.60,0,-127.00,"$GNGGA,012709.000,4900.5162,N,00825.3895,E,1,6,3.38,66.4,M,47.9,M,,*7A",,,,
2022-03-12T02:27:35+01:00,87,40.87,11.93,1003.88,171.90,180.50,0,-127.00,"$GNGGA,012730.000,4900.5163,N,00825.3920,E,1,6,3.40,58.5,M,47.9,M,,*7D",,,,
2022-03-12T02:27:56+01:00,88,40.91,11.86,1003.88,172.10,180.80,0,-127.00,"$GNGGA,012751.000,4900.5206,N,00825.3917,E,1,7,2.54,61.1,M,47.9,M,,*75",,,,
2022-03-12T02:28:16+01:00,89,40.95,11.86,1003.88,170.00,178.60,0,-127.00,"$GNGGA,012811.000,4900.5255,N,00825.4008,E,1,7,2.54,61.8,M,47.9,M,,*71",,,,
2022-03-12T02:28:37+01:00,90,41.00,11.82,1003.87,168.70,177.20,0,-127.00,"$GNGGA,012832.000,4900.5282,N,00825.4054,E,1,7,2.54,65.3,M,47.9,M,,*7C",,,,
2022-03-12T02:28:58+01:00,91,41.04,11.76,1003.86,168.30,176.80,0,-127.00,"$GNGGA,012853.000,4900.5237,N,00825.4281,E,1,6,3.44,62.2,M,47.9,M,,*78",,,,
2022-03-12T02:29:19+01:00,92,41.08,11.76,1003.86,168.40,176.90,0,-127.00,"$GNGGA,012914.000,4900.5274,N,00825.4395,E,1,5,3.65,56.3,M,47.9,M,,*7F",,,,
2022-03-12T02:29:39+01:00,93,41.13,11.73,1003.86,168.40,176.90,0,-127.00,"$GNGGA,012934.000,4900.5250,N,00825.4123,E,1,6,3.47,53.3,M,47.9,M,,*72",,,,
2022-03-12T02:30:00+01:00,94,41.17,11.70,1003.86,170.20,178.80,0,-127.00,"$GNGGA,012955.000,4900.5188,N,00825.3906,E,1,6,3.48,48.1,M,47.9,M,,*7C",,,,
2022-03-12T02:30:21+01:00,95,41.21,11.67,1003.86,172.40,181.10,0,-127.00,"$GNGGA,013016.000,4900.5171,N,00825.3902,E,1,6,3.49,41.7,M,47.9,M,,*7F",,,,
2022-03-12T02:30:42+01:00,96,41.25,11.61,1003.86,174.80,183.60,0,-127.00,"$GNGGA,013037.000,4900.5151,N,00825.3871,E,1,6,3.51,35.5,M,47.9,M,,*73",,,,
2022-03-12T02:31:03+01:00,97,41.29,11.60,1003.86,173.40,182.10,0,-127.00,"$GNGGA,013058.000,4900.5077,N,00825.3686,E,1,6,3.52,27.3,M,47.9,M,,*7F",,,,
2022-03-12T02:31:24+01:00,98,41.33,11.59,1003.87,169.60,178.10,0,-127.00,"$GNGGA,013119.000,4900.5106,N,00825.3635,E,1,6,3.53,21.5,M,47.9,M,,*75",,,,
2022-03-12T02:31:45+01:00,99,41.37,11.57,1003.86,167.40,175.80,0,-127.00,"$GNGGA,013140.000,4900.5132,N,00825.3657,E,1,5,3.74,17.8,M,47.9,M,,*74",,,,
2022-03-12T02:32:06+01:00,100,41.40,11.55,1003.85,167.00,175.40,0,-127.00,"$GNGGA,013201.000,4900.5083,N,00825.3455,E,1,6,3.56,12.9,M,47.9,M,,*7E",,,,
2022-03-12T02:32:27+01:00,101,41.44,11.53,1003.85,169.80,178.30,0,-127.00,"$GNGGA,013222.000,4900.5035,N,00825.3336,E,1,6,3.58,6.8,M,47.9,M,,*4A",,,,
2022-03-12T02:32:48+01:00,102,41.48,11.50,1003.86,170.50,179.10,0,-127.00,"$GNGGA,013243.000,4900.5000,N,00825.3275,E,1,6,3.59,0.1,M,47.9,M,,*43",,,,
2022-03-12T02:33:09+01:00,103,41.51,11.47,1003.85,170.50,179.10,0,-127.00,"$GNGGA,013304.000,4900.4912,N,00825.3076,E,1,6,3.60,-10.3,M,47.9,M,,*5F",,,,
2022-03-12T02:33:30+01:00,104,41.54,11.43,1003.84,170.90,179.50,0,-127.00,"$GNGGA,013325.000,4900.4915,N,00825.3058,E,1,6,3.62,-13.4,M,47.9,M,,*51",,,,
2022-03-12T02:33:51+01:00,105,41.58,11.41,1003.85,169.50,178.00,0,-127.00,"$GNGGA,013346.000,4900.4928,N,00825.3184,E,1,5,3.82,-13.9,M,47.9,M,,*5A",,,,
2022-03-12T02:34:12+01:00,106,41.61,11.37,1003.85,167.40,175.80,0,-127.00,"$GNGGA,013407.000,4900.4912,N,00825.3183,E,1,5,3.84,-14.3,M,47.9,M,,*5D",,,,
2022-03-12T02:34:32+01:00,107,41.64,11.36,1003.85,165.00,173.30,0,-127.00,"$GNGGA,013427.000,4900.4882,N,00825.3144,E,1,6,3.66,-14.9,M,47.9,M,,*59",,,,
2022-03-12T02:34:53+01:00,108,41.68,11.33,1003.84,165.60,173.90,0,-127.00,"$GNGGA,013448.000,4900.4892,N,00825.3191,E,1,6,3.68,-15.9,M,47.9,M,,*56",,,,
2022-03-12T02:35:14+01:00,109,41.71,11.28,1003.84,166.80,175.20,0,-127.00,"$GNGGA,013509.000,4900.4894,N,00825.3112,E,1,6,3.69,-17.3,M,47.9,M,,*56",,,,
2022-03-12T02:35:35+01:00,110,41.74,11.28,1003.84,168.50,177.00,0,-127.00,"$GNGGA,013530.000,4900.4866,N,00825.2943,E,1,6,3.71,-20.0,M,47.9,M,,*52",,,,
2022-03-12T02:35:56+01:00,111,41.77,11.27,1003.84,169.40,177.90,0,-127.00,"$GNGGA,013551.000,4900.4802,N,00825.2973,E,1,6,3.72,-23.0,M,47.9,M,,*54",,,,
2022-03-12T02:36:16+01:00,112,41.80,11.22,1003.85,171.70,180.30,0,-127.00,"$GNGGA,013611.000,4900.4768,N,00825.2976,E,1,6,3.74,-22.9,M,47.9,M,,*5B",,,,
2022-03-12T02:36:37+01:00,113,41.83,11.20,1003.85,170.10,178.70,0,-127.00,"$GNGGA,013632.000,4900.4779,N,00825.3017,E,1,6,3.75,-23.5,M,47.9,M,,*59",,,,
2022-03-12T02:36:58+01:00,114,41.86,11.22,1003.86,168.00,176.50,0,-127.00,"$GNGGA,013653.000,4900.4821,N,00825.3095,E,1,5,3.85,-22.1,M,47.9,M,,*5F",,,,
2022-03-12T02:37:18+01:00,115,41.88,11.20,1003.85,165.60,173.90,0,-127.00,"$GNGGA,013713.000,4900.4837,N,00825.3066,E,1,5,25.47,-20.0,M,47.9,M,,*68",,,,
2022-03-12T02:37:39+01:00,116,41.91,11.18,1003.85,165.90,174.20,0,-127.00,"$GNGGA,013734.000,4900.4837,N,00825.3080,E,1,5,3.88,-19.0,M,47.9,M,,*58",,,,
2022-03-12T02:38:00+01:00,117,41.93,11.18,1003.86,167.30,175.70,0,-127.00,"$GNGGA,013755.000,4900.4867,N,00825.3125,E,1,5,3.89,-16.5,M,47.9,M,,*5F",,,,
2022-03-12T02:38:21+01:00,118,41.96,11.17,1003.86,166.90,175.30,0,-127.00,"$GNGGA,013816.000,4900.4988,N,00825.3348,E,1,5,3.91,-4.8,M,47.9,M,,*69",,,,
2022-03-12T02:38:41+01:00,119,41.98,11.14,1003.85,166.80,175.20,0,-127.00,"$GNGGA,013836.000,4900.4999,N,00825.3371,E,1,6,3.85,-5.5,M,47.9,M,,*6B",,,,
2022-03-12T02:39:02+01:00,120,42.00,11.12,1003.84,166.60,175.00,0,-127.00,"$GNGGA,013857.000,4900.4924,N,00825.3202,E,1,6,3.87,-11.8,M,47.9,M,,*55",,,,
2022-03-12T02:39:22+01:00,121,42.03,11.10,1003.83,167.00,175.40,0,-127.00,"$GNGGA,013917.000,4900.4900,N,00825.3191,E,1,6,3.89,-9.3,M,47.9,M,,*63",,,,
2022-03-12T02:39:43+01:00,122,42.05,11.08,1003.83,167.70,176.10,0,-127.00,"$GNGGA,013938.000,4900.4931,N,00825.3317,E,1,6,3.91,-4.1,M,47.9,M,,*66",,,,
2022-03-12T02:40:04+01:00,123,42.07,11.09,1003.83,168.10,176.60,0,-127.00,"$GNGGA,013959.000,4900.4920,N,00825.3230,E,1,7,2.94,-1.5,M,47.9,M,,*61",,,,
2022-03-12T02:40:25+01:00,124,42.10,11.09,1003.84,167.20,175.60,0,-127.00,"$GNGGA,014020.000,4900.4856,N,00825.3029,E,1,7,13.34,-12.6,M,47.9,M,,*60",,,,
2022-03-12T02:40:45+01:00,125,42.12,11.05,1003.84,166.10,174.50,0,-127.00,"$GNGGA,014040.000,4900.4793,N,00825.2849,E,1,7,2.96,-28.1,M,47.9,M,,*59",,,,
2022-03-12T02:41:06+01:00,126,42.15,11.02,1003.84,166.00,174.40,0,-127.00,"$GNGGA,014101.000,4900.4765,N,00825.2785,E,1,7,2.97,-38.8,M,47.9,M,,*52",,,,
2022-03-12T02:41:27+01:00,127,42.17,11.03,1003.83,165.90,174.20,0,-127.00,"$GNGGA,014122.000,4900.4671,N,00825.2493,E,1,7,2.98,-47.9,M,47.9,M,,*55",,,,
2022-03-12T02:41:47+01:00,128,42.19,10.99,1003.83,165.70,174.00,0,-127.00,"$GNGGA,014142.000,4900.4710,N,00825.2362,E,1,7,13.40,-53.5,M,47.9,M,,*60",,,,
2022-03-12T02:42:08+01:00,129,42.22,10.96,1003.83,164.40,172.70,0,-127.00,"$GNGGA,014203.000,4900.4746,N,00825.2449,E,1,7,3.00,-53.6,M,47.9,M,,*5D",,,,
2022-03-12T02:42:29+01:00,130,42.24,10.95,1003.83,166.70,175.10,0,-127.00,"$GNGGA,014224.000,4900.4780,N,00825.2456,E,1,7,3.02,-54.7,M,47.9,M,,*58",,,,
2022-03-12T02:42:50+01:00,131,42.26,10.93,1003.83,171.60,180.20,0,-127.00,"$GNGGA,014245.000,4900.4771,N,00825.2189,E,1,7,3.03,-61.2,M,47.9,M,,*54",,,,
2022-03-12T02:43:11+01:00,132,42.28,10.92,1003.82,171.60,180.20,0,-127.00,"$GNGGA,014306.000,4900.4779,N,00825.2160,E,1,7,3.04,-62.4,M,47.9,M,,*5F",,,,
2022-03-12T02:43:32+01:00,133,42.29,10.93,1003.83,170.90,179.50,0,-127.00,"$GNGGA,014327.000,4900.4780,N,00825.2222,E,1,7,3.05,-63.0,M,47.9,M,,*5B",,,,
2022-03-12T02:43:53+01:00,134,42.31,10.91,1003.82,171.40,180.00,0,-127.00,"$GNGGA,014348.000,4900.4721,N,00825.2233,E,1,6,3.67,-63.2,M,47.9,M,,*5E",,,,
2022-03-12T02:44:14+01:00,135,42.33,10.88,1003.82,177.00,185.90,0,-127.00,"$GNGGA,014409.000,4900.4660,N,00825.2114,E,1,7,13.59,-64.8,M,47.9,M,,*6E",,,,
2022-03-12T02:44:35+01:00,136,42.35,10.87,1003.83,175.20,184.00,0,-127.00,"$GNGGA,014430.000,4900.4688,N,00825.2075,E,1,6,3.18,-65.5,M,47.9,M,,*5D",,,,
2022-03-12T02:44:56+01:00,137,42.36,10.84,1003.83,171.50,180.10,0,-127.00,"$GNGGA,014451.000,4900.4672,N,00825.2169,E,1,7,3.10,-66.8,M,47.9,M,,*54",,,,
2022-03-12T02:45:17+01:00,138,42.38,10.82,1003.84,173.80,182.50,0,-127.00,"$GNGGA,014512.000,4900.4689,N,00825.2176,E,1,7,3.11,-63.4,M,47.9,M,,*50",,,,
2022-03-12T02:45:38+01:00,139,42.39,10.81,1003.83,174.40,183.20,0,-127.00,"$GNGGA,014533.000,4900.4684,N,00825.2126,E,1,7,13.75,-56.4,M,47.9,M,,*6E",,,,
2022-03-12T02:45:59+01:00,140,42.41,10.80,1003.83,170.20,178.80,0,-127.00,"$GNGGA,014554.000,4900.4675,N,00825.2100,E,1,7,3.14,-58.2,M,47.9,M,,*5B",,,,
2022-03-12T02:46:20+01:00,141,42.42,10.80,1003.83,164.70,173.00,0,-127.00,"$GNGGA,014615.000,4900.4702,N,00825.2105,E,0,7,,-59.1,M,47.9,M,,*42",,,,
2022-03-12T02:46:40+01:00,142,42.44,10.78,1003.83,167.90,176.30,0,-127.00,"$GNGGA,014635.000,4900.4688,N,00825.2047,E,1,7,3.17,-58.7,M,47.9,M,,*59",,,,
2022-03-12T02:47:01+01:00,143,42.45,10.76,1003.83,170.90,179.50,0,-127.00,"$GNGGA,014656.000,4900.4673,N,00825.2045,E,0,3,,-60.3,M,47.9,M,,*4B",,,,
2022-03-12T02:47:21+01:00,144,42.47,10.73,1003.84,171.00,179.60,0,-127.00,"$GNGGA,014716.000,4900.4680,N,00825.1997,E,1,7,13.99,-60.9,M,47.9,M,,*64",,,,
2022-03-12T02:47:42+01:00,145,42.49,10.72,1003.84,166.00,174.40,0,-127.00,"$GNGGA,014737.000,4900.4663,N,00825.1999,E,1,6,3.88,-60.6,M,47.9,M,,*5B",,,,
2022-03-12T02:48:03+01:00,146,42.50,10.70,1003.85,163.80,172.00,0,-127.00,"$GNGGA,014758.000,4900.4650,N,00825.2094,E,1,6,3.90,-61.2,M,47.9,M,,*59",,,,
2022-03-12T02:48:24+01:00,147,42.52,10.68,1003.86,163.00,171.20,0,-127.00,"$GNGGA,014819.000,4900.4672,N,00825.1966,E,0,6,,-60.8,M,47.9,M,,*4A",,,,
2022-03-12T02:48:44+01:00,148,42.54,10.66,1003.86,164.00,172.30,0,-127.00,"$GNGGA,014839.000,4900.4655,N,00825.2043,E,1,6,3.94,-60.6,M,47.9,M,,*5F",,,,
2022-03-12T02:49:05+01:00,149,42.55,10.66,1003.86,163.90,172.10,0,-127.00,"$GNGGA,014900.000,4900.4775,N,00825.1929,E,1,6,3.96,-55.7,M,47.9,M,,*54",,,,
2022-03-12T02:49:26+01:00,150,42.56,10.65,1003.86,163.50,171.70,0,-127.00,"$GNGGA,014921.000,4900.4636,N,00825.2249,E,1,4,16.11,-53.0,M,47.9,M,,*67",,,,
2022-03-12T02:49:46+01:00,151,42.57,10.63,1003.86,162.80,171.00,0,-127.00,"$GNGGA,014941.000,4900.4809,N,00825.2050,E,1,6,4.01,-51.3,M,47.9,M,,*58",,,,
2022-03-12T02:50:07+01:00,152,42.58,10.61,1003.85,163.20,171.40,0,-127.00,"$GNGGA,015002.000,4900.4823,N,00825.1934,E,1,6,4.32,-50.7,M,47.9,M,,*52",,,,
2022-03-12T02:50:28+01:00,153,42.59,10.61,1003.85,163.50,171.70,0,-127.00,"$GNGGA,015023.000,4900.4765,N,00825.1972,E,1,5,6.78,-51.7,M,47.9,M,,*50",,,,
2022-03-12T02:50:48+01:00,154,42.61,10.60,1003.85,164.50,172.80,0,-127.00,"$GNGGA,015043.000,4900.4751,N,00825.1914,E,1,6,4.08,-53.9,M,47.9,M,,*5B",,,,
2022-03-12T02:51:09+01:00,155,42.62,10.58,1003.85,164.00,172.30,0,-127.00,"$GNGGA,015104.000,4900.4736,N,00825.2049,E,1,6,4.10,-54.9,M,47.9,M,,*54",,,,
2022-03-12T02:51:30+01:00,156,42.62,10.59,1003.86,166.10,174.50,0,-127.00,"$GNGGA,015125.000,4900.4727,N,00825.1958,E,1,5,4.19,-55.2,M,47.9,M,,*5D",,,,
2022-03-12T02:51:51+01:00,157,42.64,10.57,1003.86,166.80,175.20,0,-127.00,"$GNGGA,015146.000,4900.4711,N,00825.1833,E,1,6,4.15,-55.4,M,47.9,M,,*58",,,,
2022-03-12T02:52:12+01:00,158,42.64,10.55,1003.85,167.40,175.80,0,-127.00,"$GNGGA,015207.000,4900.4698,N,00825.1874,E,1,6,4.18,-59.2,M,47.9,M,,*5A",,,,
2022-03-12T02:52:33+01:00,159,42.65,10.53,1003.85,166.80,175.20,0,-127.00,"$GNGGA,015228.000,4900.4622,N,00825.2013,E,1,6,4.20,-61.9,M,47.9,M,,*57",,,,
2022-03-12T02:52:54+01:00,160,42.66,10.50,1003.86,166.60,175.00,0,-127.00,"$GNGGA,015249.000,4900.4591,N,00825.1869,E,0,6,,-64.5,M,47.9,M,,*4D",,,,
2022-03-12T02:53:15+01:00,161,42.67,10.50,1003.85,165.90,174.20,0,-127.00,"$GNGGA,015310.000,4900.4661,N,00825.1622,E,1,6,4.26,-68.4,M,47.9,M,,*5F",,,,
2022-03-12T02:53:35+01:00,162,42.67,10.49,1003.86,166.60,175.00,0,-127.00,"$GNGGA,015330.000,4900.4570,N,00825.1723,E,1,5,4.35,-73.8,M,47.9,M,,*59",,,,
2022-03-12T02:53:56+01:00,163,42.68,10.47,1003.86,167.90,176.30,0,-127.00,"$GNGGA,015351.000,4900.4520,N,00825.1708,E,1,5,4.37,-78.1,M,47.9,M,,*52",,,,
2022-03-12T02:54:17+01:00,164,42.69,10.45,1003.86,169.30,177.80,0,-127.00,"$GNGGA,015412.000,4900.4582,N,00825.1394,E,1,5,16.98,-84.4,M,47.9,M,,*6B",,,,
2022-03-12T02:54:37+01:00,165,42.69,10.46,1003.86,168.40,176.90,0,-127.00,"$GNGGA,015432.000,4900.4585,N,00825.1328,E,1,5,4.43,-86.2,M,47.9,M,,*58",,,,
2022-03-12T02:54:58+01:00,166,42.70,10.43,1003.86,168.80,177.30,0,-127.00,"$GNGGA,015453.000,4900.4676,N,00825.1399,E,1,5,4.46,-77.4,M,47.9,M,,*57",,,,
2022-03-12T02:55:19+01:00,167,42.70,10.41,1003.86,167.90,176.30,0,-127.00,"$GNGGA,015514.000,4900.4648,N,00825.1438,E,1,5,17.26,-74.3,M,47.9,M,,*64",,,,
2022-03-12T02:55:40+01:00,168,42.71,10.42,1003.85,166.90,175.30,0,-127.00,"$GNGGA,015535.000,4900.4621,N,00825.1508,E,1,5,4.52,-78.9,M,47.9,M,,*5D",,,,
2022-03-12T02:56:00+01:00,169,42.71,10.40,1003.85,165.00,173.30,0,-127.00,"$GNGGA,015555.000,4900.4678,N,00825.1756,E,1,6,3.53,-69.1,M,47.9,M,,*53",,,,
2022-03-12T02:56:21+01:00,170,42.72,10.40,1003.84,165.10,173.40,0,-127.00,"$GNGGA,015616.000,4900.4748,N,00825.2441,E,1,6,3.54,-48.8,M,47.9,M,,*5E",,,,
2022-03-12T02:56:42+01:00,171,42.72,10.39,1003.84,165.30,173.60,0,-127.00,"$GNGGA,015637.000,4900.4791,N,00825.2666,E,1,6,3.55,-36.7,M,47.9,M,,*59",,,,
2022-03-12T02:57:03+01:00,172,42.73,10.40,1003.84,165.30,173.60,0,-127.00,"$GNGGA,015658.000,4900.4830,N,00825.2973,E,1,6,3.57,-27.8,M,47.9,M,,*52",,,,
2022-03-12T02:57:24+01:00,173,42.73,10.38,1003.84,166.50,174.90,0,-127.00,"$GNGGA,015719.000,4900.4858,N,00825.3129,E,1,6,3.76,-24.7,M,47.9,M,,*51",,,,
2022-03-12T02:57:44+01:00,174,42.73,10.37,1003.84,169.90,178.40,0,-127.00,"$GNGGA,015739.000,4900.4816,N,00825.2980,E,1,6,3.59,-16.1,M,47.9,M,,*59",,,,
2022-03-12T02:58:05+01:00,175,42.74,10.36,1003.85,168.80,177.30,0,-127.00,"$GNGGA,015800.000,4900.4866,N,00825.3118,E,1,6,3.60,-8.3,M,47.9,M,,*64",,,,
2022-03-12T02:58:25+01:00,176,42.74,10.37,1003.85,166.10,174.50,0,-127.00,"$GNGGA,015820.000,4900.4945,N,00825.3469,E,1,6,3.80,-0.2,M,47.9,M,,*62",,,,
2022-03-12T02:58:46+01:00,177,42.75,10.36,1003.85,164.10,172.40,0,-127.00,"$GNGGA,015841.000,4900.4993,N,00825.3648,E,1,6,3.63,5.1,M,47.9,M,,*49",,,,
2022-03-12T02:59:07+01:00,178,42.75,10.35,1003.85,165.10,173.40,0,-127.00,"$GNGGA,015902.000,4900.4985,N,00825.3613,E,1,6,3.64,10.3,M,47.9,M,,*77",,,,
2022-03-12T02:59:28+01:00,179,42.76,10.37,1003.85,166.10,174.50,0,-127.00,"$GNGGA,015923.000,4900.4916,N,00825.3411,E,1,6,3.66,13.5,M,47.9,M,,*79",,,,
2022-03-12T02:59:49+01:00,180,42.76,10.33,1003.85,166.50,174.90,0,-127.00,"$GNGGA,015944.000,4900.4964,N,00825.3589,E,1,5,4.91,13.2,M,47.9,M,,*76",,,,
2022-03-12T03:00:10+01:00,181,42.76,10.32,1003.84,166.70,175.10,0,-127.00,"$GNGGA,020005.000,4900.4989,N,00825.3748,E,1,5,4.93,14.1,M,47.9,M,,*76",,,,
2022-03-12T03:00:30+01:00,182,42.76,10.32,1003.83,166.20,174.60,0,-127.00,"$GNGGA,020025.000,4900.5021,N,00825.3864,E,1,5,4.94,17.7,M,47.9,M,,*7D",,,,
2022-03-12T03:00:50+01:00,183,42.77,10.29,1003.83,165.90,174.20,0,-127.00,"$GNGGA,020045.000,4900.4984,N,00825.3745,E,1,6,3.71,18.9,M,47.9,M,,*7E",,,,
2022-03-12T03:01:11+01:00,184,42.77,10.31,1003.83,166.70,175.10,0,-127.00,"$GNGGA,020106.000,4900.4978,N,00825.3708,E,1,5,4.98,19.9,M,47.9,M,,*70",,,,
2022-03-12T03:01:32+01:00,185,42.77,10.31,1003.84,167.90,176.30,0,-127.00,"$GNGGA,020127.000,4900.5011,N,00825.3881,E,1,6,3.75,16.6,M,47.9,M,,*7D",,,,
2022-03-12T03:01:53+01:00,186,42.78,10.29,1003.85,168.50,177.00,0,-127.00,"$GNGGA,020148.000,4900.5011,N,00825.3906,E,1,6,3.76,13.9,M,47.9,M,,*73",,,,
2022-03-12T03:02:14+01:00,187,42.78,10.28,1003.86,171.50,180.10,0,-127.00,"$GNGGA,020209.000,4900.4972,N,00825.3740,E,1,6,3.94,13.3,M,47.9,M,,*72",,,,
2022-03-12T03:02:34+01:00,188,42.78,10.29,1003.86,167.90,176.30,0,-127.00,"$GNGGA,020229.000,4900.4990,N,00825.3848,E,1,6,3.79,10.3,M,47.9,M,,*7B",,,,
2022-03-12T03:02:55+01:00,189,42.79,10.26,1003.86,166.90,175.30,0,-127.00,"$GNGGA,020250.000,4900.5008,N,00825.3765,E,1,6,9.93,10.1,M,47.9,M,,*70",,,,
2022-03-12T03:03:16+01:00,190,42.79,10.26,1003.85,166.60,175.00,0,-127.00,"$GNGGA,020311.000,4900.5006,N,00825.3870,E,1,6,3.82,9.5,M,47.9,M,,*47",,,,
2022-03-12T03:03:37+01:00,191,42.79,10.28,1003.86,170.70,179.30,0,-127.00,"$GNGGA,020332.000,4900.5018,N,00825.3876,E,1,6,3.83,9.0,M,47.9,M,,*4B",,,,
2022-03-12T03:03:58+01:00,192,42.79,10.26,1003.85,171.30,179.90,0,-127.00,"$GNGGA,020353.000,4900.4973,N,00825.3649,E,1,6,3.85,12.4,M,47.9,M,,*73",,,,
2022-03-12T03:04:19+01:00,193,42.79,10.24,1003.85,168.60,177.10,0,-127.00,"$GNGGA,020414.000,4900.5012,N,00825.3765,E,1,6,3.86,10.2,M,47.9,M,,*70",,,,
2022-03-12T03:04:40+01:00,194,42.79,10.25,1003.86,165.50,173.80,0,-127.00,"$GNGGA,020435.000,4900.5058,N,00825.3895,E,1,6,3.88,8.6,M,47.9,M,,*4E",,,,
2022-03-12T03:05:01+01:00,195,42.79,10.24,1003.86,164.90,173.20,0,-127.00,"$GNGGA,020456.000,4900.5022,N,00825.3734,E,1,5,5.12,5.3,M,47.9,M,,*4C",,,,
2022-03-12T03:05:22+01:00,196,42.79,10.22,1003.86,164.70,173.00,0,-127.00,"$GNGGA,020517.000,4900.5031,N,00825.3719,E,1,6,4.07,5.2,M,47.9,M,,*42",,,,
2022-03-12T03:05:42+01:00,197,42.79,10.22,1003.86,164.30,172.60,0,-127.00,"$GNGGA,020537.000,4900.5040,N,00825.3718,E,1,6,3.92,8.1,M,47.9,M,,*42",,,,
2022-03-12T03:06:02+01:00,198,42.79,10.21,1003.87,166.00,174.40,0,-127.00,"$GNGGA,020557.000,4900.5040,N,00825.3542,E,1,6,3.94,13.3,M,47.9,M,,*77",,,,
2022-03-12T03:06:23+01:00,199,42.79,10.19,1003.86,169.20,177.70,0,-127.00,"$GNGGA,020618.000,4900.5116,N,00825.3629,E,1,6,3.95,19.7,M,47.9,M,,*7C",,,,
2022-03-12T03:06:44+01:00,200,42.79,10.18,1003.86,171.20,179.80,0,-127.00,"$GNGGA,020639.000,4900.5125,N,00825.3850,E,1,5,4.06,29.1,M,47.9,M,,*74",,,,
2022-03-12T03:07:05+01:00,201,42.79,10.19,1003.87,169.60,178.10,0,-127.00,"$GNGGA,020700.000,4900.5038,N,00825.3926,E,1,5,4.15,38.1,M,47.9,M,,*70",,,,
2022-03-12T03:07:26+01:00,202,42.79,10.18,1003.87,169.60,178.10,0,-127.00,"$GNGGA,020721.000,4900.5046,N,00825.3993,E,1,5,4.09,42.1,M,47.9,M,,*74",,,,
2022-03-12T03:07:46+01:00,203,42.78,10.18,1003.87,168.30,176.80,0,-127.00,"$GNGGA,020741.000,4900.5083,N,00825.4186,E,1,5,4.11,46.6,M,47.9,M,,*7A",,,,
2022-03-12T03:08:07+01:00,204,42.78,10.16,1003.87,166.40,174.80,0,-127.00,"$GNGGA,020802.000,4900.5101,N,00825.4238,E,1,5,4.13,49.9,M,47.9,M,,*7D",,,,
2022-03-12T03:08:28+01:00,205,42.78,10.17,1003.87,166.50,174.90,0,-127.00,"$GNGGA,020823.000,4900.5030,N,00825.4166,E,1,5,4.14,53.7,M,47.9,M,,*77",,,,
2022-03-12T03:08:48+01:00,206,42.77,10.15,1003.87,166.70,175.10,0,-127.00,"$GNGGA,020843.000,4900.5058,N,00825.4196,E,1,5,4.16,57.1,M,47.9,M,,*70",,,,
2022-03-12T03:09:08+01:00,207,42.77,10.15,1003.87,167.20,175.60,0,-127.00,"$GNGGA,020903.000,4900.5038,N,00825.4120,E,1,5,8.22,59.6,M,47.9,M,,*7C",,,,
2022-03-12T03:09:29+01:00,208,42.77,10.15,1003.87,165.00,173.30,0,-127.00,"$GNGGA,020924.000,4900.5038,N,00825.4113,E,1,5,4.19,61.6,M,47.9,M,,*76",,,,
2022-03-12T03:09:50+01:00,209,42.77,10.15,1003.87,166.70,175.10,0,-127.00,"$GNGGA,020945.000,4900.5102,N,00825.4317,E,1,5,4.21,68.8,M,47.9,M,,*73",,,,
2022-03-12T03:10:11+01:00,210,42.77,10.13,1003.86,168.50,177.00,0,-127.00,"$GNGGA,021006.000,4900.5156,N,00825.4477,E,1,5,4.23,73.8,M,47.9,M,,*74",,,,
2022-03-12T03:10:32+01:00,211,42.77,10.13,1003.86,170.40,179.00,0,-127.00,"$GNGGA,021027.000,4900.5150,N,00825.4462,E,1,5,4.24,83.1,M,47.9,M,,*74",,,,
2022-03-12T03:10:53+01:00,212,42.77,10.09,1003.87,173.00,181.70,0,-127.00,"$GNGGA,021048.000,4900.5204,N,00825.4610,E,1,5,4.26,87.1,M,47.9,M,,*7E",,,,
2022-03-12T03:11:14+01:00,213,42.77,10.09,1003.87,175.30,184.10,0,-127.00,"$GNGGA,021109.000,4900.5226,N,00825.4672,E,1,5,4.28,88.9,M,47.9,M,,*77",,,,
2022-03-12T03:11:34+01:00,214,42.77,10.07,1003.87,174.30,183.10,0,-127.00,"$GNGGA,021129.000,4900.5167,N,00825.4510,E,1,4,34.30,89.5,M,47.9,M,,*42",,,,
2022-03-12T03:11:55+01:00,215,42.77,10.06,1003.87,171.40,180.00,0,-127.00,"$GNGGA,021150.000,4900.5173,N,00825.4570,E,1,4,4.65,88.4,M,47.9,M,,*7C",,,,
2022-03-12T03:12:16+01:00,216,42.77,10.06,1003.87,166.40,174.80,0,-127.00,"$GNGGA,021211.000,4900.5136,N,00825.4518,E,1,5,4.34,89.2,M,47.9,M,,*77",,,,
2022-03-12T03:12:37+01:00,217,42.76,10.08,1003.87,167.20,175.60,0,-127.00,"$GNGGA,021232.000,4900.5167,N,00825.4606,E,1,4,5.38,92.5,M,47.9,M,,*7F",,,,
2022-03-12T03:12:57+01:00,218,42.76,10.08,1003.87,165.10,173.40,0,-127.00,"$GNGGA,021252.000,4900.5186,N,00825.4640,E,1,5,4.37,92.6,M,47.9,M,,*78",,,,
2022-03-12T03:13:18+01:00,219,42.76,10.10,1003.86,166.40,174.80,0,-127.00,"$GNGGA,021313.000,4900.5221,N,00825.4763,E,1,5,4.39,92.7,M,47.9,M,,*7D",,,,
2022-03-12T03:13:39+01:00,220,42.75,10.06,1003.86,165.20,173.50,0,-127.00,"$GNGGA,021334.000,4900.5215,N,00825.4716,E,1,5,4.41,96.8,M,47.9,M,,*79",,,,
2022-03-12T03:14:00+01:00,221,42.76,10.06,1003.87,166.00,174.40,0,-127.00,"$GNGGA,021355.000,4900.5252,N,00825.4755,E,1,5,4.42,101.5,M,47.9,M,,*4B",,,,
2022-03-12T03:14:21+01:00,222,42.75,10.07,1003.87,166.10,174.50,0,-127.00,"$GNGGA,021416.000,4900.5287,N,00825.4773,E,1,5,4.44,112.3,M,47.9,M,,*45",,,,
2022-03-12T03:14:42+01:00,223,42.75,10.04,1003.86,164.30,172.60,0,-127.00,"$GNGGA,021437.000,4900.5287,N,00825.4757,E,1,5,4.46,119.7,M,47.9,M,,*4D",,,,
2022-03-12T03:15:03+01:00,224,42.75,10.03,1003.86,165.50,173.80,0,-127.00,"$GNGGA,021458.000,4900.5277,N,00825.4767,E,1,5,4.48,123.2,M,47.9,M,,*4A",,,,
2022-03-12T03:15:27+01:00,225,42.75,10.04,1003.86,167.40,175.80,0,-127.00,"$GNGGA,021519.000,4900.5265,N,00825.4677,E,1,5,4.55,124.2,M,47.9,M,,*46",,,,
2022-03-12T03:15:47+01:00,226,42.75,10.02,1003.86,169.90,178.40,0,-127.00,"$GNGGA,021542.000,4900.5219,N,00825.4492,E,1,5,4.52,123.6,M,47.9,M,,*4E",,,,
2022-03-12T03:16:08+01:00,227,42.76,10.00,1003.87,169.50,178.00,0,-127.00,"$GNGGA,021603.000,4900.5226,N,00825.4731,E,1,5,4.54,118.8,M,47.9,M,,*4E",,,,
2022-03-12T03:16:29+01:00,228,42.75,10.00,1003.87,169.00,177.50,0,-127.00,"$GNGGA,021624.000,4900.5221,N,00825.4651,E,1,5,4.55,116.7,M,47.9,M,,*4B",,,,
2022-03-12T03:16:49+01:00,229,42.75,9.99,1003.87,168.00,176.50,0,-127.00,"$GNGGA,021644.000,4900.5243,N,00825.4579,E,1,5,6.61,116.6,M,47.9,M,,*44",,,,
2022-03-12T03:17:10+01:00,230,42.74,9.96,1003.87,165.50,173.80,0,-127.00,"$GNGGA,021705.000,4900.5225,N,00825.4553,E,1,5,4.59,118.2,M,47.9,M,,*4B",,,,
2022-03-12T03:17:31+01:00,231,42.74,9.97,1003.88,164.40,172.70,0,-127.00,"$GNGGA,021726.000,4900.5226,N,00825.4575,E,1,5,4.61,120.8,M,47.9,M,,*47",,,,
2022-03-12T03:17:52+01:00,232,42.74,9.97,1003.87,166.10,174.50,0,-127.00,"$GNGGA,021747.000,4900.5167,N,00825.4693,E,1,5,4.67,121.3,M,47.9,M,,*41",,,,
2022-03-12T03:18:13+01:00,233,42.74,9.96,1003.88,169.60,178.10,0,-127.00,"$GNGGA,021808.000,4900.5180,N,00825.4788,E,1,5,4.69,120.8,M,47.9,M,,*43",,,,
2022-03-12T03:18:34+01:00,234,42.74,9.94,1003.88,173.20,181.90,0,-127.00,"$GNGGA,021829.000,4900.5242,N,00825.4718,E,1,5,4.66,121.9,M,47.9,M,,*4B",,,,
2022-03-12T03:18:55+01:00,235,42.73,9.94,1003.88,176.90,185.80,0,-127.00,"$GNGGA,021850.000,4900.5274,N,00825.4740,E,1,5,4.68,121.4,M,47.9,M,,*4E",,,,
2022-03-12T03:19:16+01:00,236,42.73,9.95,1003.88,176.30,185.20,0,-127.00,"$GNGGA,021911.000,4900.5258,N,00825.4771,E,1,5,4.70,121.4,M,47.9,M,,*4F",,,,
2022-03-12T03:19:37+01:00,237,42.72,9.94,1003.89,175.60,184.40,0,-127.00,"$GNGGA,021932.000,4900.5241,N,00825.4824,E,1,4,5.48,121.3,M,47.9,M,,*45",,,,
2022-03-12T03:19:58+01:00,238,42.72,9.95,1003.89,174.70,183.50,0,-127.00,"$GNGGA,021953.000,4900.5232,N,00825.4736,E,1,5,4.78,120.9,M,47.9,M,,*42",,,,
2022-03-12T03:20:19+01:00,239,42.72,9.96,1003.88,174.30,183.10,0,-127.00,"$GNGGA,022014.000,4900.5245,N,00825.4715,E,1,5,4.75,119.1,M,47.9,M,,*45",,,,
2022-03-12T03:20:40+01:00,240,42.71,9.95,1003.88,172.90,181.60,0,-127.00,"$GNGGA,022035.000,4900.5233,N,00825.4619,E,1,5,4.77,121.8,M,47.9,M,,*4A",,,,
2022-03-12T03:21:01+01:00,241,42.71,9.94,1003.87,170.80,179.40,0,-127.00,"$GNGGA,022056.000,4900.5221,N,00825.4718,E,1,5,4.82,116.7,M,47.9,M,,*4D",,,,
2022-03-12T03:21:22+01:00,242,42.70,9.92,1003.87,169.80,178.30,0,-127.00,"$GNGGA,022117.000,4900.5216,N,00825.4632,E,1,5,4.81,115.6,M,47.9,M,,*45",,,,
2022-03-12T03:21:42+01:00,243,42.69,9.93,1003.87,172.10,180.80,0,-127.00,"$GNGGA,022137.000,4900.5231,N,00825.4631,E,1,5,4.82,119.2,M,47.9,M,,*4A",,,,
2022-03-12T03:22:03+01:00,244,42.69,9.93,1003.87,175.70,184.50,0,-127.00,"$GNGGA,022158.000,4900.5219,N,00825.4681,E,1,5,4.84,117.5,M,47.9,M,,*4D",,,,
2022-03-12T03:22:24+01:00,245,42.69,9.90,1003.87,174.80,183.60,0,-127.00,"$GNGGA,022219.000,4900.5204,N,00825.4623,E,1,5,4.86,115.6,M,47.9,M,,*4C",,,,
2022-03-12T03:22:45+01:00,246,42.68,9.92,1003.86,172.60,181.30,0,-127.00,"$GNGGA,022240.000,4900.5070,N,00825.4382,E,1,4,5.26,116.2,M,47.9,M,,*42",,,,
2022-03-12T03:23:06+01:00,247,42.68,9.91,1003.86,167.90,176.30,0,-127.00,"$GNGGA,022301.000,4900.5136,N,00825.4543,E,1,5,4.89,119.6,M,47.9,M,,*40",,,,
2022-03-12T03:23:27+01:00,248,42.67,9.90,1003.86,170.30,178.90,0,-127.00,"$GNGGA,022322.000,4900.5215,N,00825.4684,E,1,5,4.90,122.6,M,47.9,M,,*4B",,,,
2022-03-12T03:23:48+01:00,249,42.67,9.89,1003.87,170.30,178.90,0,-127.00,"$GNGGA,022343.000,4900.5220,N,00825.4674,E,1,5,4.92,124.9,M,47.9,M,,*4E",,,,
2022-03-12T03:24:09+01:00,250,42.66,9.89,1003.86,174.60,183.40,0,-127.00,"$GNGGA,022404.000,4900.5238,N,00825.4666,E,1,5,4.94,127.8,M,47.9,M,,*44",,,,
2022-03-12T03:24:30+01:00,251,42.66,9.88,1003.87,171.20,179.80,0,-127.00,"$GNGGA,022425.000,4900.5264,N,00825.4715,E,1,5,4.95,131.5,M,47.9,M,,*40",,,,
2022-03-12T03:24:51+01:00,252,42.65,9.89,1003.87,168.30,176.80,0,-127.00,"$GNGGA,022446.000,4900.5257,N,00825.4721,E,1,5,4.97,132.6,M,47.9,M,,*40",,,,
2022-03-12T03:25:12+01:00,253,42.65,9.88,1003.87,164.80,173.10,0,-127.00,"$GNGGA,022507.000,4900.5258,N,00825.4691,E,1,4,5.01,132.8,M,47.9,M,,*40",,,,
2022-03-12T03:25:33+01:00,254,42.64,9.88,1003.87,165.80,174.10,0,-127.00,"$GNGGA,022528.000,4900.5238,N,00825.4677,E,1,4,5.02,133.6,M,47.9,M,,*4F",,,,
2022-03-12T03:25:54+01:00,255,42.63,9.87,1003.87,165.60,173.90,0,-127.00,"$GNGGA,022549.000,4900.5226,N,00825.4693,E,1,4,5.03,133.5,M,47.9,M,,*4F",,,,
2022-03-12T03:26:15+01:00,256,42.62,9.88,1003.86,166.70,175.10,0,-127.00,"$GNGGA,022610.000,4900.5241,N,00825.4740,E,1,5,5.02,132.7,M,47.9,M,,*4D",,,,
2022-03-12T03:26:36+01:00,257,42.61,9.88,1003.86,167.20,175.60,0,-127.00,"$GNGGA,022631.000,4900.5191,N,00825.4584,E,1,5,5.04,133.3,M,47.9,M,,*49",,,,
2022-03-12T03:26:57+01:00,258,42.60,9.86,1003.87,167.90,176.30,0,-127.00,"$GNGGA,022652.000,4900.5222,N,00825.4642,E,1,5,5.05,134.4,M,47.9,M,,*4F",,,,
2022-03-12T03:27:18+01:00,259,42.59,9.85,1003.86,168.90,177.40,0,-127.00,"$GNGGA,022713.000,4900.5200,N,00825.4721,E,1,5,5.06,128.1,M,47.9,M,,*44",,,,
2022-03-12T03:27:39+01:00,260,42.57,9.87,1003.86,168.20,176.70,0,-127.00,"$GNGGA,022734.000,4900.5198,N,00825.4641,E,1,5,5.08,127.0,M,47.9,M,,*44",,,,
2022-03-12T03:28:00+01:00,261,42.56,9.86,1003.86,166.10,174.50,0,-127.00,"$GNGGA,022755.000,4900.5186,N,00825.4553,E,1,4,5.45,127.7,M,47.9,M,,*43",,,,
2022-03-12T03:28:21+01:00,262,42.55,9.86,1003.86,169.40,177.90,0,-127.00,"$GNGGA,022816.000,4900.5232,N,00825.4801,E,1,5,5.10,123.7,M,47.9,M,,*48",,,,
2022-03-12T03:28:42+01:00,263,42.53,9.84,1003.86,174.70,183.50,0,-127.00,"$GNGGA,022837.000,4900.5246,N,00825.4759,E,1,5,5.11,120.7,M,47.9,M,,*48",,,,
2022-03-12T03:29:03+01:00,264,42.51,9.83,1003.86,174.70,183.50,0,-127.00,"$GNGGA,022858.000,4900.5220,N,00825.4802,E,1,4,5.43,120.5,M,47.9,M,,*44",,,,
2022-03-12T03:29:24+01:00,265,42.49,9.85,1003.86,174.50,183.30,0,-127.00,"$GNGGA,022919.000,4900.5231,N,00825.4837,E,1,5,5.13,122.2,M,47.9,M,,*47",,,,
2022-03-12T03:29:44+01:00,266,42.47,9.86,1003.86,175.90,184.70,0,-127.00,"$GNGGA,022939.000,4900.5226,N,00825.4887,E,1,5,5.14,122.3,M,47.9,M,,*4E",,,,
2022-03-12T03:30:05+01:00,267,42.45,9.88,1003.86,176.80,185.70,0,-127.00,"$GNGGA,023000.000,4900.5223,N,00825.4810,E,1,5,5.15,121.7,M,47.9,M,,*41",,,,
2022-03-12T03:30:26+01:00,268,42.43,9.84,1003.87,171.70,180.30,0,-127.00,"$GNGGA,023021.000,4900.5244,N,00825.4571,E,1,5,5.16,121.0,M,47.9,M,,*4D",,,,
2022-03-12T03:30:47+01:00,269,42.41,9.87,1003.86,169.30,177.80,0,-127.00,"$GNGGA,023042.000,4900.5234,N,00825.4619,E,1,5,5.17,123.9,M,47.9,M,,*48",,,,
2022-03-12T03:31:07+01:00,270,42.39,9.88,1003.85,170.90,179.50,0,-127.00,"$GNGGA,023102.000,4900.5245,N,00825.4745,E,1,6,3.88,125.2,M,47.9,M,,*4D",,,,
2022-03-12T03:31:28+01:00,271,42.37,9.87,1003.85,168.50,177.00,0,-127.00,"$GNGGA,023123.000,4900.5249,N,00825.4687,E,1,6,5.20,126.5,M,47.9,M,,*4D",,,,
2022-03-12T03:31:49+01:00,272,42.35,9.88,1003.85,170.80,179.40,0,-127.00,"$GNGGA,023144.000,4900.5231,N,00825.4575,E,1,6,5.21,128.4,M,47.9,M,,*43",,,,
2022-03-12T03:32:10+01:00,273,42.33,9.88,1003.85,174.70,183.50,0,-127.00,"$GNGGA,023205.000,4900.5238,N,00825.4711,E,1,6,5.21,128.4,M,47.9,M,,*4C",,,,
2022-03-12T03:32:31+01:00,274,42.31,9.90,1003.85,177.50,186.40,0,-127.00,"$GNGGA,023226.000,4900.5252,N,00825.4724,E,1,6,5.22,126.7,M,47.9,M,,*49",,,,
2022-03-12T03:32:51+01:00,275,42.29,9.91,1003.84,172.00,180.70,0,-127.00,"$GNGGA,023246.000,4900.5221,N,00825.4594,E,1,6,5.33,127.2,M,47.9,M,,*46",,,,
2022-03-12T03:33:12+01:00,276,42.27,9.93,1003.85,169.50,178.00,0,-127.00,"$GNGGA,023307.000,4900.5256,N,00825.4667,E,1,6,5.23,129.2,M,47.9,M,,*42",,,,
2022-03-12T03:33:33+01:00,277,42.24,9.93,1003.85,174.70,183.50,0,-127.00,"$GNGGA,023328.000,4900.5253,N,00825.4699,E,1,6,5.23,129.0,M,47.9,M,,*49",,,,
2022-03-12T03:33:54+01:00,278,42.21,9.94,1003.85,177.90,186.80,0,-127.00,"$GNGGA,023349.000,4900.5255,N,00825.4682,E,1,6,5.24,130.0,M,47.9,M,,*4D",,,,
2022-03-12T03:34:15+01:00,279,42.19,9.94,1003.85,177.60,186.50,0,-127.00,"$GNGGA,023410.000,4900.5238,N,00825.4588,E,1,6,5.24,134.7,M,47.9,M,,*47",,,,
2022-03-12T03:34:36+01:00,280,42.16,9.95,1003.86,173.00,181.70,0,-127.00,"$GNGGA,023431.000,4900.5261,N,00825.4706,E,1,6,5.24,134.3,M,47.9,M,,*48",,,,
2022-03-12T03:34:56+01:00,281,42.14,9.96,1003.85,169.70,178.20,0,-127.00,"$GNGGA,023451.000,4900.5249,N,00825.4684,E,1,6,5.24,133.3,M,47.9,M,,*48",,,,
2022-03-12T03:35:17+01:00,282,42.12,9.95,1003.86,169.80,178.30,0,-127.00,"$GNGGA,023512.000,4900.5240,N,00825.4608,E,1,7,3.81,134.0,M,47.9,M,,*4F",,,,
2022-03-12T03:35:38+01:00,283,42.09,9.94,1003.86,168.60,177.10,0,-127.00,"$GNGGA,023533.000,4900.5236,N,00825.4607,E,1,7,5.25,133.7,M,47.9,M,,*4A",,,,
2022-03-12T03:35:59+01:00,284,42.06,9.93,1003.86,171.00,179.60,0,-127.00,"$GNGGA,023554.000,4900.5233,N,00825.4647,E,1,7,5.25,133.0,M,47.9,M,,*4D",,,,
2022-03-12T03:36:20+01:00,285,42.04,9.96,1003.86,168.60,177.10,0,-127.00,"$GNGGA,023615.000,4900.5229,N,00825.4647,E,1,7,5.25,132.5,M,47.9,M,,*44",,,,
2022-03-12T03:36:41+01:00,286,42.01,9.97,1003.87,168.90,177.40,0,-127.00,"$GNGGA,023636.000,4900.5214,N,00825.4557,E,1,7,5.25,131.4,M,47.9,M,,*4B",,,,
2022-03-12T03:37:01+01:00,287,41.98,9.94,1003.87,171.50,180.10,0,-127.00,"$GNGGA,023656.000,4900.5207,N,00825.4512,E,1,7,3.80,130.3,M,47.9,M,,*41",,,,
2022-03-12T03:37:22+01:00,288,41.95,9.93,1003.87,176.40,185.30,0,-127.00,"$GNGGA,023717.000,4900.5215,N,00825.4494,E,1,7,5.25,128.8,M,47.9,M,,*42",,,,
2022-03-12T03:37:43+01:00,289,41.92,9.96,1003.88,180.40,189.50,0,-127.00,"$GNGGA,023738.000,4900.5174,N,00825.4465,E,1,7,5.24,130.2,M,47.9,M,,*47",,,,
2022-03-12T03:38:03+01:00,290,41.89,9.98,1003.89,181.40,190.50,0,-127.00,"$GNGGA,023758.000,4900.5212,N,00825.4601,E,1,7,5.24,130.3,M,47.9,M,,*43",,,,
2022-03-12T03:38:24+01:00,291,41.86,9.97,1003.90,175.50,184.30,0,-127.00,"$GNGGA,023819.000,4900.5217,N,00825.4683,E,1,7,5.24,130.2,M,47.9,M,,*47",,,,
2022-03-12T03:38:44+01:00,292,41.84,9.99,1003.91,170.90,179.50,0,-127.00,"$GNGGA,023839.000,4900.5192,N,00825.4638,E,1,7,5.24,130.4,M,47.9,M,,*4D",,,,
2022-03-12T03:39:05+01:00,293,41.81,9.99,1003.91,169.60,178.10,0,-127.00,"$GNGGA,023900.000,4900.5208,N,00825.4641,E,1,7,3.77,132.4,M,47.9,M,,*4A",,,,
2022-03-12T03:39:26+01:00,294,41.78,9.99,1003.91,180.10,189.20,0,-127.00,"$GNGGA,023921.000,4900.5257,N,00825.4774,E,1,7,3.76,131.4,M,47.9,M,,*46",,,,
2022-03-12T03:39:46+01:00,295,41.75,10.01,1003.91,183.20,192.40,0,-127.00,"$GNGGA,023941.000,4900.5258,N,00825.4691,E,1,7,3.75,129.7,M,47.9,M,,*4C",,,,
2022-03-12T03:40:07+01:00,296,41.73,10.02,1003.92,180.00,189.10,0,-127.00,"$GNGGA,024002.000,4900.5252,N,00825.4666,E,1,7,3.75,129.2,M,47.9,M,,*42",,,,
2022-03-12T03:40:28+01:00,297,41.70,10.05,1003.93,178.20,187.20,0,-127.00,"$GNGGA,024023.000,4900.5259,N,00825.4686,E,1,7,5.21,130.0,M,47.9,M,,*49",,,,
2022-03-12T03:40:48+01:00,298,41.66,10.04,1003.94,179.70,188.70,0,-127.00,"$GNGGA,024043.000,4900.5247,N,00825.4748,E,1,7,3.74,130.3,M,47.9,M,,*46",,,,
2022-03-12T03:41:08+01:00,299,41.64,10.02,1003.94,177.70,186.60,0,-127.00,"$GNGGA,024103.000,4900.5257,N,00825.4731,E,1,7,3.73,131.2,M,47.9,M,,*4B",,,,
2022-03-12T03:41:29+01:00,300,41.61,10.00,1003.96,177.10,186.00,0,-127.00,"$GNGGA,024124.000,4900.5242,N,00825.4738,E,1,7,3.72,132.1,M,47.9,M,,*42",,,,
2022-03-12T03:41:50+01:00,301,41.57,10.01,1003.96,175.60,184.40,0,-127.00,"$GNGGA,024145.000,4900.5277,N,00825.4817,E,1,7,3.72,127.7,M,47.9,M,,*43",,,,
2022-03-12T03:42:10+01:00,302,41.54,10.02,1003.96,176.50,185.40,0,-127.00,"$GNGGA,024205.000,4900.5256,N,00825.4649,E,1,7,3.71,125.5,M,47.9,M,,*41",,,,
2022-03-12T03:42:31+01:00,303,41.51,10.02,1003.96,173.80,182.50,0,-127.00,"$GNGGA,024226.000,4900.5247,N,00825.4637,E,1,7,3.73,121.2,M,47.9,M,,*48",,,,
2022-03-12T03:42:51+01:00,304,41.47,10.04,1003.97,174.90,183.70,0,-127.00,"$GNGGA,024246.000,4900.5251,N,00825.4523,E,1,7,3.72,117.6,M,47.9,M,,*4F",,,,
2022-03-12T03:43:12+01:00,305,41.44,10.04,1003.97,174.80,183.60,0,-127.00,"$GNGGA,024307.000,4900.5292,N,00825.4459,E,1,7,3.69,112.7,M,47.9,M,,*46",,,,
2022-03-12T03:43:33+01:00,306,41.40,10.07,1003.97,173.50,182.20,0,-127.00,"$GNGGA,024328.000,4900.5306,N,00825.4605,E,1,7,3.68,112.0,M,47.9,M,,*4A",,,,
2022-03-12T03:43:53+01:00,307,41.36,10.09,1003.97,172.10,180.80,0,-127.00,"$GNGGA,024348.000,4900.5330,N,00825.4548,E,1,7,3.67,110.9,M,47.9,M,,*47",,,,
2022-03-12T03:44:14+01:00,308,41.33,10.08,1003.97,173.20,181.90,0,-127.00,"$GNGGA,024409.000,4900.5336,N,00825.4740,E,1,7,3.66,111.9,M,47.9,M,,*49",,,,
2022-03-12T03:44:35+01:00,309,41.29,10.06,1003.97,174.70,183.50,0,-127.00,"$GNGGA,024430.000,4900.5342,N,00825.4823,E,1,7,5.11,115.4,M,47.9,M,,*45",,,,
2022-03-12T03:44:55+01:00,310,41.26,10.07,1003.97,174.00,182.80,0,-127.00,"$GNGGA,024450.000,4900.5317,N,00825.4752,E,1,7,3.65,117.6,M,47.9,M,,*4F",,,,
2022-03-12T03:45:16+01:00,311,41.22,10.07,1003.98,172.50,181.20,0,-127.00,"$GNGGA,024511.000,4900.5315,N,00825.4960,E,1,7,3.64,117.9,M,47.9,M,,*48",,,,
2022-03-12T03:45:37+01:00,312,41.18,10.13,1003.99,172.40,181.10,0,-127.00,"$GNGGA,024532.000,4900.5325,N,00825.4806,E,1,7,3.63,118.7,M,47.9,M,,*4D",,,,
2022-03-12T03:45:58+01:00,313,41.15,10.14,1004.00,173.80,182.50,0,-127.00,"$GNGGA,024553.000,4900.5327,N,00825.4587,E,1,7,3.62,117.7,M,47.9,M,,*42",,,,
2022-03-12T03:46:19+01:00,314,41.11,10.18,1004.01,172.50,181.20,0,-127.00,"$GNGGA,024614.000,4900.5363,N,00825.4700,E,1,6,8.45,116.0,M,47.9,M,,*46",,,,
2022-03-12T03:46:40+01:00,315,41.07,10.18,1004.00,173.40,182.10,0,-127.00,"$GNGGA,024635.000,4900.5421,N,00825.4996,E,1,6,4.60,114.7,M,47.9,M,,*4B",,,,
2022-03-12T03:47:01+01:00,316,41.03,10.19,1004.00,175.70,184.50,0,-127.00,"$GNGGA,024656.000,4900.5495,N,00825.4765,E,1,6,4.60,117.2,M,47.9,M,,*45",,,,
2022-03-12T03:47:22+01:00,317,41.00,10.18,1004.01,176.30,185.20,0,-127.00,"$GNGGA,024717.000,4900.5430,N,00825.4338,E,1,7,3.59,119.0,M,47.9,M,,*42",,,,
2022-03-12T03:47:43+01:00,318,40.96,10.21,1004.01,175.40,184.20,0,-127.00,"$GNGGA,024738.000,4900.5335,N,00825.4763,E,1,7,3.58,119.6,M,47.9,M,,*40",,,,
2022-03-12T03:48:04+01:00,319,40.91,10.18,1004.01,173.10,181.80,0,-127.00,"$GNGGA,024759.000,4900.5281,N,00825.4907,E,1,7,3.57,114.5,M,47.9,M,,*44",,,,
2022-03-12T03:48:25+01:00,320,40.87,10.18,1004.02,174.50,183.30,0,-127.00,"$GNGGA,024820.000,4900.5251,N,00825.4975,E,1,7,3.56,112.3,M,47.9,M,,*4C",,,,
2022-03-12T03:48:46+01:00,321,40.83,10.18,1004.02,177.80,186.70,0,-127.00,"$GNGGA,024841.000,4900.5311,N,00825.4939,E,1,7,3.57,111.5,M,47.9,M,,*42",,,,
2022-03-12T03:49:07+01:00,322,40.79,10.21,1004.02,180.70,189.80,0,-127.00,"$GNGGA,024902.000,4900.5258,N,00825.4774,E,1,7,4.94,106.3,M,47.9,M,,*47",,,,
2022-03-12T03:49:28+01:00,323,40.75,10.24,1004.02,179.90,188.90,0,-127.00,"$GNGGA,024923.000,4900.5265,N,00825.4762,E,1,7,4.92,103.3,M,47.9,M,,*4E",,,,
2022-03-12T03:49:49+01:00,324,40.71,10.25,1004.02,181.20,190.30,0,-127.00,"$GNGGA,024944.000,4900.5255,N,00825.4866,E,1,6,3.55,103.5,M,47.9,M,,*4C",,,,
2022-03-12T03:50:10+01:00,325,40.67,10.24,1004.01,180.80,189.90,0,-127.00,"$GNGGA,025005.000,4900.5241,N,00825.4668,E,1,6,4.89,102.9,M,47.9,M,,*4F",,,,
2022-03-12T03:50:31+01:00,326,40.63,10.26,1004.01,180.70,189.80,0,-127.00,"$GNGGA,025026.000,4900.5271,N,00825.4720,E,1,6,4.87,102.7,M,47.9,M,,*40",,,,
2022-03-12T03:50:52+01:00,327,40.59,10.23,1004.02,179.10,188.10,0,-127.00,"$GNGGA,025047.000,4900.5252,N,00825.4580,E,1,6,4.86,103.7,M,47.9,M,,*4E",,,,
2022-03-12T03:51:13+01:00,328,40.55,10.23,1004.01,179.00,188.00,0,-127.00,"$GNGGA,025108.000,4900.5306,N,00825.4883,E,1,6,4.84,105.3,M,47.9,M,,*4A",,,,
2022-03-12T03:51:34+01:00,329,40.51,10.27,1004.01,180.00,189.10,0,-127.00,"$GNGGA,025129.000,4900.5298,N,00825.4831,E,1,6,5.88,107.8,M,47.9,M,,*42",,,,
2022-03-12T03:51:55+01:00,330,40.47,10.29,1004.01,179.90,188.90,0,-127.00,"$GNGGA,025150.000,4900.5292,N,00825.4916,E,1,6,4.81,109.7,M,47.9,M,,*4B",,,,
2022-03-12T03:52:17+01:00,331,40.43,10.31,1004.01,177.90,186.80,0,-127.00,"$GNGGA,025212.000,4900.5293,N,00825.4952,E,1,6,4.79,113.2,M,47.9,M,,*46",,,,
2022-03-12T03:52:38+01:00,332,40.40,10.31,1004.02,177.10,186.00,0,-127.00,"$GNGGA,025233.000,4900.5295,N,00825.4927,E,1,6,4.77,111.4,M,47.9,M,,*4B",,,,
2022-03-12T03:52:58+01:00,333,40.36,10.32,1004.03,185.20,194.50,0,-127.00,"$GNGGA,025253.000,4900.5260,N,00825.4777,E,1,6,4.75,115.1,M,47.9,M,,*4F",,,,
2022-03-12T03:53:19+01:00,334,40.32,10.33,1004.02,187.30,196.70,0,-127.00,"$GNGGA,025314.000,4900.5217,N,00825.4670,E,1,7,2.60,119.2,M,47.9,M,,*47",,,,
2022-03-12T03:53:40+01:00,335,40.28,10.34,1004.02,185.80,195.10,0,-127.00,"$GNGGA,025335.000,4900.5204,N,00825.4538,E,1,7,2.61,120.0,M,47.9,M,,*40",,,,
2022-03-12T03:54:01+01:00,336,40.23,10.36,1004.02,176.00,184.90,0,-127.00,"$GNGGA,025356.000,4900.5216,N,00825.4583,E,1,7,2.61,120.3,M,47.9,M,,*45",,,,
2022-03-12T03:54:22+01:00,337,40.19,10.37,1004.02,184.30,193.60,0,-127.00,"$GNGGA,025417.000,4900.5164,N,00825.4546,E,1,7,2.62,121.9,M,47.9,M,,*40",,,,
2022-03-12T03:54:43+01:00,338,40.14,10.37,1004.03,186.00,195.40,0,-127.00,"$GNGGA,025438.000,4900.5182,N,00825.4483,E,1,8,2.13,122.3,M,47.9,M,,*4D",,,,
2022-03-12T03:55:04+01:00,339,40.10,10.41,1004.02,184.60,193.90,0,-127.00,"$GNGGA,025459.000,4900.5202,N,00825.4580,E,1,8,2.63,123.1,M,47.9,M,,*47",,,,
2022-03-12T03:55:24+01:00,340,40.05,10.43,1004.03,182.30,191.50,0,-127.00,"$GNGGA,025519.000,4900.5225,N,00825.4610,E,1,8,2.64,125.0,M,47.9,M,,*4D",,,,
2022-03-12T03:55:45+01:00,341,40.01,10.43,1004.04,183.80,193.00,0,-127.00,"$GNGGA,025540.000,4900.5247,N,00825.4563,E,1,8,2.64,125.0,M,47.9,M,,*42",,,,
2022-03-12T03:56:05+01:00,342,39.96,10.42,1004.05,184.50,193.80,0,-127.00,"$GNGGA,025600.000,4900.5206,N,00825.4581,E,1,8,2.65,124.0,M,47.9,M,,*4C",,,,
2022-03-12T03:56:26+01:00,343,39.92,10.44,1004.05,178.20,187.20,0,-127.00,"$GNGGA,025621.000,4900.5207,N,00825.4532,E,1,8,2.14,124.5,M,47.9,M,,*45",,,,
2022-03-12T03:56:47+01:00,344,39.87,10.49,1004.06,179.70,188.70,0,-127.00,"$GNGGA,025642.000,4900.5299,N,00825.4572,E,1,8,2.14,127.0,M,47.9,M,,*45",,,,
2022-03-12T03:57:07+01:00,345,39.82,10.51,1004.06,186.50,195.90,0,-127.00,"$GNGGA,025702.000,4900.5296,N,00825.4539,E,1,8,2.14,127.4,M,47.9,M,,*44",,,,
2022-03-12T03:57:28+01:00,346,39.78,10.52,1004.05,193.70,203.40,0,-127.00,"$GNGGA,025723.000,4900.5210,N,00825.4570,E,1,8,2.15,122.9,M,47.9,M,,*4D",,,,
2022-03-12T03:57:49+01:00,347,39.73,10.52,1004.06,192.20,201.90,0,-127.00,"$GNGGA,025744.000,4900.5219,N,00825.4516,E,1,8,2.15,124.3,M,47.9,M,,*49",,,,
2022-03-12T03:58:10+01:00,348,39.69,10.52,1004.07,184.80,194.10,0,-127.00,"$GNGGA,025805.000,4900.5216,N,00825.4478,E,1,8,2.15,127.7,M,47.9,M,,*42",,,,
2022-03-12T03:58:30+01:00,349,39.64,10.52,1004.07,181.50,190.60,0,-127.00,"$GNGGA,025825.000,4900.5246,N,00825.4533,E,1,8,2.15,128.9,M,47.9,M,,*4A",,,,
2022-03-12T03:58:51+01:00,350,39.59,10.56,1004.07,180.30,189.40,0,-127.00,"$GNGGA,025846.000,4900.5348,N,00825.4645,E,1,8,2.15,131.2,M,47.9,M,,*41",,,,
2022-03-12T03:59:12+01:00,351,39.54,10.61,1004.07,179.20,188.20,0,-127.00,"$GNGGA,025907.000,4900.5279,N,00825.4473,E,1,7,2.60,132.7,M,47.9,M,,*4A",,,,
2022-03-12T03:59:33+01:00,352,39.50,10.63,1004.07,177.20,186.10,0,-127.00,"$GNGGA,025928.000,4900.5263,N,00825.4491,E,1,7,2.61,133.4,M,47.9,M,,*43",,,,
2022-03-12T03:59:54+01:00,353,39.45,10.62,1004.07,177.80,186.70,0,-127.00,"$GNGGA,025949.000,4900.5306,N,00825.4706,E,1,7,2.18,133.7,M,47.9,M,,*46",,,,
2022-03-12T04:00:14+01:00,354,39.41,10.60,1004.07,179.10,188.10,0,-127.00,"$GNGGA,030009.000,4900.5315,N,00825.4819,E,1,8,2.72,129.1,M,47.9,M,,*42",,,,
2022-03-12T04:00:35+01:00,355,39.37,10.62,1004.09,179.90,188.90,0,-127.00,"$GNGGA,030030.000,4900.5245,N,00825.4639,E,1,7,3.20,126.1,M,47.9,M,,*46",,,,
2022-03-12T04:00:55+01:00,356,39.32,10.64,1004.09,180.90,190.00,0,-127.00,"$GNGGA,030050.000,4900.5281,N,00825.4733,E,1,7,2.58,124.3,M,47.9,M,,*4D",,,,
2022-03-12T04:01:16+01:00,357,39.28,10.66,1004.09,178.70,187.70,0,-127.00,"$GNGGA,030111.000,4900.5256,N,00825.4619,E,1,6,3.01,124.7,M,47.9,M,,*42",,,,
2022-03-12T04:01:37+01:00,358,39.23,10.68,1004.09,180.50,189.60,0,-127.00,"$GNGGA,030132.000,4900.5219,N,00825.4344,E,1,6,6.18,124.4,M,47.9,M,,*4B",,,,
2022-03-12T04:01:57+01:00,359,39.19,10.71,1004.09,182.50,191.70,0,-127.00,"$GNGGA,030152.000,4900.5270,N,00825.4724,E,1,6,3.01,124.8,M,47.9,M,,*41",,,,
2022-03-12T04:02:18+01:00,360,39.15,10.72,1004.09,183.60,192.80,0,-127.00,"$GNGGA,030213.000,4900.5267,N,00825.4768,E,0,3,,126.2,M,47.9,M,,*59",,,,
2022-03-12T04:02:39+01:00,361,39.10,10.71,1004.10,184.70,194.00,0,-127.00,"$GNGGA,030234.000,4900.5219,N,00825.4511,E,1,3,6.01,126.3,M,47.9,M,,*40",,,,
2022-03-12T04:02:59+01:00,362,39.06,10.75,1004.09,183.50,192.70,0,-127.00,"$GNGGA,030254.000,4900.5207,N,00825.4384,E,1,6,3.03,126.1,M,47.9,M,,*43",,,,
2022-03-12T04:03:20+01:00,363,39.02,10.75,1004.09,188.60,198.10,0,-127.00,"$GNGGA,030315.000,4900.5250,N,00825.4493,E,1,6,3.03,127.1,M,47.9,M,,*45",,,,
2022-03-12T04:03:41+01:00,364,38.97,10.78,1004.09,187.40,196.80,0,-127.00,"$GNGGA,030336.000,4900.5270,N,00825.4523,E,1,6,3.03,127.9,M,47.9,M,,*44",,,,
2022-03-12T04:04:02+01:00,365,38.93,10.78,1004.09,185.70,195.00,0,-127.00,"$GNGGA,030357.000,4900.5270,N,00825.4578,E,1,6,3.04,127.9,M,47.9,M,,*4A",,,,
2022-03-12T04:04:23+01:00,366,38.88,10.81,1004.09,182.60,191.80,0,-127.00,"$GNGGA,030418.000,4900.5313,N,00825.4608,E,1,6,3.05,128.8,M,47.9,M,,*49",,,,
2022-03-12T04:04:44+01:00,367,38.84,10.88,1004.08,183.50,192.70,0,-127.00,"$GNGGA,030439.000,4900.5326,N,00825.4582,E,1,6,5.70,130.7,M,47.9,M,,*4F",,,,
2022-03-12T04:05:04+01:00,368,38.79,10.89,1004.08,186.30,195.70,0,-127.00,"$GNGGA,030459.000,4900.5346,N,00825.4596,E,1,6,3.05,132.3,M,47.9,M,,*48",,,,
2022-03-12T04:05:25+01:00,369,38.75,10.88,1004.08,189.10,198.60,0,-127.00,"$GNGGA,030520.000,4900.5339,N,00825.4548,E,1,6,8.82,131.6,M,47.9,M,,*4E",,,,
2022-03-12T04:05:46+01:00,370,38.70,10.87,1004.08,187.90,197.30,0,-127.00,"$GNGGA,030541.000,4900.5331,N,00825.4563,E,1,6,3.07,131.4,M,47.9,M,,*4C",,,,
2022-03-12T04:06:06+01:00,371,38.66,10.87,1004.08,185.80,195.10,0,-127.00,"$GNGGA,030601.000,4900.5303,N,00825.4527,E,1,6,3.07,131.0,M,47.9,M,,*4E",,,,
2022-03-12T04:06:26+01:00,372,38.62,10.88,1004.08,181.80,190.90,0,-127.00,"$GNGGA,030621.000,4900.5308,N,00825.4571,E,1,6,3.08,131.4,M,47.9,M,,*4F",,,,
2022-03-12T04:06:47+01:00,373,38.58,10.90,1004.08,183.10,192.30,0,-127.00,"$GNGGA,030642.000,4900.5320,N,00825.4567,E,1,6,3.08,131.6,M,47.9,M,,*45",,,,
2022-03-12T04:07:07+01:00,374,38.54,10.91,1004.08,183.90,193.10,0,-127.00,"$GNGGA,030702.000,4900.5345,N,00825.4632,E,1,6,3.09,132.3,M,47.9,M,,*47",,,,
2022-03-12T04:07:28+01:00,375,38.50,10.96,1004.08,185.90,195.20,0,-127.00,"$GNGGA,030723.000,4900.5317,N,00825.4616,E,1,6,3.09,134.9,M,47.9,M,,*49",,,,
2022-03-12T04:07:49+01:00,376,38.46,10.96,1004.08,186.40,195.80,0,-127.00,"$GNGGA,030744.000,4900.5322,N,00825.4563,E,1,6,3.10,136.0,M,47.9,M,,*4C",,,,
2022-03-12T04:08:09+01:00,377,38.42,10.99,1004.08,185.70,195.00,0,-127.00,"$GNGGA,030804.000,4900.5301,N,00825.4528,E,1,6,3.10,135.7,M,47.9,M,,*4D",,,,
2022-03-12T04:08:30+01:00,378,38.38,11.00,1004.08,183.70,192.90,0,-127.00,"$GNGGA,030825.000,4900.5330,N,00825.4587,E,1,6,3.11,137.5,M,47.9,M,,*48",,,,
2022-03-12T04:08:51+01:00,379,38.34,11.04,1004.08,181.10,190.20,0,-127.00,"$GNGGA,030846.000,4900.5329,N,00825.4559,E,1,6,3.12,137.5,M,47.9,M,,*45",,,,
2022-03-12T04:09:12+01:00,380,38.29,11.02,1004.08,178.40,187.40,0,-127.00,"$GNGGA,030907.000,4900.5326,N,00825.4591,E,1,6,5.22,137.1,M,47.9,M,,*4B",,,,
2022-03-12T04:09:33+01:00,381,38.25,11.06,1004.07,177.90,186.80,0,-127.00,"$GNGGA,030928.000,4900.5323,N,00825.4638,E,1,6,3.13,137.8,M,47.9,M,,*4E",,,,
2022-03-12T04:09:54+01:00,382,38.21,11.10,1004.06,179.60,188.60,0,-127.00,"$GNGGA,030949.000,4900.5305,N,00825.4593,E,1,6,3.14,140.2,M,47.9,M,,*42",,,,
2022-03-12T04:10:15+01:00,383,38.17,11.10,1004.08,180.30,189.40,0,-127.00,"$GNGGA,031010.000,4900.5325,N,00825.4593,E,1,6,3.14,144.0,M,47.9,M,,*42",,,,
2022-03-12T04:10:36+01:00,384,38.13,11.12,1004.08,179.80,188.80,0,-127.00,"$GNGGA,031031.000,4900.5372,N,00825.4727,E,1,6,3.15,149.8,M,47.9,M,,*4A",,,,
2022-03-12T04:10:57+01:00,385,38.09,11.12,1004.08,180.90,190.00,0,-127.00,"$GNGGA,031052.000,4900.5423,N,00825.4834,E,1,6,3.16,154.0,M,47.9,M,,*46",,,,
2022-03-12T04:11:17+01:00,386,38.05,11.11,1004.08,184.70,194.00,0,-127.00,"$GNGGA,031112.000,4900.5424,N,00825.4707,E,1,6,3.16,176.5,M,47.9,M,,*4E",,,,
2022-03-12T04:11:38+01:00,387,38.01,11.12,1004.09,189.20,198.70,0,-127.00,"$GNGGA,031133.000,4900.5488,N,00825.4883,E,1,6,3.17,182.8,M,47.9,M,,*4F",,,,
2022-03-12T04:11:59+01:00,388,37.97,11.15,1004.09,187.00,196.40,0,-127.00,"$GNGGA,031154.000,4900.5500,N,00825.4948,E,1,6,3.18,181.6,M,47.9,M,,*4B",,,,
2022-03-12T04:12:19+01:00,389,37.94,11.19,1004.10,184.40,193.70,0,-127.00,"$GNGGA,031214.000,4900.5488,N,00825.4869,E,1,6,8.82,180.9,M,47.9,M,,*49",,,,
2022-03-12T04:12:40+01:00,390,37.90,11.20,1004.11,185.80,195.10,0,-127.00,"$GNGGA,031235.000,4900.5433,N,00825.4908,E,1,6,3.19,178.1,M,47.9,M,,*4A",,,,
2022-03-12T04:13:00+01:00,391,37.86,11.21,1004.11,195.30,205.10,0,-127.00,"$GNGGA,031255.000,4900.5439,N,00825.4893,E,1,6,3.20,173.3,M,47.9,M,,*46",,,,
2022-03-12T04:13:20+01:00,392,37.83,11.20,1004.10,201.30,211.40,0,-127.00,"$GNGGA,031315.000,4900.5446,N,00825.4887,E,1,6,3.21,175.2,M,47.9,M,,*48",,,,
2022-03-12T04:13:41+01:00,393,37.79,11.22,1004.10,201.40,211.50,0,-127.00,"$GNGGA,031336.000,4900.5494,N,00825.5154,E,1,5,9.18,175.8,M,47.9,M,,*49",,,,
2022-03-12T04:14:01+01:00,394,37.75,11.24,1004.10,198.50,208.50,0,-127.00,"$GNGGA,031356.000,4900.5470,N,00825.5037,E,1,6,3.22,196.0,M,47.9,M,,*44",,,,
2022-03-12T04:14:22+01:00,395,37.72,11.25,1004.10,198.30,208.30,0,-127.00,"$GNGGA,031417.000,4900.5482,N,00825.4961,E,1,6,3.23,215.4,M,47.9,M,,*4D",,,,
2022-03-12T04:14:43+01:00,396,37.68,11.28,1004.10,198.70,208.70,0,-127.00,"$GNGGA,031438.000,4900.5500,N,00825.4981,E,1,6,3.24,219.7,M,47.9,M,,*4D",,,,
