created_at,entry_id,field1,field2,field3,field4,field5,field6,field7,field8,latitude,longitude,elevation,status
2022-01-15T16:32:54+01:00,1,23.27,40.69,1012.58,105.70,111.00,0,0,"$GNGGA,153249.309,4900.3864,N,00824.6149,E,0,0,,144.7,M,47.9,M,,*53",,,,
2022-01-15T16:33:14+01:00,2,23.39,39.23,1012.60,88.80,93.30,0,0,"$GNGGA,153309.094,4900.7669,N,00824.8794,E,0,2,,144.4,M,47.9,M,,*5F",,,,
2022-01-15T16:33:34+01:00,3,23.65,37.73,1012.61,71.30,74.90,0,0,"$GNGGA,153329.094,4900.7320,N,00824.9348,E,0,2,,144.4,M,47.9,M,,*51",,,,
2022-01-15T16:33:55+01:00,4,24.00,36.20,1012.63,66.90,70.30,0,0,"$GNGGA,153350.000,4900.5265,N,00825.4532,E,1,5,2.66,160.9,M,47.9,M,,*46",,,,
2022-01-15T16:34:15+01:00,5,24.40,35.06,1012.65,69.80,73.30,0,0,"$GNGGA,153410.000,4900.5230,N,00825.4386,E,1,6,2.33,141.9,M,47.9,M,,*4C",,,,
2022-01-15T16:34:35+01:00,6,24.82,34.44,1012.66,71.50,75.10,0,0,"$GNGGA,153430.000,4900.5213,N,00825.4518,E,1,6,2.34,138.2,M,47.9,M,,*4C",,,,
2022-01-15T16:34:56+01:00,7,25.24,33.64,1012.68,72.00,75.70,0,0,"$GNGGA,153451.000,4900.5222,N,00825.4660,E,1,6,2.34,138.6,M,47.9,M,,*41",,,,
2022-01-15T16:35:16+01:00,8,25.65,33.03,1012.69,71.10,74.70,0,0,"$GNGGA,153511.000,4900.5214,N,00825.4690,E,1,6,2.35,138.9,M,47.9,M,,*40",,,,
2022-01-15T16:35:36+01:00,9,26.04,32.64,1012.69,70.90,74.50,0,0,"$GNGGA,153531.000,4900.5217,N,00825.4625,E,1,6,2.36,136.5,M,47.9,M,,*4E",,,,
2022-01-15T16:35:57+01:00,10,26.42,32.15,1012.69,70.10,73.70,0,0,"$GNGGA,153552.000,4900.5217,N,00825.4523,E,1,6,2.37,135.5,M,47.9,M,,*4C",,,,
2022-01-15T16:36:17+01:00,11,26.77,31.71,1012.70,70.30,73.90,0,0,"$GNGGA,153612.000,4900.5230,N,00825.4484,E,1,6,2.38,139.9,M,47.9,M,,*4D",,,,
2022-01-15T16:36:37+01:00,12,27.11,31.31,1012.70,69.70,73.20,0,0,"$GNGGA,153632.000,4900.5236,N,00825.4565,E,1,6,2.39,142.3,M,47.9,M,,*40",,,,
2022-01-15T16:36:58+01:00,13,27.43,30.84,1012.70,69.10,72.60,0,0,"$GNGGA,153653.000,4900.5232,N,00825.4621,E,1,6,2.40,141.0,M,47.9,M,,*4E",,,,
2022-01-15T16:37:18+01:00,14,27.73,30.52,1012.70,68.20,71.70,0,0,"$GNGGA,153713.000,4900.5215,N,00825.4661,E,1,6,2.34,139.6,M,47.9,M,,*40",,,,
2022-01-15T16:37:38+01:00,15,28.01,30.21,1012.71,69.30,72.80,0,0,"$GNGGA,153733.000,4900.5207,N,00825.4649,E,1,6,2.35,140.5,M,47.9,M,,*47",,,,
2022-01-15T16:37:59+01:00,16,28.28,29.76,1012.70,70.20,73.80,0,0,"$GNGGA,153754.000,4900.5215,N,00825.4690,E,1,6,2.35,143.8,M,47.9,M,,*4F",,,,
2022-01-15T16:38:19+01:00,17,28.54,29.61,1012.69,69.40,72.90,0,0,"$GNGGA,153814.000,4900.5214,N,00825.4547,E,1,6,2.36,148.8,M,47.9,M,,*44",,,,
2022-01-15T16:38:39+01:00,18,28.78,29.34,1012.69,69.70,73.20,0,0,"$GNGGA,153834.000,4900.5222,N,00825.4565,E,1,6,2.37,153.3,M,47.9,M,,*43",,,,
2022-01-15T16:39:00+01:00,19,29.01,29.05,1012.69,70.50,74.10,0,0,"$GNGGA,153855.000,4900.5232,N,00825.4634,E,1,7,1.79,155.3,M,47.9,M,,*4C",,,,
2022-01-15T16:39:20+01:00,20,29.23,28.81,1012.69,70.80,74.40,0,0,"$GNGGA,153915.000,4900.5216,N,00825.4601,E,1,6,2.38,153.0,M,47.9,M,,*4B",,,,
2022-01-15T16:39:40+01:00,21,29.44,28.56,1012.69,71.00,74.60,0,0,"$GNGGA,153935.000,4900.5219,N,00825.4614,E,1,6,2.39,152.1,M,47.9,M,,*43",,,,
2022-01-15T16:40:01+01:00,22,29.64,28.32,1012.68,69.80,73.30,0,0,"$GNGGA,153956.000,4900.5188,N,00825.4519,E,1,7,1.65,152.9,M,47.9,M,,*40",,,,
2022-01-15T16:40:21+01:00,23,29.83,28.05,1012.69,72.00,75.70,0,0,"$GNGGA,154016.000,4900.5189,N,00825.4462,E,1,6,2.40,156.4,M,47.9,M,,*4A",,,,
2022-01-15T16:40:41+01:00,24,30.01,27.84,1012.69,70.60,74.20,0,0,"$GNGGA,154036.000,4900.5194,N,00825.4669,E,1,6,2.41,150.7,M,47.9,M,,*49",,,,
2022-01-15T16:41:02+01:00,25,30.19,27.69,1012.68,70.70,74.30,0,0,"$GNGGA,154057.000,4900.5155,N,00825.4878,E,1,6,2.42,149.6,M,47.9,M,,*47",,,,
2022-01-15T16:41:22+01:00,26,30.35,27.47,1012.68,69.80,73.30,0,0,"$GNGGA,154117.000,4900.5190,N,00825.4881,E,1,6,2.42,147.3,M,47.9,M,,*46",,,,
2022-01-15T16:41:42+01:00,27,30.52,27.23,1012.69,70.30,73.90,0,0,"$GNGGA,154137.000,4900.5216,N,00825.4668,E,1,7,1.65,142.9,M,47.9,M,,*48",,,,
2022-01-15T16:42:03+01:00,28,30.67,26.99,1012.68,71.30,74.90,0,0,"$GNGGA,154158.000,4900.5227,N,00825.4917,E,1,7,1.65,136.1,M,47.9,M,,*4F",,,,
2022-01-15T16:42:24+01:00,29,30.82,26.80,1012.67,70.70,74.30,0,0,"$GNGGA,154219.000,4900.5258,N,00825.4857,E,1,7,1.65,153.5,M,47.9,M,,*43",,,,
2022-01-15T16:42:45+01:00,30,30.96,26.51,1012.65,71.90,75.50,0,0,"$GNGGA,154240.000,4900.5244,N,00825.4827,E,1,7,3.13,147.5,M,47.9,M,,*43",,,,
2022-01-15T16:43:06+01:00,31,30.97,24.43,1012.62,42.50,44.70,0,0,"$GNGGA,154301.000,4900.5300,N,00825.4563,E,1,6,3.61,146.7,M,47.9,M,,*4C",,,,
2022-01-15T16:43:27+01:00,32,30.73,21.28,1012.69,41.40,43.50,0,0,"$GNGGA,154322.000,4900.5266,N,00825.4790,E,1,6,2.47,146.0,M,47.9,M,,*40",,,,
2022-01-15T16:43:47+01:00,33,30.38,18.62,1012.74,37.90,39.80,0,0,"$GNGGA,154342.000,4900.5250,N,00825.4636,E,1,5,3.16,146.0,M,47.9,M,,*48",,,,
2022-01-15T16:44:08+01:00,34,30.02,19.41,1012.77,36.80,38.70,0,0,"$GNGGA,154403.000,4900.5284,N,00825.4748,E,1,3,9.34,147.9,M,47.9,M,,*4F",,,,
2022-01-15T16:44:28+01:00,35,29.68,19.35,1012.96,37.60,39.50,0,0,"$GNGGA,154423.000,4900.5278,N,00825.4777,E,0,0,,148.2,M,47.9,M,,*54",,,,
2022-01-15T16:44:48+01:00,36,29.36,20.11,1013.32,37.50,39.40,0,0,"$GNGGA,154443.000,4900.5278,N,00825.4777,E,0,0,,148.2,M,47.9,M,,*52",,,,
2022-01-15T16:45:09+01:00,37,29.04,19.74,1013.58,37.40,39.30,0,0,"$GNGGA,154504.000,4900.5278,N,00825.4777,E,0,0,,148.2,M,47.9,M,,*50",,,,
2022-01-15T16:45:29+01:00,38,28.72,20.03,1013.78,36.70,38.60,0,0,"$GNGGA,154524.000,4900.5347,N,00825.4097,E,1,5,1.84,109.3,M,47.9,M,,*45",,,,
2022-01-15T16:45:50+01:00,39,28.37,19.25,1013.94,37.90,39.80,0,0,"$GNGGA,154545.000,4900.5257,N,00825.4080,E,1,6,1.67,117.7,M,47.9,M,,*41",,,,
2022-01-15T16:46:11+01:00,40,28.02,20.30,1014.04,38.80,40.80,0,0,"$GNGGA,154606.000,4900.5153,N,00825.4204,E,1,7,1.65,112.4,M,47.9,M,,*49",,,,
2022-01-15T16:46:31+01:00,41,27.65,19.75,1014.12,37.80,39.70,0,0,"$GNGGA,154626.000,4900.5207,N,00825.4159,E,1,8,1.78,113.1,M,47.9,M,,*45",,,,
2022-01-15T16:46:51+01:00,42,27.30,19.48,1014.18,39.70,41.70,0,0,"$GNGGA,154646.000,4900.5314,N,00825.3971,E,1,8,1.65,119.4,M,47.9,M,,*46",,,,
2022-01-15T16:47:12+01:00,43,26.97,20.20,1014.22,39.70,41.70,0,0,"$GNGGA,154707.000,4900.5227,N,00825.4161,E,1,9,1.27,107.3,M,47.9,M,,*42",,,,
2022-01-15T16:47:32+01:00,44,26.59,20.13,1014.27,40.50,42.60,0,0,"$GNGGA,154727.000,4900.5231,N,00825.4149,E,1,9,1.27,115.2,M,47.9,M,,*4F",,,,
2022-01-15T16:47:52+01:00,45,26.04,20.07,1014.32,41.40,43.50,0,0,"$GNGGA,154747.000,4900.5204,N,00825.4196,E,1,9,1.27,116.7,M,47.9,M,,*4B",,,,
2022-01-15T16:48:13+01:00,46,25.24,20.80,1014.36,44.80,47.10,0,0,"$GNGGA,154808.000,4900.5120,N,00825.4219,E,1,9,1.27,121.9,M,47.9,M,,*44",,,,
2022-01-15T16:48:33+01:00,47,24.22,22.00,1014.38,46.90,49.30,0,0,"$GNGGA,154828.000,4900.5035,N,00825.4003,E,1,9,1.27,125.7,M,47.9,M,,*40",,,,
2022-01-15T16:48:54+01:00,48,23.11,23.50,1014.40,47.40,49.80,0,0,"$GNGGA,154849.000,4900.4989,N,00825.3904,E,1,9,1.28,116.8,M,47.9,M,,*41",,,,
2022-01-15T16:49:15+01:00,49,21.87,25.26,1014.41,47.90,50.30,0,0,"$GNGGA,154910.000,4900.4847,N,00825.3788,E,1,8,1.60,112.4,M,47.9,M,,*40",,,,
2022-01-15T16:49:35+01:00,50,20.76,26.76,1014.41,48.10,50.60,0,0,"$GNGGA,154930.000,4900.4903,N,00825.3515,E,1,8,1.60,105.7,M,47.9,M,,*40",,,,
2022-01-15T16:49:55+01:00,51,19.77,27.94,1014.41,50.40,53.00,0,0,"$GNGGA,154950.000,4900.4937,N,00825.3292,E,1,10,1.15,113.5,M,47.9,M,,*77",,,,
2022-01-15T16:50:16+01:00,52,18.80,29.26,1014.41,47.60,50.00,0,0,"$GNGGA,155011.000,4900.4979,N,00825.3070,E,2,10,1.16,110.5,M,47.9,M,,*7D",,,,
2022-01-15T16:50:36+01:00,53,17.89,30.47,1014.41,44.80,47.10,0,0,"$GNGGA,155031.000,4900.5027,N,00825.2856,E,2,9,1.19,109.5,M,47.9,M,,*4E",,,,
2022-01-15T16:50:56+01:00,54,17.02,31.72,1014.41,41.50,43.60,0,0,"$GNGGA,155051.000,4900.5077,N,00825.2633,E,2,10,1.16,108.3,M,47.9,M,,*70",,,,
2022-01-15T16:51:17+01:00,55,16.26,32.70,1014.40,41.50,43.60,0,0,"$GNGGA,155112.000,4900.5072,N,00825.2582,E,2,11,1.03,109.0,M,47.9,M,,*7D",,,,
2022-01-15T16:51:37+01:00,56,15.69,33.49,1014.41,43.10,45.30,0,0,"$GNGGA,155132.000,4900.5053,N,00825.2582,E,2,11,1.11,109.5,M,47.9,M,,*7A",,,,
2022-01-15T16:51:58+01:00,57,15.24,33.75,1014.42,42.60,44.80,0,0,"$GNGGA,155152.000,4900.5052,N,00825.2584,E,2,12,0.90,107.9,M,47.9,M,,*72",,,,
2022-01-15T16:52:19+01:00,58,14.89,34.09,1014.42,43.20,45.40,0,0,"$GNGGA,155214.000,4900.5043,N,00825.2569,E,0,0,,107.1,M,47.9,M,,*5E",,,,
2022-01-15T16:52:39+01:00,59,14.57,34.38,1014.43,42.60,44.80,0,0,"$GNGGA,155234.000,4900.5043,N,00825.2569,E,0,0,,107.3,M,47.9,M,,*5E",,,,
2022-01-15T16:52:59+01:00,60,14.12,34.99,1014.43,43.70,45.90,0,0,"$GNGGA,155254.000,4900.5082,N,00825.2468,E,2,12,0.91,114.7,M,47.9,M,,*74",,,,
2022-01-15T16:53:20+01:00,61,13.22,36.99,1014.42,42.00,44.20,0,0,"$GNGGA,155315.000,4900.5212,N,00825.1840,E,2,13,0.88,110.6,M,47.9,M,,*72",,,,
2022-01-15T16:53:41+01:00,62,12.22,39.84,1014.42,40.80,42.90,0,0,"$GNGGA,155336.000,4900.5245,N,00825.1313,E,2,13,0.88,108.2,M,47.9,M,,*71",,,,
2022-01-15T16:54:02+01:00,63,11.30,42.59,1014.42,38.80,40.80,0,0,"$GNGGA,155357.000,4900.5225,N,00825.0929,E,2,13,0.88,105.9,M,47.9,M,,*74",,,,
2022-01-15T16:54:23+01:00,64,10.60,44.47,1014.41,39.70,41.70,0,0,"$GNGGA,155418.000,4900.5286,N,00825.0400,E,2,13,0.87,104.1,M,47.9,M,,*71",,,,
2022-01-15T16:54:44+01:00,65,10.06,45.41,1014.40,39.30,41.30,0,0,"$GNGGA,155439.000,4900.5301,N,00825.0326,E,2,13,0.87,105.3,M,47.9,M,,*7C",,,,
2022-01-15T16:55:05+01:00,66,9.53,46.05,1014.39,40.30,42.40,0,0,"$GNGGA,155500.000,4900.5325,N,00825.0131,E,2,13,0.88,106.4,M,47.9,M,,*7E",,,,
2022-01-15T16:55:25+01:00,67,8.94,47.51,1014.40,38.60,40.60,0,0,"$GNGGA,155520.000,4900.5367,N,00824.9667,E,2,13,0.88,106.6,M,47.9,M,,*74",,,,
2022-01-15T16:55:46+01:00,68,8.42,48.99,1014.38,38.50,40.50,0,0,"$GNGGA,155540.000,4900.5199,N,00824.9251,E,2,13,0.88,110.8,M,47.9,M,,*79",,,,
2022-01-15T16:56:07+01:00,69,8.00,50.27,1014.37,40.80,42.90,0,0,"$GNGGA,155602.000,4900.5176,N,00824.8648,E,2,13,0.88,98.2,M,47.9,M,,*4B",,,,
2022-01-15T16:56:27+01:00,70,7.61,51.00,1014.37,44.30,46.60,0,0,"$GNGGA,155622.000,4900.5200,N,00824.7998,E,2,13,0.88,97.1,M,47.9,M,,*4A",,,,
2022-01-15T16:56:48+01:00,71,7.19,52.18,1014.38,46.40,48.80,0,0,"$GNGGA,155643.000,4900.5187,N,00824.7351,E,2,13,0.88,102.1,M,47.9,M,,*73",,,,
2022-01-15T16:57:09+01:00,72,6.84,53.32,1014.33,47.50,49.90,0,0,"$GNGGA,155704.000,4900.5218,N,00824.6822,E,2,13,0.88,110.4,M,47.9,M,,*7C",,,,
2022-01-15T16:57:29+01:00,73,6.62,53.91,1014.19,46.00,48.40,0,0,"$GNGGA,155724.000,4900.5211,N,00824.6498,E,2,13,0.87,127.9,M,47.9,M,,*7C",,,,
2022-01-15T16:57:49+01:00,74,6.48,54.02,1014.05,44.70,47.00,0,0,"$GNGGA,155744.000,4900.5220,N,00824.6149,E,2,13,0.87,123.0,M,47.9,M,,*7C",,,,
2022-01-15T16:58:10+01:00,75,6.33,54.16,1014.06,43.00,45.20,0,0,"$GNGGA,155805.000,4900.5253,N,00824.5657,E,2,13,0.88,111.8,M,47.9,M,,*7F",,,,
2022-01-15T16:58:30+01:00,76,5.94,55.13,1014.13,47.40,49.80,0,0,"$GNGGA,155825.000,4900.5268,N,00824.5053,E,2,13,0.88,110.5,M,47.9,M,,*7B",,,,
2022-01-15T16:58:50+01:00,77,5.44,57.13,1014.20,55.70,58.50,0,0,"$GNGGA,155845.000,4900.5298,N,00824.4344,E,2,12,0.89,107.9,M,47.9,M,,*7C",,,,
2022-01-15T16:59:11+01:00,78,4.99,59.45,1014.22,62.30,65.50,0,0,"$GNGGA,155906.000,4900.5387,N,00824.3665,E,2,13,0.88,98.7,M,47.9,M,,*4D",,,,
2022-01-15T16:59:32+01:00,79,4.58,61.14,1014.24,68.20,71.70,0,0,"$GNGGA,155927.000,4900.5424,N,00824.3019,E,2,13,0.88,97.7,M,47.9,M,,*42",,,,
2022-01-15T16:59:52+01:00,80,4.34,62.30,1014.26,63.80,67.00,0,0,"$GNGGA,155947.000,4900.5401,N,00824.2644,E,2,13,0.87,103.4,M,47.9,M,,*7C",,,,
2022-01-15T17:00:13+01:00,81,4.27,62.48,1014.28,57.90,60.80,0,0,"$GNGGA,160008.000,4900.5383,N,00824.2584,E,2,12,0.88,105.5,M,47.9,M,,*73",,,,
2022-01-15T17:00:33+01:00,82,4.32,61.82,1014.30,47.30,49.70,0,0,"$GNGGA,160028.000,4900.5331,N,00824.2550,E,2,12,0.88,111.2,M,47.9,M,,*73",,,,
2022-01-15T17:00:53+01:00,83,4.45,60.59,1014.32,45.50,47.80,0,0,"$GNGGA,160048.000,4900.5320,N,00824.2551,E,2,13,0.87,120.4,M,47.9,M,,*7E",,,,
2022-01-15T17:01:13+01:00,84,4.64,59.29,1014.33,45.00,47.30,0,0,"$GNGGA,160108.000,4900.5397,N,00824.2567,E,2,14,0.80,115.8,M,47.9,M,,*78",,,,
2022-01-15T17:01:33+01:00,85,4.87,57.93,1014.34,46.70,49.10,0,0,"$GNGGA,160128.000,4900.5376,N,00824.2554,E,2,14,0.80,114.7,M,47.9,M,,*7B",,,,
2022-01-15T17:01:53+01:00,86,5.12,56.76,1014.35,46.50,48.90,0,0,"$GNGGA,160148.000,4900.5396,N,00824.2578,E,2,14,0.80,113.1,M,47.9,M,,*7C",,,,
2022-01-15T17:02:14+01:00,87,5.37,55.89,1014.36,46.50,48.90,0,0,"$GNGGA,160209.000,4900.5407,N,00824.2562,E,2,14,0.80,110.1,M,47.9,M,,*7D",,,,
2022-01-15T17:02:34+01:00,88,5.62,54.89,1014.36,46.70,49.10,0,0,"$GNGGA,160229.000,4900.5382,N,00824.2549,E,2,14,0.80,106.8,M,47.9,M,,*72",,,,
2022-01-15T17:02:54+01:00,89,5.85,54.23,1014.36,46.50,48.90,0,0,"$GNGGA,160249.000,4900.5364,N,00824.2515,E,2,13,0.83,106.6,M,47.9,M,,*7F",,,,
2022-01-15T17:03:15+01:00,90,6.06,53.90,1014.36,47.20,49.60,0,0,"$GNGGA,160310.000,4900.5353,N,00824.2511,E,2,13,0.82,105.9,M,47.9,M,,*7F",,,,
2022-01-15T17:03:36+01:00,91,6.25,53.47,1014.38,45.80,48.10,0,0,"$GNGGA,160331.000,4900.5375,N,00824.2553,E,2,13,0.82,106.7,M,47.9,M,,*73",,,,
2022-01-15T17:03:56+01:00,92,6.42,52.97,1014.38,46.90,49.30,0,0,"$GNGGA,160351.000,4900.5393,N,00824.2556,E,2,14,0.80,109.3,M,47.9,M,,*76",,,,
2022-01-15T17:04:17+01:00,93,6.58,52.62,1014.39,44.90,47.20,0,0,"$GNGGA,160412.000,4900.5394,N,00824.2556,E,2,13,0.82,109.5,M,47.9,M,,*72",,,,
2022-01-15T17:04:37+01:00,94,6.73,51.87,1014.39,44.30,46.60,0,0,"$GNGGA,160432.000,4900.5403,N,00824.2573,E,2,13,0.81,110.1,M,47.9,M,,*71",,,,
2022-01-15T17:04:57+01:00,95,6.87,51.36,1014.39,43.50,45.70,0,0,"$GNGGA,160452.000,4900.5396,N,00824.2566,E,2,14,0.80,110.7,M,47.9,M,,*78",,,,
2022-01-15T17:05:19+01:00,96,6.99,51.20,1014.38,43.10,45.30,0,0,"$GNGGA,160514.000,4900.5391,N,00824.2569,E,0,0,,111.3,M,47.9,M,,*57",,,,
2022-01-15T17:05:39+01:00,97,7.06,51.43,1014.37,42.10,44.30,0,0,"$GNGGA,160534.000,4900.5388,N,00824.2655,E,2,12,0.95,104.6,M,47.9,M,,*73",,,,
2022-01-15T17:05:59+01:00,98,6.84,52.17,1014.36,41.50,43.60,0,0,"$GNGGA,160554.000,4900.5360,N,00824.3102,E,2,13,0.96,104.6,M,47.9,M,,*75",,,,
2022-01-15T17:06:20+01:00,99,6.43,54.08,1014.37,41.60,43.70,0,0,"$GNGGA,160615.000,4900.5349,N,00824.3695,E,2,13,0.96,106.9,M,47.9,M,,*7C",,,,
2022-01-15T17:06:40+01:00,100,6.01,56.29,1014.35,42.50,44.70,0,0,"$GNGGA,160635.000,4900.5340,N,00824.4273,E,2,14,0.80,110.3,M,47.9,M,,*71",,,,
2022-01-15T17:07:00+01:00,101,5.58,58.09,1014.34,42.40,44.60,0,0,"$GNGGA,160655.000,4900.5299,N,00824.4844,E,2,14,0.80,118.4,M,47.9,M,,*73",,,,
2022-01-15T17:07:21+01:00,102,5.23,59.65,1014.32,42.10,44.30,0,0,"$GNGGA,160716.000,4900.5290,N,00824.5372,E,2,14,0.80,119.2,M,47.9,M,,*74",,,,
2022-01-15T17:07:41+01:00,103,4.92,60.63,1014.33,38.90,40.90,0,0,"$GNGGA,160736.000,4900.5529,N,00824.5719,E,2,14,0.80,117.9,M,47.9,M,,*7F",,,,
2022-01-15T17:08:01+01:00,104,4.70,61.39,1014.34,39.80,41.80,0,0,"$GNGGA,160756.000,4900.5670,N,00824.6135,E,2,14,0.88,117.9,M,47.9,M,,*75",,,,
2022-01-15T17:08:22+01:00,105,4.52,61.84,1014.34,38.70,40.70,0,0,"$GNGGA,160817.000,4900.5761,N,00824.6672,E,1,10,0.98,119.2,M,47.9,M,,*79",,,,
