created_at,entry_id,field1,field2,field3,field4,field5,field6,field7,field8,latitude,longitude,elevation,status
2022-02-10T20:25:32+01:00,1,29.72,19.52,1008.36,47.40,49.80,0,23.50,"$GNGGA,192527.000,4900.5220,N,00825.4753,E,0,4,,144.3,M,47.9,M,,*59",,,,
2022-02-10T20:25:52+01:00,2,29.43,19.64,1008.36,41.70,43.80,0,23.50,"$GNGGA,192547.000,4900.5233,N,00825.4760,E,1,4,6.22,143.5,M,47.9,M,,*45",,,,
2022-02-10T20:26:13+01:00,3,29.17,19.63,1008.37,34.70,36.50,0,23.00,"$GNGGA,192608.000,4900.5240,N,00825.4764,E,1,4,7.54,143.5,M,47.9,M,,*4D",,,,
2022-02-10T20:26:33+01:00,4,28.94,19.81,1008.38,32.10,33.80,0,23.50,"$GNGGA,192628.000,4900.5232,N,00825.4851,E,1,5,4.85,145.2,M,47.9,M,,*4C",,,,
2022-02-10T20:26:54+01:00,5,28.74,20.19,1008.38,31.40,33.00,0,23.50,"$GNGGA,192649.000,4900.5228,N,00825.4897,E,1,5,4.89,147.0,M,47.9,M,,*46",,,,
2022-02-10T20:27:15+01:00,6,28.56,20.41,1008.39,31.40,33.00,0,23.50,"$GNGGA,192710.000,4900.5208,N,00825.4884,E,1,5,4.94,145.7,M,47.9,M,,*42",,,,
2022-02-10T20:27:35+01:00,7,28.35,20.87,1008.39,29.50,31.00,0,23.50,"$GNGGA,192730.000,4900.5152,N,00825.4838,E,6,2,99.99,145.3,M,47.9,M,,*76",,,,
2022-02-10T20:27:56+01:00,8,28.02,20.62,1008.47,26.30,27.70,0,23.50,"$GNGGA,192751.000,4900.5072,N,00825.5054,E,0,2,,144.9,M,47.9,M,,*52",,,,
2022-02-10T20:28:17+01:00,9,27.70,21.28,1008.52,24.10,25.40,0,22.50,"$GNGGA,192812.000,4900.5095,N,00825.5519,E,1,4,6.79,145.8,M,47.9,M,,*4E",,,,
2022-02-10T20:28:38+01:00,10,27.41,21.44,1008.95,24.40,25.70,0,22.50,"$GNGGA,192833.000,4900.5064,N,00825.5575,E,0,0,,146.1,M,47.9,M,,*50",,,,
2022-02-10T20:28:59+01:00,11,27.02,20.56,1009.28,25.70,27.00,0,20.00,"$GNGGA,192854.000,4900.5185,N,00825.4192,E,0,3,,132.5,M,47.9,M,,*57",,,,
2022-02-10T20:29:20+01:00,12,26.12,20.76,1009.54,26.90,28.30,0,17.00,"$GNGGA,192915.000,4900.5161,N,00825.3957,E,0,0,,161.8,M,47.9,M,,*57",,,,
2022-02-10T20:29:40+01:00,13,24.82,23.08,1009.70,28.00,29.50,0,14.50,"$GNGGA,192935.000,4900.4795,N,00825.4035,E,1,6,3.21,219.7,M,47.9,M,,*49",,,,
2022-02-10T20:30:01+01:00,14,23.90,24.62,1009.83,29.80,31.30,0,14.50,"$GNGGA,192956.000,4900.4731,N,00825.4046,E,1,6,1.76,185.1,M,47.9,M,,*46",,,,
2022-02-10T20:30:22+01:00,15,23.30,24.55,1009.93,31.80,33.40,0,15.50,"$GNGGA,193017.000,4900.4812,N,00825.4032,E,1,8,1.08,144.2,M,47.9,M,,*4F",,,,
2022-02-10T20:30:43+01:00,16,22.84,24.30,1009.99,33.30,35.00,0,15.50,"$GNGGA,193038.000,4900.4833,N,00825.4040,E,1,10,0.89,140.4,M,47.9,M,,*77",,,,
2022-02-10T20:31:04+01:00,17,22.41,24.39,1010.05,34.30,36.10,0,15.00,"$GNGGA,193059.000,4900.4835,N,00825.4042,E,1,11,0.84,139.9,M,47.9,M,,*7B",,,,
2022-02-10T20:31:25+01:00,18,21.94,24.65,1010.08,35.00,36.80,0,14.50,"$GNGGA,193120.000,4900.4824,N,00825.4035,E,1,11,0.88,139.6,M,47.9,M,,*77",,,,
2022-02-10T20:31:46+01:00,19,21.53,25.28,1010.10,34.90,36.70,0,14.50,"$GNGGA,193141.000,4900.4823,N,00825.4043,E,1,12,0.83,141.5,M,47.9,M,,*72",,,,
2022-02-10T20:32:07+01:00,20,21.22,25.50,1010.12,35.40,37.20,0,14.50,"$GNGGA,193202.000,4900.4836,N,00825.4064,E,1,10,0.99,142.0,M,47.9,M,,*78",,,,
2022-02-10T20:32:28+01:00,21,20.99,25.42,1010.14,35.90,37.70,0,14.50,"$GNGGA,193223.000,4900.4835,N,00825.4076,E,2,11,0.88,141.9,M,47.9,M,,*73",,,,
2022-02-10T20:32:49+01:00,22,20.83,25.37,1010.14,35.40,37.20,0,14.50,"$GNGGA,193244.000,4900.4847,N,00825.4103,E,2,12,0.83,141.0,M,47.9,M,,*75",,,,
2022-02-10T20:33:10+01:00,23,20.69,25.63,1010.16,34.70,36.50,0,14.50,"$GNGGA,193305.000,4900.4854,N,00825.4135,E,2,11,0.88,139.3,M,47.9,M,,*72",,,,
2022-02-10T20:33:31+01:00,24,20.45,26.02,1010.16,33.20,34.90,0,14.00,"$GNGGA,193326.000,4900.4869,N,00825.4158,E,2,11,0.88,138.1,M,47.9,M,,*75",,,,
2022-02-10T20:33:52+01:00,25,20.13,26.67,1010.16,33.20,34.90,0,13.50,"$GNGGA,193347.000,4900.4869,N,00825.4132,E,2,12,0.90,135.8,M,47.9,M,,*70",,,,
2022-02-10T20:34:13+01:00,26,19.80,27.28,1010.16,32.70,34.40,0,13.50,"$GNGGA,193408.000,4900.4857,N,00825.4088,E,2,12,0.90,132.7,M,47.9,M,,*79",,,,
2022-02-10T20:34:34+01:00,27,19.46,27.83,1010.16,33.20,34.90,0,13.00,"$GNGGA,193429.000,4900.4831,N,00825.4094,E,2,12,0.90,129.7,M,47.9,M,,*7D",,,,
2022-02-10T20:34:55+01:00,28,19.10,28.48,1010.16,33.90,35.60,0,13.00,"$GNGGA,193450.000,4900.4816,N,00825.4108,E,2,12,0.90,129.4,M,47.9,M,,*71",,,,
2022-02-10T20:35:16+01:00,29,18.80,28.90,1010.16,33.10,34.80,0,13.00,"$GNGGA,193511.000,4900.4835,N,00825.4142,E,2,11,0.95,132.3,M,47.9,M,,*71",,,,
2022-02-10T20:35:37+01:00,30,18.59,29.09,1010.15,31.80,33.40,0,13.00,"$GNGGA,193532.000,4900.4855,N,00825.4130,E,2,11,1.03,140.0,M,47.9,M,,*7B",,,,
2022-02-10T20:35:58+01:00,31,18.31,29.39,1010.15,31.50,33.10,0,12.50,"$GNGGA,193553.000,4900.4809,N,00825.3960,E,2,12,0.83,139.2,M,47.9,M,,*79",,,,
2022-02-10T20:36:19+01:00,32,18.06,29.92,1010.15,31.90,33.50,0,12.50,"$GNGGA,193614.000,4900.4804,N,00825.3964,E,2,12,0.83,140.9,M,47.9,M,,*75",,,,
2022-02-10T20:36:40+01:00,33,17.78,30.41,1010.13,31.20,32.80,0,12.00,"$GNGGA,193635.000,4900.4806,N,00825.3992,E,2,12,0.83,140.7,M,47.9,M,,*73",,,,
2022-02-10T20:37:01+01:00,34,17.56,30.83,1010.12,30.80,32.40,0,12.00,"$GNGGA,193656.000,4900.4806,N,00825.3995,E,2,11,0.88,140.6,M,47.9,M,,*78",,,,
2022-02-10T20:37:22+01:00,35,17.33,31.03,1010.13,30.80,32.40,0,12.00,"$GNGGA,193717.000,4900.4837,N,00825.4102,E,2,10,0.89,137.1,M,47.9,M,,*78",,,,
2022-02-10T20:37:43+01:00,36,17.08,31.45,1010.13,31.40,33.00,0,11.50,"$GNGGA,193738.000,4900.4842,N,00825.4115,E,2,11,0.88,136.3,M,47.9,M,,*72",,,,
2022-02-10T20:38:04+01:00,37,16.78,32.11,1010.14,32.30,34.00,0,11.50,"$GNGGA,193759.000,4900.4840,N,00825.4139,E,2,11,0.87,135.4,M,47.9,M,,*72",,,,
2022-02-10T20:38:26+01:00,38,16.47,32.95,1010.14,31.40,33.00,0,11.00,"$GNGGA,193820.000,4900.4816,N,00825.4180,E,2,12,0.83,130.9,M,47.9,M,,*7D",,,,
2022-02-10T20:38:46+01:00,39,16.18,33.64,1010.15,27.20,28.60,0,10.50,"$GNGGA,193841.000,4900.4706,N,00825.4127,E,2,11,0.91,133.6,M,47.9,M,,*75",,,,
2022-02-10T20:39:07+01:00,40,15.90,34.19,1010.15,24.10,25.40,0,10.50,"$GNGGA,193902.000,4900.4556,N,00825.4028,E,2,11,0.88,145.1,M,47.9,M,,*74",,,,
2022-02-10T20:39:28+01:00,41,15.55,34.86,1010.16,22.90,24.10,0,10.50,"$GNGGA,193923.000,4900.4518,N,00825.4395,E,2,12,0.83,150.2,M,47.9,M,,*77",,,,
2022-02-10T20:39:49+01:00,42,15.25,35.82,1010.16,22.70,23.90,0,10.50,"$GNGGA,193944.000,4900.4524,N,00825.4506,E,2,12,0.83,149.4,M,47.9,M,,*7B",,,,
2022-02-10T20:40:10+01:00,43,15.09,35.86,1010.15,22.70,23.90,0,11.00,"$GNGGA,194005.000,4900.4543,N,00825.4520,E,2,11,0.91,148.6,M,47.9,M,,*76",,,,
2022-02-10T20:40:31+01:00,44,14.82,35.90,1010.15,22.80,24.00,0,10.00,"$GNGGA,194026.000,4900.4490,N,00825.4545,E,2,12,0.83,145.6,M,47.9,M,,*76",,,,
2022-02-10T20:40:52+01:00,45,14.49,36.92,1010.14,25.70,27.00,0,10.00,"$GNGGA,194047.000,4900.4428,N,00825.4660,E,2,12,0.83,134.2,M,47.9,M,,*74",,,,
2022-02-10T20:41:13+01:00,46,14.16,37.82,1010.15,25.50,26.80,0,10.00,"$GNGGA,194108.000,4900.4294,N,00825.4543,E,2,12,0.83,120.2,M,47.9,M,,*78",,,,
2022-02-10T20:41:34+01:00,47,13.88,38.68,1010.16,25.00,26.30,0,10.00,"$GNGGA,194129.000,4900.4148,N,00825.4530,E,2,10,0.94,114.7,M,47.9,M,,*7B",,,,
2022-02-10T20:41:55+01:00,48,13.61,39.19,1010.17,22.90,24.10,0,9.50,"$GNGGA,194150.000,4900.3987,N,00825.4464,E,2,12,0.83,116.5,M,47.9,M,,*7D",,,,
2022-02-10T20:42:16+01:00,49,13.37,39.61,1010.19,24.50,25.80,0,9.50,"$GNGGA,194211.000,4900.3813,N,00825.4464,E,2,12,0.83,124.8,M,47.9,M,,*7B",,,,
2022-02-10T20:42:37+01:00,50,13.15,40.08,1010.19,26.10,27.50,0,9.50,"$GNGGA,194232.000,4900.3661,N,00825.4476,E,2,10,0.97,131.8,M,47.9,M,,*71",,,,
2022-02-10T20:42:58+01:00,51,12.98,40.36,1010.19,26.20,27.60,0,9.50,"$GNGGA,194253.000,4900.3514,N,00825.4510,E,2,10,0.94,135.5,M,47.9,M,,*7C",,,,
2022-02-10T20:43:19+01:00,52,12.82,40.61,1010.19,27.10,28.50,0,9.50,"$GNGGA,194314.000,4900.3417,N,00825.4630,E,2,11,0.87,131.3,M,47.9,M,,*7C",,,,
2022-02-10T20:43:40+01:00,53,12.64,41.09,1010.19,27.30,28.70,0,9.00,"$GNGGA,194335.000,4900.3288,N,00825.4663,E,2,11,0.87,130.6,M,47.9,M,,*7D",,,,
2022-02-10T20:44:01+01:00,54,12.48,41.49,1010.18,28.60,30.10,0,9.00,"$GNGGA,194356.000,4900.3145,N,00825.4653,E,2,11,0.87,131.4,M,47.9,M,,*7A",,,,
2022-02-10T20:44:22+01:00,55,12.40,41.66,1010.17,28.00,29.50,0,9.00,"$GNGGA,194417.000,4900.3047,N,00825.4642,E,2,12,0.83,124.2,M,47.9,M,,*7E",,,,
2022-02-10T20:44:43+01:00,56,12.39,41.48,1010.16,26.20,27.60,0,9.50,"$GNGGA,194438.000,4900.2936,N,00825.4629,E,2,12,0.83,119.9,M,47.9,M,,*75",,,,
2022-02-10T20:45:04+01:00,57,12.40,41.31,1010.15,24.80,26.10,0,9.00,"$GNGGA,194459.000,4900.2829,N,00825.4657,E,2,12,0.83,119.1,M,47.9,M,,*7C",,,,
2022-02-10T20:45:25+01:00,58,12.37,41.45,1010.15,22.40,23.60,0,9.00,"$GNGGA,194520.000,4900.2710,N,00825.4658,E,2,12,0.83,119.0,M,47.9,M,,*78",,,,
2022-02-10T20:45:46+01:00,59,12.32,41.70,1010.15,22.30,23.50,0,9.00,"$GNGGA,194541.000,4900.2603,N,00825.4660,E,2,12,0.83,112.3,M,47.9,M,,*7F",,,,
2022-02-10T20:46:07+01:00,60,12.30,41.84,1010.16,20.60,21.70,0,9.00,"$GNGGA,194602.000,4900.2475,N,00825.4665,E,2,12,0.83,114.6,M,47.9,M,,*7E",,,,
2022-02-10T20:46:29+01:00,61,12.29,41.90,1010.17,20.90,22.00,0,9.00,"$GNGGA,194623.000,4900.2338,N,00825.4661,E,2,12,0.83,124.5,M,47.9,M,,*77",,,,
2022-02-10T20:46:49+01:00,62,12.30,41.78,1010.18,21.40,22.50,0,9.00,"$GNGGA,194644.000,4900.2238,N,00825.4687,E,2,12,0.83,129.6,M,47.9,M,,*71",,,,
2022-02-10T20:47:10+01:00,63,12.29,41.75,1010.19,22.40,23.60,0,9.00,"$GNGGA,194705.000,4900.2246,N,00825.4602,E,2,12,0.83,123.9,M,47.9,M,,*74",,,,
2022-02-10T20:47:31+01:00,64,12.18,42.24,1010.19,23.00,24.20,0,8.50,"$GNGGA,194726.000,4900.2182,N,00825.4401,E,2,12,0.83,122.3,M,47.9,M,,*74",,,,
2022-02-10T20:47:52+01:00,65,12.07,42.72,1010.21,22.80,24.00,0,8.50,"$GNGGA,194747.000,4900.2106,N,00825.4297,E,2,12,0.83,122.5,M,47.9,M,,*70",,,,
2022-02-10T20:48:13+01:00,66,11.97,43.02,1010.21,24.50,25.80,0,8.50,"$GNGGA,194808.000,4900.2004,N,00825.4256,E,2,12,0.83,123.1,M,47.9,M,,*7F",,,,
2022-02-10T20:48:35+01:00,67,11.83,43.39,1010.22,24.10,25.40,0,8.50,"$GNGGA,194829.000,4900.1887,N,00825.4169,E,2,12,0.83,120.2,M,47.9,M,,*73",,,,
2022-02-10T20:48:55+01:00,68,11.71,44.00,1010.21,23.90,25.10,0,8.50,"$GNGGA,194850.000,4900.1872,N,00825.4106,E,2,13,0.75,120.0,M,47.9,M,,*74",,,,
2022-02-10T20:49:17+01:00,69,11.65,44.22,1010.10,21.00,22.10,0,8.50,"$GNGGA,194911.000,4900.1915,N,00825.4005,E,2,14,0.72,122.2,M,47.9,M,,*72",,,,
2022-02-10T20:49:38+01:00,70,11.58,44.12,1009.92,21.40,22.50,0,8.50,"$GNGGA,194932.000,4900.1901,N,00825.3909,E,2,13,0.75,129.4,M,47.9,M,,*79",,,,
2022-02-10T20:50:03+01:00,71,11.49,44.15,1009.81,23.30,24.50,0,8.50,"$GNGGA,194958.000,4900.1867,N,00825.3848,E,2,14,0.72,139.9,M,47.9,M,,*7C",,,,
2022-02-10T20:50:24+01:00,72,11.36,44.33,1009.72,25.30,26.60,0,8.50,"$GNGGA,195019.000,4900.1803,N,00825.3678,E,2,13,0.75,154.2,M,47.9,M,,*7E",,,,
2022-02-10T20:50:45+01:00,73,11.16,44.79,1009.66,25.80,27.10,0,8.50,"$GNGGA,195040.000,4900.1845,N,00825.3482,E,2,13,0.75,148.8,M,47.9,M,,*70",,,,
2022-02-10T20:51:06+01:00,74,10.94,45.50,1009.61,23.70,24.90,0,8.50,"$GNGGA,195101.000,4900.1875,N,00825.3330,E,2,13,0.75,146.0,M,47.9,M,,*7F",,,,
2022-02-10T20:51:27+01:00,75,10.72,46.18,1009.56,24.10,25.40,0,8.00,"$GNGGA,195122.000,4900.1889,N,00825.3189,E,2,13,0.75,148.1,M,47.9,M,,*72",,,,
2022-02-10T20:51:48+01:00,76,10.57,46.70,1009.53,23.90,25.10,0,8.50,"$GNGGA,195143.000,4900.1898,N,00825.3008,E,2,13,0.77,152.5,M,47.9,M,,*70",,,,
2022-02-10T20:52:09+01:00,77,10.43,46.90,1009.51,24.10,25.40,0,8.50,"$GNGGA,195204.000,4900.1951,N,00825.2874,E,2,12,0.87,150.7,M,47.9,M,,*78",,,,
2022-02-10T20:52:30+01:00,78,10.30,47.15,1009.49,23.70,24.90,0,8.50,"$GNGGA,195225.000,4900.1976,N,00825.2660,E,2,14,0.72,151.9,M,47.9,M,,*76",,,,
2022-02-10T20:52:51+01:00,79,10.17,47.65,1009.47,23.20,24.40,0,8.00,"$GNGGA,195246.000,4900.2044,N,00825.2536,E,2,14,0.72,145.9,M,47.9,M,,*7D",,,,
2022-02-10T20:53:13+01:00,80,10.05,48.06,1009.46,23.90,25.10,0,8.00,"$GNGGA,195307.000,4900.2073,N,00825.2367,E,2,13,0.79,146.1,M,47.9,M,,*78",,,,
2022-02-10T20:53:34+01:00,81,9.87,48.37,1009.44,24.20,25.50,0,8.00,"$GNGGA,195328.000,4900.2170,N,00825.2223,E,2,13,0.77,143.5,M,47.9,M,,*79",,,,
2022-02-10T20:53:54+01:00,82,9.68,48.98,1009.44,23.60,24.80,0,8.00,"$GNGGA,195349.000,4900.2214,N,00825.2050,E,2,12,0.83,132.4,M,47.9,M,,*74",,,,
2022-02-10T20:54:16+01:00,83,9.50,49.60,1009.45,21.90,23.00,0,8.00,"$GNGGA,195410.000,4900.2196,N,00825.1825,E,2,14,0.72,139.2,M,47.9,M,,*7A",,,,
2022-02-10T20:54:37+01:00,84,9.32,50.07,1009.45,22.70,23.90,0,8.00,"$GNGGA,195431.000,4900.2249,N,00825.1687,E,2,14,0.72,141.5,M,47.9,M,,*76",,,,
2022-02-10T20:54:57+01:00,85,9.18,50.68,1009.44,22.50,23.70,0,8.00,"$GNGGA,195452.000,4900.2309,N,00825.1524,E,2,14,0.72,138.6,M,47.9,M,,*71",,,,
2022-02-10T20:55:18+01:00,86,9.10,50.92,1009.46,23.30,24.50,0,8.00,"$GNGGA,195513.000,4900.2345,N,00825.1358,E,2,11,1.07,137.7,M,47.9,M,,*78",,,,
2022-02-10T20:55:39+01:00,87,9.09,50.84,1009.46,22.60,23.80,0,8.00,"$GNGGA,195534.000,4900.2360,N,00825.1315,E,2,13,0.78,136.3,M,47.9,M,,*7D",,,,
2022-02-10T20:56:00+01:00,88,8.98,50.87,1009.46,24.20,25.50,0,8.00,"$GNGGA,195555.000,4900.2410,N,00825.1134,E,2,12,0.92,136.6,M,47.9,M,,*7B",,,,
2022-02-10T20:56:21+01:00,89,8.84,51.30,1009.46,27.00,28.40,0,8.00,"$GNGGA,195616.000,4900.2453,N,00825.0977,E,2,11,0.96,132.8,M,47.9,M,,*7B",,,,
2022-02-10T20:56:42+01:00,90,8.71,51.91,1009.45,30.20,31.80,0,8.00,"$GNGGA,195637.000,4900.2469,N,00825.0804,E,2,12,0.78,133.3,M,47.9,M,,*7D",,,,
2022-02-10T20:57:03+01:00,91,8.62,52.19,1009.45,30.20,31.80,0,8.00,"$GNGGA,195658.000,4900.2530,N,00825.0658,E,2,12,0.92,129.3,M,47.9,M,,*71",,,,
2022-02-10T20:57:24+01:00,92,8.56,52.34,1009.44,29.60,31.10,0,7.50,"$GNGGA,195719.000,4900.2580,N,00825.0502,E,2,13,0.75,123.6,M,47.9,M,,*75",,,,
2022-02-10T20:57:45+01:00,93,8.56,52.26,1009.44,28.40,29.90,0,8.00,"$GNGGA,195740.000,4900.2612,N,00825.0348,E,2,12,0.92,120.8,M,47.9,M,,*7C",,,,
2022-02-10T20:58:07+01:00,94,8.54,52.25,1009.43,27.50,28.90,0,7.50,"$GNGGA,195801.000,4900.2635,N,00825.0179,E,2,14,0.69,122.6,M,47.9,M,,*7D",,,,
2022-02-10T20:58:28+01:00,95,8.50,52.50,1009.44,27.50,28.90,0,7.50,"$GNGGA,195822.000,4900.2678,N,00825.0024,E,2,14,0.70,124.0,M,47.9,M,,*74",,,,
2022-02-10T20:58:48+01:00,96,8.43,52.84,1009.43,27.70,29.10,0,7.50,"$GNGGA,195843.000,4900.2738,N,00824.9877,E,2,15,0.67,122.4,M,47.9,M,,*75",,,,
2022-02-10T20:59:09+01:00,97,8.37,53.16,1009.42,29.30,30.80,0,7.50,"$GNGGA,195904.000,4900.2775,N,00824.9723,E,2,13,0.75,126.7,M,47.9,M,,*72",,,,
2022-02-10T20:59:30+01:00,98,8.32,53.22,1009.41,30.10,31.70,0,7.50,"$GNGGA,195925.000,4900.2815,N,00824.9561,E,2,13,0.75,130.5,M,47.9,M,,*79",,,,
2022-02-10T20:59:51+01:00,99,8.30,53.18,1009.40,29.60,31.10,0,7.50,"$GNGGA,195946.000,4900.2858,N,00824.9425,E,2,14,0.75,129.7,M,47.9,M,,*79",,,,
2022-02-10T21:00:12+01:00,100,8.32,53.12,1009.39,28.60,30.10,0,7.50,"$GNGGA,200007.000,4900.2864,N,00824.9283,E,2,14,0.69,139.8,M,47.9,M,,*7C",,,,
2022-02-10T21:00:34+01:00,101,8.34,52.91,1009.37,28.20,29.70,0,8.00,"$GNGGA,200028.000,4900.2887,N,00824.9156,E,2,14,0.69,135.8,M,47.9,M,,*7B",,,,
2022-02-10T21:00:55+01:00,102,8.33,52.80,1009.36,28.60,30.10,0,8.00,"$GNGGA,200049.000,4900.2940,N,00824.9064,E,2,14,0.69,130.6,M,47.9,M,,*7D",,,,
2022-02-10T21:01:16+01:00,103,8.29,52.93,1009.35,29.70,31.20,0,8.00,"$GNGGA,200110.000,4900.2953,N,00824.8946,E,2,14,0.69,136.2,M,47.9,M,,*78",,,,
2022-02-10T21:01:36+01:00,104,8.27,53.13,1009.33,30.70,32.30,0,7.50,"$GNGGA,200131.000,4900.2939,N,00824.8772,E,2,14,0.69,145.7,M,47.9,M,,*7F",,,,
2022-02-10T21:01:57+01:00,105,8.29,53.19,1009.31,30.50,32.10,0,8.00,"$GNGGA,200152.000,4900.2939,N,00824.8602,E,2,14,0.69,151.6,M,47.9,M,,*78",,,,
2022-02-10T21:02:18+01:00,106,8.35,53.03,1009.29,29.40,30.90,0,8.00,"$GNGGA,200213.000,4900.2979,N,00824.8508,E,2,14,0.69,144.8,M,47.9,M,,*79",,,,
2022-02-10T21:02:39+01:00,107,8.37,52.74,1009.29,27.00,28.40,0,8.00,"$GNGGA,200234.000,4900.2999,N,00824.8430,E,2,14,0.69,145.9,M,47.9,M,,*78",,,,
2022-02-10T21:03:01+01:00,108,8.38,52.82,1009.29,28.40,29.90,0,8.00,"$GNGGA,200255.000,4900.3061,N,00824.8289,E,2,13,0.76,145.2,M,47.9,M,,*76",,,,
2022-02-10T21:03:21+01:00,109,8.36,53.00,1009.29,28.50,30.00,0,8.00,"$GNGGA,200316.000,4900.3127,N,00824.8090,E,2,15,0.73,141.7,M,47.9,M,,*7B",,,,
2022-02-10T21:03:43+01:00,110,8.35,53.12,1009.29,28.50,30.00,0,7.50,"$GNGGA,200337.000,4900.3118,N,00824.7925,E,2,15,0.74,144.7,M,47.9,M,,*7E",,,,
2022-02-10T21:04:03+01:00,111,8.34,53.19,1009.28,27.20,28.60,0,8.00,"$GNGGA,200358.000,4900.3032,N,00824.7708,E,2,14,0.69,155.3,M,47.9,M,,*76",,,,
2022-02-10T21:04:25+01:00,112,8.35,53.23,1009.28,27.70,29.10,0,8.00,"$GNGGA,200419.000,4900.3019,N,00824.7526,E,2,15,0.67,166.8,M,47.9,M,,*77",,,,
2022-02-10T21:04:46+01:00,113,8.38,53.13,1009.26,26.20,27.60,0,8.00,"$GNGGA,200440.000,4900.3040,N,00824.7342,E,2,15,0.67,175.3,M,47.9,M,,*7A",,,,
2022-02-10T21:05:07+01:00,114,8.36,53.05,1009.25,26.40,27.80,0,8.00,"$GNGGA,200501.000,4900.3123,N,00824.7223,E,2,15,0.67,171.2,M,47.9,M,,*79",,,,
2022-02-10T21:05:28+01:00,115,8.32,53.28,1009.25,25.90,27.20,0,7.50,"$GNGGA,200522.000,4900.3185,N,00824.7091,E,2,15,0.67,167.6,M,47.9,M,,*7C",,,,
2022-02-10T21:05:48+01:00,116,8.26,53.49,1009.25,27.50,28.90,0,7.50,"$GNGGA,200543.000,4900.3317,N,00824.6963,E,2,14,0.69,162.2,M,47.9,M,,*79",,,,
2022-02-10T21:06:09+01:00,117,8.21,53.71,1009.29,27.50,28.90,0,7.50,"$GNGGA,200604.000,4900.3345,N,00824.6844,E,2,15,0.67,159.0,M,47.9,M,,*7F",,,,
2022-02-10T21:06:31+01:00,118,8.18,53.79,1009.37,28.00,29.50,0,7.50,"$GNGGA,200625.000,4900.3285,N,00824.6747,E,2,15,0.67,156.1,M,47.9,M,,*73",,,,
2022-02-10T21:06:51+01:00,119,8.20,53.76,1009.47,27.90,29.30,0,8.00,"$GNGGA,200646.000,4900.3210,N,00824.6652,E,2,13,0.78,141.9,M,47.9,M,,*79",,,,
2022-02-10T21:07:12+01:00,120,8.23,53.63,1009.60,27.60,29.00,0,7.50,"$GNGGA,200707.000,4900.3250,N,00824.6568,E,2,15,0.67,133.8,M,47.9,M,,*7F",,,,
2022-02-10T21:07:34+01:00,121,8.30,53.53,1009.71,26.90,28.30,0,8.00,"$GNGGA,200728.000,4900.3459,N,00824.6566,E,2,15,0.67,141.5,M,47.9,M,,*7B",,,,
2022-02-10T21:07:55+01:00,122,8.41,53.24,1009.80,25.70,27.00,0,8.00,"$GNGGA,200749.000,4900.3485,N,00824.6576,E,2,13,0.74,135.7,M,47.9,M,,*79",,,,
2022-02-10T21:08:16+01:00,123,8.54,53.03,1009.86,25.40,26.70,0,8.00,"$GNGGA,200810.000,4900.3548,N,00824.6516,E,2,15,0.67,133.1,M,47.9,M,,*78",,,,
2022-02-10T21:08:36+01:00,124,8.67,52.69,1009.91,24.60,25.90,0,8.50,"$GNGGA,200831.000,4900.3747,N,00824.6542,E,2,14,0.76,138.0,M,47.9,M,,*7C",,,,
2022-02-10T21:08:57+01:00,125,8.77,52.21,1009.94,24.60,25.90,0,8.00,"$GNGGA,200852.000,4900.3758,N,00824.6466,E,2,15,0.67,151.2,M,47.9,M,,*7C",,,,
2022-02-10T21:09:19+01:00,126,8.76,52.01,1009.98,24.50,25.80,0,8.00,"$GNGGA,200913.000,4900.3764,N,00824.6349,E,2,14,0.70,140.5,M,47.9,M,,*7D",,,,
2022-02-10T21:09:39+01:00,127,8.76,52.23,1010.00,25.90,27.20,0,8.00,"$GNGGA,200934.000,4900.3807,N,00824.6063,E,2,14,0.73,129.3,M,47.9,M,,*73",,,,
2022-02-10T21:10:00+01:00,128,8.83,52.13,1010.00,25.30,26.60,0,8.00,"$GNGGA,200955.000,4900.3896,N,00824.6012,E,2,12,0.75,142.4,M,47.9,M,,*70",,,,
2022-02-10T21:10:21+01:00,129,8.93,51.67,1010.01,25.80,27.10,0,8.50,"$GNGGA,201016.000,4900.4043,N,00824.6110,E,2,14,0.71,141.3,M,47.9,M,,*7D",,,,
2022-02-10T21:10:42+01:00,130,9.04,51.46,1010.00,25.40,26.70,0,8.50,"$GNGGA,201037.000,4900.4164,N,00824.6166,E,2,14,0.71,142.5,M,47.9,M,,*7E",,,,
2022-02-10T21:11:03+01:00,131,9.12,51.01,1010.01,25.10,26.40,0,8.50,"$GNGGA,201058.000,4900.4255,N,00824.6134,E,2,14,0.71,140.4,M,47.9,M,,*72",,,,
2022-02-10T21:11:24+01:00,132,9.22,50.92,1009.99,24.80,26.10,0,8.50,"$GNGGA,201119.000,4900.4340,N,00824.5964,E,2,14,0.71,140.4,M,47.9,M,,*7D",,,,
2022-02-10T21:11:45+01:00,133,9.32,50.70,1009.98,26.30,28.00,0,8.50,"$GNGGA,201140.000,4900.4456,N,00824.5878,E,2,15,0.67,139.5,M,47.9,M,,*74",,,,
2022-02-10T21:12:06+01:00,134,9.42,50.47,1009.97,26.10,28.30,0,8.50,"$GNGGA,201201.000,4900.4697,N,00824.6111,E,2,14,0.71,126.6,M,47.9,M,,*73",,,,
2022-02-10T21:12:27+01:00,135,9.54,50.06,1009.97,26.10,27.40,0,8.50,"$GNGGA,201222.000,4900.4734,N,00824.6112,E,2,15,0.67,120.4,M,47.9,M,,*7B",,,,
2022-02-10T21:12:48+01:00,136,9.62,49.59,1009.97,25.00,26.30,0,8.50,"$GNGGA,201243.000,4900.4783,N,00824.6108,E,2,14,0.71,117.6,M,47.9,M,,*7B",,,,
2022-02-10T21:13:09+01:00,137,9.62,49.56,1009.97,26.10,27.50,0,8.50,"$GNGGA,201304.000,4900.4816,N,00824.5910,E,2,14,0.71,137.8,M,47.9,M,,*74",,,,
2022-02-10T21:13:30+01:00,138,9.61,49.91,1009.97,26.60,28.00,0,8.50,"$GNGGA,201325.000,4900.4953,N,00824.5909,E,2,14,0.71,150.0,M,47.9,M,,*76",,,,
2022-02-10T21:13:51+01:00,139,9.61,50.08,1009.98,26.70,28.10,0,8.50,"$GNGGA,201346.000,4900.5042,N,00824.5945,E,2,14,0.71,153.5,M,47.9,M,,*75",,,,
2022-02-10T21:15:35+01:00,140,10.54,49.96,1010.01,29.10,30.60,0,10.00,"$GNGGA,201530.000,4900.5724,N,00824.6343,E,1,10,0.83,135.2,M,47.9,M,,*77",,,,
2022-02-10T21:18:00+01:00,141,10.41,50.34,1009.94,28.00,29.50,0,8.50,"$GNGGA,201755.000,4900.5861,N,00824.7411,E,1,8,1.10,138.5,M,47.9,M,,*41",,,,
2022-02-10T21:18:22+01:00,142,10.12,50.48,1009.95,28.50,30.00,0,8.50,"$GNGGA,201817.000,4900.5796,N,00824.7558,E,1,9,1.02,132.3,M,47.9,M,,*4D",,,,
2022-02-10T21:18:43+01:00,143,9.94,50.70,1009.96,28.40,29.90,0,8.50,"$GNGGA,201838.000,4900.5778,N,00824.7703,E,1,10,0.84,128.4,M,47.9,M,,*77",,,,
2022-02-10T21:19:04+01:00,144,9.83,50.64,1009.98,26.50,27.90,0,8.50,"$GNGGA,201859.000,4900.5803,N,00824.7936,E,1,10,0.82,120.4,M,47.9,M,,*75",,,,
2022-02-10T21:19:25+01:00,145,9.71,50.36,1010.00,26.30,27.70,0,8.50,"$GNGGA,201920.000,4900.5913,N,00824.8152,E,1,10,0.82,121.7,M,47.9,M,,*7D",,,,
2022-02-10T21:19:46+01:00,146,9.55,50.60,1010.01,26.90,28.30,0,8.50,"$GNGGA,201941.000,4900.5800,N,00824.8412,E,1,10,0.82,132.4,M,47.9,M,,*79",,,,
2022-02-10T21:20:07+01:00,147,9.46,51.00,1010.02,27.10,28.50,0,8.50,"$GNGGA,202002.000,4900.5756,N,00824.8465,E,1,10,0.82,135.5,M,47.9,M,,*7E",,,,
2022-02-10T21:20:28+01:00,148,9.40,51.17,1010.04,27.20,28.60,0,8.50,"$GNGGA,202023.000,4900.5754,N,00824.8726,E,1,10,0.82,132.0,M,47.9,M,,*79",,,,
2022-02-10T21:20:49+01:00,149,9.28,51.47,1010.03,27.00,28.40,0,8.00,"$GNGGA,202044.000,4900.5805,N,00824.8954,E,1,10,0.82,130.4,M,47.9,M,,*7E",,,,
2022-02-10T21:21:10+01:00,150,9.18,51.83,1010.04,27.30,28.70,0,8.00,"$GNGGA,202105.000,4900.5852,N,00824.9129,E,1,10,0.82,123.6,M,47.9,M,,*7B",,,,
2022-02-10T21:21:31+01:00,151,9.10,52.03,1010.04,27.40,28.80,0,8.00,"$GNGGA,202126.000,4900.5877,N,00824.9320,E,1,10,0.82,120.0,M,47.9,M,,*73",,,,
2022-02-10T21:21:52+01:00,152,9.03,52.23,1010.04,26.70,28.10,0,8.00,"$GNGGA,202147.000,4900.5861,N,00824.9530,E,1,10,0.82,119.4,M,47.9,M,,*7A",,,,
2022-02-10T21:22:13+01:00,153,8.98,52.21,1010.04,25.90,27.20,0,8.00,"$GNGGA,202208.000,4900.5767,N,00824.9673,E,1,10,0.82,117.6,M,47.9,M,,*73",,,,
2022-02-10T21:22:34+01:00,154,8.95,52.15,1010.03,25.90,27.20,0,8.00,"$GNGGA,202229.000,4900.5673,N,00824.9884,E,1,9,0.88,124.5,M,47.9,M,,*43",,,,
2022-02-10T21:22:58+01:00,155,8.91,52.09,1010.02,26.10,27.50,0,8.00,"$GNGGA,202250.000,4900.5652,N,00825.0027,E,1,8,1.11,124.5,M,47.9,M,,*47",,,,
2022-02-10T21:23:19+01:00,156,8.91,52.07,1010.01,27.80,29.20,0,8.00,"$GNGGA,202314.000,4900.5649,N,00825.0198,E,1,9,0.88,119.8,M,47.9,M,,*4A",,,,
2022-02-10T21:23:40+01:00,157,8.94,52.04,1010.01,29.50,31.00,0,8.00,"$GNGGA,202335.000,4900.5583,N,00825.0320,E,1,10,0.82,120.2,M,47.9,M,,*7F",,,,
2022-02-10T21:24:01+01:00,158,9.01,51.88,1010.02,29.00,30.50,0,8.50,"$GNGGA,202356.000,4900.5531,N,00825.0330,E,1,10,0.82,120.1,M,47.9,M,,*71",,,,
2022-02-10T21:24:22+01:00,159,9.12,51.58,1010.03,26.50,27.90,0,8.50,"$GNGGA,202417.000,4900.5538,N,00825.0330,E,1,11,0.79,119.6,M,47.9,M,,*72",,,,
2022-02-10T21:24:43+01:00,160,9.22,50.97,1010.02,24.30,25.60,0,8.50,"$GNGGA,202438.000,4900.5523,N,00825.0369,E,1,11,0.79,119.0,M,47.9,M,,*7F",,,,
2022-02-10T21:25:04+01:00,161,9.26,50.55,1010.03,25.20,26.50,0,8.50,"$GNGGA,202459.000,4900.5470,N,00825.0571,E,1,11,0.79,116.0,M,47.9,M,,*7F",,,,
2022-02-10T21:25:25+01:00,162,9.34,50.65,1010.02,25.50,26.80,0,8.50,"$GNGGA,202520.000,4900.5507,N,00825.0792,E,1,11,0.79,113.0,M,47.9,M,,*7B",,,,
2022-02-10T21:25:46+01:00,163,9.43,50.63,1010.01,26.20,27.60,0,8.50,"$GNGGA,202541.000,4900.5582,N,00825.0967,E,1,11,0.79,112.0,M,47.9,M,,*74",,,,
2022-02-10T21:26:07+01:00,164,9.51,50.35,1010.01,26.40,27.80,0,8.50,"$GNGGA,202602.000,4900.5649,N,00825.1162,E,1,11,0.79,114.3,M,47.9,M,,*7D",,,,
2022-02-10T21:26:28+01:00,165,9.56,50.10,1010.01,27.60,29.00,0,8.50,"$GNGGA,202623.000,4900.5670,N,00825.1374,E,1,11,0.79,108.4,M,47.9,M,,*7B",,,,
2022-02-10T21:26:49+01:00,166,9.50,49.97,1009.98,27.70,29.10,0,8.00,"$GNGGA,202644.000,4900.5683,N,00825.1492,E,1,11,0.79,111.4,M,47.9,M,,*71",,,,
2022-02-10T21:27:10+01:00,167,9.39,50.57,1009.96,27.50,28.90,0,8.00,"$GNGGA,202705.000,4900.5560,N,00825.1522,E,1,10,0.83,126.8,M,47.9,M,,*7D",,,,
2022-02-10T21:27:31+01:00,168,9.37,51.24,1009.97,26.20,27.60,0,8.50,"$GNGGA,202726.000,4900.5540,N,00825.1761,E,1,10,0.83,129.3,M,47.9,M,,*7F",,,,
2022-02-10T21:27:52+01:00,169,9.43,51.18,1009.97,26.30,27.70,0,8.50,"$GNGGA,202747.000,4900.5545,N,00825.1996,E,1,11,0.79,118.6,M,47.9,M,,*78",,,,
2022-02-10T21:28:13+01:00,170,9.55,50.50,1009.99,26.70,28.10,0,8.50,"$GNGGA,202808.000,4900.5537,N,00825.2037,E,1,10,0.83,114.2,M,47.9,M,,*74",,,,
2022-02-10T21:28:34+01:00,171,9.68,49.91,1010.00,25.20,26.50,0,8.50,"$GNGGA,202829.000,4900.5560,N,00825.2231,E,1,10,0.83,113.6,M,47.9,M,,*72",,,,
2022-02-10T21:28:55+01:00,172,9.80,49.40,1010.01,24.70,26.00,0,8.50,"$GNGGA,202850.000,4900.5572,N,00825.2426,E,1,10,0.83,112.4,M,47.9,M,,*7C",,,,
2022-02-10T21:29:16+01:00,173,9.91,49.02,1010.01,25.50,26.80,0,8.50,"$GNGGA,202911.000,4900.5601,N,00825.2602,E,1,10,0.92,109.7,M,47.9,M,,*72",,,,
2022-02-10T21:29:37+01:00,174,9.98,48.99,1010.02,27.30,28.70,0,8.50,"$GNGGA,202932.000,4900.5684,N,00825.2777,E,1,10,0.92,113.4,M,47.9,M,,*75",,,,
2022-02-10T21:29:58+01:00,175,10.07,49.03,1010.03,28.00,29.50,0,8.50,"$GNGGA,202953.000,4900.5750,N,00825.2960,E,1,8,0.95,119.1,M,47.9,M,,*43",,,,
2022-02-10T21:30:19+01:00,176,10.19,49.08,1010.03,27.00,28.40,0,9.00,"$GNGGA,203014.000,4900.5749,N,00825.3147,E,1,10,0.83,120.5,M,47.9,M,,*7C",,,,
2022-02-10T21:30:40+01:00,177,10.31,48.91,1010.03,26.50,27.90,0,9.00,"$GNGGA,203035.000,4900.5681,N,00825.3356,E,1,10,0.83,117.7,M,47.9,M,,*7E",,,,
2022-02-10T21:31:01+01:00,178,10.42,48.26,1010.05,26.60,28.00,0,9.00,"$GNGGA,203056.000,4900.5728,N,00825.3535,E,1,10,0.83,115.6,M,47.9,M,,*79",,,,
2022-02-10T21:31:22+01:00,179,10.52,47.88,1010.05,27.40,28.80,0,9.00,"$GNGGA,203117.000,4900.5792,N,00825.3720,E,1,9,0.97,119.9,M,47.9,M,,*44",,,,
2022-02-10T21:31:43+01:00,180,10.64,47.69,1010.05,28.30,29.80,0,9.00,"$GNGGA,203138.000,4900.5792,N,00825.3898,E,1,10,0.93,116.2,M,47.9,M,,*7D",,,,
2022-02-10T21:32:04+01:00,181,10.73,47.50,1010.05,28.30,29.80,0,9.00,"$GNGGA,203159.000,4900.5805,N,00825.4067,E,1,10,0.83,120.2,M,47.9,M,,*70",,,,
2022-02-10T21:32:25+01:00,182,10.75,47.42,1010.05,27.70,29.10,0,9.00,"$GNGGA,203220.000,4900.5677,N,00825.4228,E,2,10,0.83,134.8,M,47.9,M,,*73",,,,
2022-02-10T21:32:46+01:00,183,10.79,47.81,1010.05,27.00,28.40,0,9.00,"$GNGGA,203241.000,4900.5643,N,00825.4246,E,2,10,0.83,143.5,M,47.9,M,,*76",,,,
2022-02-10T21:33:07+01:00,184,10.77,47.58,1010.04,27.20,28.60,0,9.00,"$GNGGA,203302.000,4900.5544,N,00825.4268,E,2,9,0.88,146.3,M,47.9,M,,*48",,,,
2022-02-10T21:33:28+01:00,185,10.74,47.73,1010.03,26.70,28.10,0,9.00,"$GNGGA,203323.000,4900.5479,N,00825.4293,E,2,8,1.02,147.4,M,47.9,M,,*44",,,,
2022-02-10T21:33:49+01:00,186,10.63,47.70,1010.03,27.90,29.30,0,8.50,"$GNGGA,203344.000,4900.5351,N,00825.4323,E,2,8,1.02,147.7,M,47.9,M,,*41",,,,
2022-02-10T21:34:10+01:00,187,10.43,48.04,1010.00,28.90,30.40,0,8.50,"$GNGGA,203405.000,4900.5214,N,00825.4304,E,2,10,0.93,140.9,M,47.9,M,,*7F",,,,
2022-02-10T21:34:31+01:00,188,10.32,48.86,1009.96,29.30,30.80,0,9.00,"$GNGGA,203426.000,4900.5167,N,00825.4215,E,2,11,0.79,138.2,M,47.9,M,,*79",,,,
2022-02-10T21:34:52+01:00,189,10.34,50.19,1009.95,27.30,28.70,0,9.50,"$GNGGA,203447.000,4900.5147,N,00825.4239,E,2,7,1.18,135.3,M,47.9,M,,*4F",,,,
