created_at,entry_id,field1,field2,field3,field4,field5,field6,field7,field8,latitude,longitude,elevation,status
2022-04-12T05:38:15+02:00,1,22.76,34.16,998.46,60.10,63.20,0,-127.00,"$GNGGA,000025.263,4900.4737,N,00825.4143,E,0,0,,102.1,M,47.9,M,,*52",,,,
2022-04-12T05:38:35+02:00,2,22.63,34.13,998.46,45.30,47.60,0,-127.00,"$GNGGA,033831.089,9000.0000,N,00000.0000,E,0,0,,137.0,M,13.0,M,,*58",,,,
2022-04-12T05:38:55+02:00,3,22.60,33.88,998.47,29.90,31.40,0,-127.00,"$GNGGA,033851.089,9000.0000,N,00000.0000,E,0,0,,137.0,M,13.0,M,,*5E",,,,
2022-04-12T05:39:15+02:00,4,22.64,33.65,998.48,27.70,29.10,0,-127.00,"$GNGGA,033911.089,9000.0000,N,00000.0000,E,0,0,,137.0,M,13.0,M,,*5B",,,,
2022-04-12T05:39:35+02:00,5,22.73,33.45,998.48,27.60,29.00,0,-127.00,"$GNGGA,033931.283,9000.0000,N,00000.0000,E,0,0,,137.0,M,13.0,M,,*51",,,,
2022-04-12T05:39:55+02:00,6,22.85,33.28,998.49,27.40,28.80,0,-127.00,"$GNGGA,033951.086,9000.0000,N,00000.0000,E,0,0,,137.0,M,13.0,M,,*50",,,,
2022-04-12T05:40:15+02:00,7,22.99,33.15,998.49,29.40,30.90,0,-127.00,"$GNGGA,034011.086,9000.0000,N,00000.0000,E,0,0,,137.0,M,13.0,M,,*5A",,,,
2022-04-12T05:40:35+02:00,8,23.13,33.03,998.50,30.00,31.60,0,-127.00,"$GNGGA,034031.085,9000.0000,N,00000.0000,E,0,0,,137.0,M,13.0,M,,*5B",,,,
2022-04-12T05:40:55+02:00,9,23.29,32.94,998.51,30.60,32.20,0,-127.00,"$GNGGA,034051.084,9000.0000,N,00000.0000,E,0,0,,137.0,M,13.0,M,,*5C",,,,
2022-04-12T05:41:16+02:00,10,23.45,32.83,998.53,30.70,32.30,0,-127.00,"$GNGGA,034111.304,9000.0000,N,00000.0000,E,0,0,,137.0,M,13.0,M,,*52",,,,
2022-04-12T05:41:35+02:00,11,23.61,32.74,998.53,31.20,32.80,0,-127.00,"$GNGGA,034131.086,9000.0000,N,00000.0000,E,0,0,,137.0,M,13.0,M,,*59",,,,
2022-04-12T05:41:55+02:00,12,23.78,32.65,998.55,31.30,32.90,0,-127.00,"$GNGGA,034151.085,9000.0000,N,00000.0000,E,0,0,,137.0,M,13.0,M,,*5C",,,,
2022-04-12T05:42:16+02:00,13,23.93,32.56,998.56,30.80,32.40,0,-127.00,"$GNGGA,034211.299,9000.0000,N,00000.0000,E,0,0,,137.0,M,13.0,M,,*54",,,,
2022-04-12T05:42:35+02:00,14,24.09,32.50,998.56,30.70,32.30,0,-127.00,"$GNGGA,034231.085,9000.0000,N,00000.0000,E,0,0,,137.0,M,13.0,M,,*59",,,,
2022-04-12T05:42:55+02:00,15,24.24,32.42,998.55,31.10,32.70,0,-127.00,"$GNGGA,034251.085,9000.0000,N,00000.0000,E,0,0,,137.0,M,13.0,M,,*5F",,,,
2022-04-12T05:43:15+02:00,16,24.39,32.35,998.55,31.30,32.90,0,-127.00,"$GNGGA,034311.082,9000.0000,N,00000.0000,E,0,0,,137.0,M,13.0,M,,*5D",,,,
2022-04-12T05:43:35+02:00,17,24.53,32.29,998.54,31.90,33.50,0,-127.00,"$GNGGA,034331.085,9000.0000,N,00000.0000,E,0,0,,137.0,M,13.0,M,,*58",,,,
2022-04-12T05:43:55+02:00,18,24.67,32.23,998.54,31.80,33.40,0,-127.00,"$GNGGA,034351.085,9000.0000,N,00000.0000,E,0,0,,137.0,M,13.0,M,,*5E",,,,
2022-04-12T05:44:15+02:00,19,24.81,32.16,998.54,31.70,33.30,0,-127.00,"$GNGGA,034411.088,9000.0000,N,00000.0000,E,0,0,,137.0,M,13.0,M,,*50",,,,
2022-04-12T05:44:35+02:00,20,24.94,32.09,998.53,31.40,33.00,0,-127.00,"$GNGGA,034430.299,9000.0000,N,00000.0000,E,0,0,,137.0,M,13.0,M,,*51",,,,
2022-04-12T05:44:54+02:00,21,25.07,32.05,998.54,31.30,32.90,0,-127.00,"$GNGGA,034450.288,9000.0000,N,00000.0000,E,0,0,,137.0,M,13.0,M,,*57",,,,
2022-04-12T05:45:15+02:00,22,25.19,31.96,998.54,31.80,33.40,0,-127.00,"$GNGGA,034510.301,9000.0000,N,00000.0000,E,0,0,,137.0,M,13.0,M,,*52",,,,
2022-04-12T05:45:34+02:00,23,25.31,31.89,998.55,31.70,33.30,0,-127.00,"$GNGGA,034530.082,9000.0000,N,00000.0000,E,0,0,,137.0,M,13.0,M,,*58",,,,
2022-04-12T05:45:54+02:00,24,25.43,31.81,998.55,31.90,33.50,0,-127.00,"$GNGGA,034549.294,9000.0000,N,00000.0000,E,0,0,,137.0,M,13.0,M,,*53",,,,
2022-04-12T05:46:13+02:00,25,25.55,31.76,998.56,31.20,32.80,0,-127.00,"$GNGGA,034609.295,9000.0000,N,00000.0000,E,0,0,,137.0,M,13.0,M,,*55",,,,
2022-04-12T05:46:33+02:00,26,25.67,31.69,998.57,30.80,32.40,0,-127.00,"$GNGGA,034629.087,9000.0000,N,00000.0000,E,0,0,,137.0,M,13.0,M,,*56",,,,
2022-04-12T05:46:53+02:00,27,25.78,31.61,998.57,30.10,31.70,0,-127.00,"$GNGGA,034649.085,9000.0000,N,00000.0000,E,0,0,,137.0,M,13.0,M,,*52",,,,
2022-04-12T05:47:13+02:00,28,25.89,31.54,998.57,30.50,32.10,0,-127.00,"$GNGGA,034708.293,9000.0000,N,00000.0000,E,0,0,,137.0,M,13.0,M,,*53",,,,
2022-04-12T05:47:32+02:00,29,25.99,31.48,998.58,30.40,32.00,0,-127.00,"$GNGGA,034727.301,9000.0000,N,00000.0000,E,0,0,,137.0,M,13.0,M,,*54",,,,
2022-04-12T05:47:52+02:00,30,26.10,31.42,998.58,30.40,32.00,0,-127.00,"$GNGGA,034747.303,9000.0000,N,00000.0000,E,0,0,,137.0,M,13.0,M,,*50",,,,
2022-04-12T05:48:12+02:00,31,26.20,31.35,998.58,29.90,31.40,0,-127.00,"$GNGGA,034807.294,9000.0000,N,00000.0000,E,0,0,,137.0,M,13.0,M,,*54",,,,
2022-04-12T05:48:31+02:00,32,26.31,31.28,998.59,29.70,31.20,0,-127.00,"$GNGGA,034827.086,9000.0000,N,00000.0000,E,0,0,,137.0,M,13.0,M,,*57",,,,
2022-04-12T05:48:52+02:00,33,26.41,31.22,998.60,29.70,31.20,0,-127.00,"$GNGGA,034847.302,9000.0000,N,00000.0000,E,0,0,,137.0,M,13.0,M,,*5E",,,,
2022-04-12T05:49:11+02:00,34,26.50,31.15,998.60,30.40,32.00,0,-127.00,"$GNGGA,034906.300,9000.0000,N,00000.0000,E,0,0,,137.0,M,13.0,M,,*58",,,,
2022-04-12T05:49:30+02:00,35,26.60,31.10,998.60,30.60,32.20,0,-127.00,"$GNGGA,034926.088,9000.0000,N,00000.0000,E,0,0,,137.0,M,13.0,M,,*59",,,,
2022-04-12T05:49:51+02:00,36,26.69,31.01,998.61,30.80,32.40,0,-127.00,"$GNGGA,034947.088,9000.0000,N,00000.0000,E,0,0,,137.0,M,13.0,M,,*5E",,,,
2022-04-12T05:50:11+02:00,37,26.79,30.94,998.62,31.60,33.20,0,-127.00,"$GNGGA,035007.100,4900.4901,N,00825.6127,E,0,3,,102.1,M,47.9,M,,*5A",,,,
2022-04-12T05:50:31+02:00,38,26.88,30.90,998.62,32.10,33.80,0,-127.00,"$GNGGA,035027.093,4900.4961,N,00825.5921,E,0,3,,102.1,M,47.9,M,,*58",,,,
2022-04-12T05:50:51+02:00,39,26.97,30.83,998.62,32.10,33.80,0,-127.00,"$GNGGA,035047.093,4900.4996,N,00825.5008,E,0,3,,102.1,M,47.9,M,,*54",,,,
2022-04-12T05:51:12+02:00,40,27.06,30.74,998.63,30.60,32.20,0,-127.00,"$GNGGA,035107.310,4900.5025,N,00825.5215,E,0,3,,102.1,M,47.9,M,,*57",,,,
2022-04-12T05:51:32+02:00,41,27.14,30.67,998.64,30.20,31.80,0,-127.00,"$GNGGA,035127.303,4900.5093,N,00825.5100,E,0,3,,102.1,M,47.9,M,,*5D",,,,
2022-04-12T05:51:52+02:00,42,27.23,30.60,998.63,31.10,32.70,0,-127.00,"$GNGGA,035147.303,4900.5039,N,00825.5381,E,0,3,,102.1,M,47.9,M,,*50",,,,
2022-04-12T05:52:11+02:00,43,27.30,30.53,998.62,32.50,34.20,0,-127.00,"$GNGGA,035207.095,4900.4978,N,00825.5587,E,0,3,,102.1,M,47.9,M,,*56",,,,
2022-04-12T05:52:31+02:00,44,27.39,30.45,998.62,32.30,34.00,0,-127.00,"$GNGGA,035227.093,4900.5065,N,00825.5178,E,0,3,,102.1,M,47.9,M,,*52",,,,
2022-04-12T05:52:52+02:00,45,27.46,30.41,998.61,31.70,33.30,0,-127.00,"$GNGGA,035247.310,4900.5058,N,00825.5064,E,0,3,,102.1,M,47.9,M,,*5E",,,,
2022-04-12T05:53:11+02:00,46,27.54,30.34,998.62,31.50,33.10,0,-127.00,"$GNGGA,035307.096,4900.5080,N,00825.5650,E,0,3,,102.1,M,47.9,M,,*52",,,,
2022-04-12T05:53:31+02:00,47,27.62,30.24,998.63,32.30,34.00,0,-127.00,"$GNGGA,035327.092,4900.5148,N,00825.5319,E,0,3,,102.1,M,47.9,M,,*59",,,,
2022-04-12T05:53:51+02:00,48,27.70,30.15,998.63,31.80,33.40,0,-127.00,"$GNGGA,035347.097,4900.5124,N,00825.4946,E,0,3,,102.1,M,47.9,M,,*51",,,,
2022-04-12T05:54:12+02:00,49,27.78,30.07,998.62,31.10,32.70,0,-127.00,"$GNGGA,035407.302,4900.5097,N,00825.5346,E,0,3,,102.1,M,47.9,M,,*5F",,,,
2022-04-12T05:54:32+02:00,50,27.86,29.96,998.61,30.50,32.10,0,-127.00,"$GNGGA,035427.301,4900.5062,N,00825.5244,E,0,3,,102.1,M,47.9,M,,*57",,,,
2022-04-12T05:54:52+02:00,51,27.94,29.90,998.62,30.00,31.60,0,-127.00,"$GNGGA,035447.310,4900.5107,N,00825.5005,E,0,3,,102.1,M,47.9,M,,*54",,,,
2022-04-12T05:55:12+02:00,52,28.01,29.85,998.61,29.30,30.80,0,-127.00,"$GNGGA,035507.311,4900.5037,N,00825.4828,E,0,3,,102.1,M,47.9,M,,*54",,,,
2022-04-12T05:55:31+02:00,53,28.07,29.81,998.61,31.30,32.90,0,-127.00,"$GNGGA,035527.092,4900.5121,N,00825.4852,E,0,3,,102.1,M,47.9,M,,*55",,,,
2022-04-12T05:55:52+02:00,54,28.14,29.77,998.60,32.70,34.40,0,-127.00,"$GNGGA,035547.308,4900.5049,N,00825.5165,E,0,3,,102.1,M,47.9,M,,*50",,,,
2022-04-12T05:56:12+02:00,55,28.21,29.67,998.60,33.20,34.90,0,-127.00,"$GNGGA,035608.095,4900.5142,N,00825.4956,E,0,3,,102.1,M,47.9,M,,*5C",,,,
2022-04-12T05:56:32+02:00,56,28.27,29.60,998.61,32.30,34.00,0,-127.00,"$GNGGA,035628.095,4900.5141,N,00825.4876,E,0,3,,102.1,M,47.9,M,,*5E",,,,
2022-04-12T05:56:53+02:00,57,28.34,29.55,998.61,32.60,34.30,0,-127.00,"$GNGGA,035648.083,4900.5129,N,00825.5202,E,0,3,,102.1,M,47.9,M,,*59",,,,
2022-04-12T05:57:13+02:00,58,28.40,29.46,998.61,33.40,35.10,0,-127.00,"$GNGGA,035709.290,4900.5138,N,00825.4921,E,0,0,,102.1,M,47.9,M,,*55",,,,
2022-04-12T05:57:33+02:00,59,28.46,29.39,998.61,32.80,34.50,0,-127.00,"$GNGGA,035729.103,4900.5138,N,00825.4921,E,0,0,,102.1,M,47.9,M,,*5E",,,,
2022-04-12T05:57:54+02:00,60,28.53,29.31,998.61,32.60,34.30,0,-127.00,"$GNGGA,035749.311,4900.5138,N,00825.4921,E,0,0,,102.1,M,47.9,M,,*59",,,,
2022-04-12T05:58:14+02:00,61,28.59,29.25,998.61,32.00,33.70,0,-127.00,"$GNGGA,035810.093,4900.5138,N,00825.4921,E,0,0,,102.1,M,47.9,M,,*53",,,,
2022-04-12T05:58:34+02:00,62,28.65,29.23,998.61,32.40,34.10,0,-127.00,"$GNGGA,035830.093,4900.5138,N,00825.4921,E,0,0,,102.1,M,47.9,M,,*51",,,,
2022-04-12T05:58:54+02:00,63,28.71,29.16,998.61,33.00,34.70,0,-127.00,"$GNGGA,035850.093,4900.5138,N,00825.4921,E,0,0,,102.1,M,47.9,M,,*57",,,,
2022-04-12T05:59:15+02:00,64,28.77,29.09,998.60,32.90,34.60,0,-127.00,"$GNGGA,035911.093,4900.5138,N,00825.4921,E,0,0,,102.1,M,47.9,M,,*53",,,,
2022-04-12T05:59:35+02:00,65,28.83,29.05,998.60,32.40,34.10,0,-127.00,"$GNGGA,035931.093,4900.5138,N,00825.4921,E,0,0,,102.1,M,47.9,M,,*51",,,,
2022-04-12T05:59:55+02:00,66,28.89,29.00,998.60,32.00,33.70,0,-127.00,"$GNGGA,035951.092,4900.5138,N,00825.4921,E,0,0,,102.1,M,47.9,M,,*56",,,,
2022-04-12T06:00:17+02:00,67,28.94,28.96,998.59,31.90,33.50,0,-127.00,"$GNGGA,040012.092,4900.5138,N,00825.4921,E,0,0,,102.1,M,47.9,M,,*5A",,,,
2022-04-12T06:00:36+02:00,68,29.00,28.88,998.61,31.60,33.20,0,-127.00,"$GNGGA,040032.095,4900.5138,N,00825.4921,E,0,0,,102.1,M,47.9,M,,*5F",,,,
2022-04-12T06:00:56+02:00,69,29.06,28.79,998.62,30.80,32.40,0,-127.00,"$GNGGA,040052.310,4900.5138,N,00825.4921,E,0,0,,102.1,M,47.9,M,,*57",,,,
2022-04-12T06:01:16+02:00,70,29.12,28.68,998.60,30.80,32.40,0,-127.00,"$GNGGA,040112.092,4900.5138,N,00825.4921,E,0,0,,102.1,M,47.9,M,,*5B",,,,
2022-04-12T06:01:36+02:00,71,29.18,28.63,998.60,30.90,32.50,0,-127.00,"$GNGGA,040132.092,4900.5138,N,00825.4921,E,0,0,,102.1,M,47.9,M,,*59",,,,
2022-04-12T06:01:56+02:00,72,29.23,28.56,998.60,31.40,33.00,0,-127.00,"$GNGGA,040152.092,4900.5138,N,00825.4921,E,0,0,,102.1,M,47.9,M,,*5F",,,,
2022-04-12T06:02:16+02:00,73,29.28,28.51,998.60,31.50,33.10,0,-127.00,"$GNGGA,040212.095,4900.5138,N,00825.4921,E,0,0,,102.1,M,47.9,M,,*5F",,,,
2022-04-12T06:02:36+02:00,74,29.33,28.47,998.60,31.90,33.50,0,-127.00,"$GNGGA,040232.095,4900.5138,N,00825.4921,E,0,0,,102.1,M,47.9,M,,*5D",,,,
2022-04-12T06:02:57+02:00,75,29.38,28.40,998.61,31.70,33.30,0,-127.00,"$GNGGA,040252.310,4900.5138,N,00825.4921,E,0,0,,102.1,M,47.9,M,,*55",,,,
2022-04-12T06:03:16+02:00,76,29.43,28.35,998.61,32.00,33.70,0,-127.00,"$GNGGA,040312.088,4900.5138,N,00825.4921,E,0,0,,102.1,M,47.9,M,,*52",,,,
2022-04-12T06:03:36+02:00,77,29.49,28.26,998.61,31.60,33.20,0,-127.00,"$GNGGA,040332.088,4900.5138,N,00825.4921,E,0,0,,102.1,M,47.9,M,,*50",,,,
2022-04-12T06:03:57+02:00,78,29.53,28.18,998.61,31.00,32.60,0,-127.00,"$GNGGA,040353.088,4900.5138,N,00825.4921,E,0,0,,102.1,M,47.9,M,,*57",,,,
2022-04-12T06:04:17+02:00,79,29.58,28.13,998.61,30.90,32.50,0,-127.00,"$GNGGA,040413.088,4900.5138,N,00825.4921,E,0,0,,102.1,M,47.9,M,,*54",,,,
2022-04-12T06:04:37+02:00,80,29.63,28.09,998.60,31.10,32.70,0,-127.00,"$GNGGA,040433.088,4900.5138,N,00825.4921,E,0,0,,102.1,M,47.9,M,,*56",,,,
2022-04-12T06:04:57+02:00,81,29.68,28.10,998.59,31.90,33.50,0,-127.00,"$GNGGA,040453.088,4900.5138,N,00825.4921,E,0,0,,102.1,M,47.9,M,,*50",,,,
2022-04-12T06:05:17+02:00,82,29.74,27.98,998.58,31.50,33.10,0,-127.00,"$GNGGA,040513.088,4900.5138,N,00825.4921,E,0,0,,102.1,M,47.9,M,,*55",,,,
2022-04-12T06:05:37+02:00,83,29.80,27.87,998.57,31.90,33.50,0,-127.00,"$GNGGA,040533.088,4900.5138,N,00825.4921,E,0,0,,102.1,M,47.9,M,,*57",,,,
2022-04-12T06:05:57+02:00,84,29.85,27.82,998.56,31.00,32.60,0,-127.00,"$GNGGA,040553.088,4900.5138,N,00825.4921,E,0,0,,102.1,M,47.9,M,,*51",,,,
2022-04-12T06:06:18+02:00,85,29.90,27.84,998.56,31.30,32.90,0,-127.00,"$GNGGA,040614.088,4900.5138,N,00825.4921,E,0,0,,102.1,M,47.9,M,,*51",,,,
2022-04-12T06:06:38+02:00,86,29.95,27.76,998.56,30.20,31.80,0,-127.00,"$GNGGA,040634.088,4900.5138,N,00825.4921,E,0,0,,102.1,M,47.9,M,,*53",,,,
2022-04-12T06:06:59+02:00,87,30.00,27.67,998.55,32.40,34.10,0,-127.00,"$GNGGA,040655.088,4900.5138,N,00825.4921,E,0,0,,102.1,M,47.9,M,,*54",,,,
2022-04-12T06:07:19+02:00,88,30.04,27.60,998.55,34.00,35.80,0,-127.00,"$GNGGA,040715.088,4900.5138,N,00825.4921,E,0,0,,102.1,M,47.9,M,,*51",,,,
2022-04-12T06:07:39+02:00,89,30.09,27.54,998.53,34.50,36.30,0,-127.00,"$GNGGA,040735.097,4900.5138,N,00825.4921,E,0,0,,102.1,M,47.9,M,,*5D",,,,
2022-04-12T06:08:00+02:00,90,30.13,27.46,998.53,32.60,34.30,0,-127.00,"$GNGGA,040756.097,4900.5138,N,00825.4921,E,0,0,,102.1,M,47.9,M,,*58",,,,
2022-04-12T06:08:20+02:00,91,30.17,27.43,998.53,30.80,32.40,0,-127.00,"$GNGGA,040816.097,4900.5138,N,00825.4921,E,0,0,,102.1,M,47.9,M,,*53",,,,
2022-04-12T06:08:40+02:00,92,30.21,27.35,998.52,30.70,32.30,0,-127.00,"$GNGGA,040836.097,4900.5138,N,00825.4921,E,0,0,,102.1,M,47.9,M,,*51",,,,
2022-04-12T06:09:00+02:00,93,30.25,27.30,998.52,31.30,32.90,0,-127.00,"$GNGGA,040856.094,4900.5138,N,00825.4921,E,0,0,,102.1,M,47.9,M,,*54",,,,
2022-04-12T06:09:21+02:00,94,30.29,27.24,998.52,31.10,32.70,0,-127.00,"$GNGGA,040916.310,4900.5138,N,00825.4921,E,0,0,,102.1,M,47.9,M,,*5E",,,,
2022-04-12T06:09:41+02:00,95,30.33,27.18,998.51,31.00,32.60,0,-127.00,"$GNGGA,040936.089,4900.5138,N,00825.4921,E,0,0,,102.1,M,47.9,M,,*5F",,,,
2022-04-12T06:10:01+02:00,96,30.38,27.10,998.51,30.40,32.00,0,-127.00,"$GNGGA,040956.310,4900.5138,N,00825.4921,E,0,0,,102.1,M,47.9,M,,*5A",,,,
2022-04-12T06:10:21+02:00,97,30.42,27.02,998.51,31.30,32.90,0,-127.00,"$GNGGA,041016.306,4900.5138,N,00825.4921,E,0,0,,102.1,M,47.9,M,,*51",,,,
2022-04-12T06:10:40+02:00,98,30.45,26.96,998.51,32.50,34.20,0,-127.00,"$GNGGA,041036.098,4900.5138,N,00825.4921,E,0,0,,102.1,M,47.9,M,,*57",,,,
2022-04-12T06:11:02+02:00,99,30.50,26.92,998.50,32.70,34.40,0,-127.00,"$GNGGA,041057.304,4900.5138,N,00825.4921,E,0,0,,102.1,M,47.9,M,,*56",,,,
2022-04-12T06:11:21+02:00,100,30.53,26.86,998.50,32.50,34.20,0,-127.00,"$GNGGA,041117.097,4900.5138,N,00825.4921,E,0,0,,102.1,M,47.9,M,,*5A",,,,
2022-04-12T06:11:42+02:00,101,30.57,26.83,998.50,31.60,33.20,0,-127.00,"$GNGGA,041137.305,4900.5138,N,00825.4921,E,0,0,,102.1,M,47.9,M,,*50",,,,
2022-04-12T06:12:01+02:00,102,30.61,26.77,998.50,31.20,32.80,0,-127.00,"$GNGGA,041157.097,4900.5138,N,00825.4921,E,0,0,,102.1,M,47.9,M,,*5E",,,,
2022-04-12T06:12:21+02:00,103,30.65,26.69,998.50,31.30,32.90,0,-127.00,"$GNGGA,041217.304,4900.5138,N,00825.4921,E,0,0,,102.1,M,47.9,M,,*50",,,,
2022-04-12T06:12:41+02:00,104,30.68,26.65,998.50,31.00,32.60,0,-127.00,"$GNGGA,041237.100,4900.5045,N,00825.4508,E,0,3,,102.1,M,47.9,M,,*5B",,,,
2022-04-12T06:13:02+02:00,105,30.71,26.63,998.50,31.40,33.00,0,-127.00,"$GNGGA,041257.307,4900.5080,N,00825.4552,E,0,3,,102.1,M,47.9,M,,*5E",,,,
2022-04-12T06:13:22+02:00,106,30.74,26.59,998.51,31.70,33.30,0,-127.00,"$GNGGA,041318.094,4900.4879,N,00825.4484,E,0,3,,102.1,M,47.9,M,,*58",,,,
2022-04-12T06:13:42+02:00,107,30.76,26.50,998.51,31.80,33.40,0,-127.00,"$GNGGA,041338.093,4900.4809,N,00825.4207,E,0,3,,102.1,M,47.9,M,,*57",,,,
2022-04-12T06:14:02+02:00,108,30.80,26.44,998.52,31.90,33.50,0,-127.00,"$GNGGA,041358.095,4900.4926,N,00825.4466,E,0,0,,102.1,M,47.9,M,,*59",,,,
2022-04-12T06:14:23+02:00,109,30.83,26.41,998.50,31.10,32.70,0,-127.00,"$GNGGA,041419.091,4900.4926,N,00825.4466,E,0,0,,102.1,M,47.9,M,,*5F",,,,
2022-04-12T06:14:44+02:00,110,30.85,26.47,998.49,31.00,32.60,0,-127.00,"$GNGGA,041439.305,4900.4926,N,00825.4466,E,0,0,,102.1,M,47.9,M,,*53",,,,
2022-04-12T06:15:04+02:00,111,30.89,26.40,998.49,31.00,32.60,0,-127.00,"$GNGGA,041500.088,4900.4926,N,00825.4466,E,0,0,,102.1,M,47.9,M,,*5E",,,,
2022-04-12T06:15:24+02:00,112,30.93,26.32,998.48,32.80,34.50,0,-127.00,"$GNGGA,041520.091,4900.4926,N,00825.4466,E,0,0,,102.1,M,47.9,M,,*54",,,,
2022-04-12T06:15:44+02:00,113,30.96,26.27,998.48,34.20,36.00,0,-127.00,"$GNGGA,041540.091,4900.4926,N,00825.4466,E,0,0,,102.1,M,47.9,M,,*52",,,,
2022-04-12T06:16:05+02:00,114,30.99,26.15,998.48,33.90,35.60,0,-127.00,"$GNGGA,041600.085,4900.4926,N,00825.4466,E,0,0,,102.1,M,47.9,M,,*50",,,,
2022-04-12T06:16:25+02:00,115,31.02,26.09,998.47,32.40,34.10,0,-127.00,"$GNGGA,041620.309,4900.5104,N,00825.4484,E,0,3,,102.1,M,47.9,M,,*53",,,,
2022-04-12T06:16:44+02:00,116,31.06,26.09,998.48,30.90,32.50,0,-127.00,"$GNGGA,041640.093,4900.5122,N,00825.4419,E,0,3,,102.1,M,47.9,M,,*55",,,,
2022-04-12T06:17:05+02:00,117,31.09,26.05,998.49,31.40,33.00,0,-127.00,"$GNGGA,041701.304,4900.5131,N,00825.4509,E,0,3,,102.1,M,47.9,M,,*5E",,,,
2022-04-12T06:17:25+02:00,118,31.12,25.99,998.49,31.40,33.00,0,-127.00,"$GNGGA,041721.097,4900.5054,N,00825.4350,E,0,3,,102.1,M,47.9,M,,*5D",,,,
2022-04-12T06:17:46+02:00,119,31.15,25.95,998.48,31.80,33.40,0,-127.00,"$GNGGA,041741.309,4900.5178,N,00825.4482,E,0,3,,102.1,M,47.9,M,,*58",,,,
2022-04-12T06:18:06+02:00,120,31.19,25.94,998.49,31.40,33.00,0,-127.00,"$GNGGA,041802.095,4900.5184,N,00825.4476,E,0,3,,102.1,M,47.9,M,,*5E",,,,
2022-04-12T06:18:27+02:00,121,31.22,25.79,998.49,30.80,32.40,0,-127.00,"$GNGGA,041822.310,4900.5156,N,00825.4464,E,0,3,,102.1,M,47.9,M,,*5E",,,,
2022-04-12T06:18:46+02:00,122,31.26,25.70,998.49,30.90,32.50,0,-127.00,"$GNGGA,041842.093,4900.5056,N,00825.4381,E,0,3,,102.1,M,47.9,M,,*5D",,,,
2022-04-12T06:19:06+02:00,123,31.29,25.77,998.50,30.40,32.00,0,-127.00,"$GNGGA,041902.093,4900.5075,N,00825.4460,E,0,3,,102.1,M,47.9,M,,*51",,,,
2022-04-12T06:19:26+02:00,124,31.33,25.75,998.50,30.70,32.30,0,-127.00,"$GNGGA,041922.093,4900.5105,N,00825.4413,E,0,3,,102.1,M,47.9,M,,*51",,,,
2022-04-12T06:19:46+02:00,125,31.36,25.66,998.50,30.50,32.10,0,-127.00,"$GNGGA,041942.093,4900.5026,N,00825.4399,E,0,3,,102.1,M,47.9,M,,*52",,,,
2022-04-12T06:20:07+02:00,126,31.39,25.62,998.51,31.10,32.70,0,-127.00,"$GNGGA,042002.305,4900.4948,N,00825.4168,E,0,3,,102.1,M,47.9,M,,*5C",,,,
2022-04-12T06:20:26+02:00,127,31.41,25.62,998.52,31.10,32.70,0,-127.00,"$GNGGA,042022.095,4900.5067,N,00825.4445,E,0,3,,102.1,M,47.9,M,,*5B",,,,
2022-04-12T06:20:46+02:00,128,31.44,25.56,998.52,30.90,32.50,0,-127.00,"$GNGGA,042042.095,4900.5013,N,00825.4272,E,0,3,,102.1,M,47.9,M,,*5C",,,,
2022-04-12T06:21:07+02:00,129,31.46,25.50,998.53,30.20,31.80,0,-127.00,"$GNGGA,042103.095,4900.4933,N,00825.4094,E,0,3,,102.1,M,47.9,M,,*58",,,,
2022-04-12T06:21:27+02:00,130,31.48,25.47,998.53,31.20,32.80,0,-127.00,"$GNGGA,042123.092,4900.4994,N,00825.4256,E,0,0,,102.1,M,47.9,M,,*5F",,,,
2022-04-12T06:21:48+02:00,131,31.50,25.42,998.52,33.00,34.70,0,-127.00,"$GNGGA,042143.305,4900.5024,N,00825.4433,E,0,3,,102.1,M,47.9,M,,*51",,,,
2022-04-12T06:22:09+02:00,132,31.52,25.40,998.51,33.90,35.60,0,-127.00,"$GNGGA,042204.306,4900.4922,N,00825.4082,E,0,3,,102.1,M,47.9,M,,*52",,,,
2022-04-12T06:22:28+02:00,133,31.54,25.38,998.52,34.20,36.00,0,-127.00,"$GNGGA,042224.097,4900.4995,N,00825.4217,E,0,3,,102.1,M,47.9,M,,*59",,,,
2022-04-12T06:22:48+02:00,134,31.56,25.32,998.52,33.90,35.60,0,-127.00,"$GNGGA,042244.090,4900.5116,N,00825.4513,E,0,0,,102.1,M,47.9,M,,*5A",,,,
2022-04-12T06:23:09+02:00,135,31.58,25.23,998.52,34.40,36.20,0,-127.00,"$GNGGA,042304.297,4900.5043,N,00825.4365,E,0,3,,102.1,M,47.9,M,,*5F",,,,
2022-04-12T06:23:28+02:00,136,31.60,25.23,998.53,32.80,34.50,0,-127.00,"$GNGGA,042324.096,4900.4964,N,00825.4084,E,0,3,,102.1,M,47.9,M,,*5F",,,,
2022-04-12T06:23:49+02:00,137,31.63,25.17,998.53,32.50,34.20,0,-127.00,"$GNGGA,042344.309,4900.5138,N,00825.4442,E,0,3,,102.1,M,47.9,M,,*52",,,,
2022-04-12T06:24:09+02:00,138,31.65,25.13,998.54,32.10,33.80,0,-127.00,"$GNGGA,042405.099,4900.5201,N,00825.4547,E,0,3,,102.1,M,47.9,M,,*57",,,,
2022-04-12T06:24:30+02:00,139,31.67,25.09,998.54,32.90,34.60,0,-127.00,"$GNGGA,042425.305,4900.5077,N,00825.4394,E,0,3,,102.1,M,47.9,M,,*58",,,,
2022-04-12T06:24:50+02:00,140,31.70,25.02,998.55,32.50,34.20,0,-127.00,"$GNGGA,042445.299,4900.5009,N,00825.4291,E,0,3,,102.1,M,47.9,M,,*57",,,,
2022-04-12T06:25:10+02:00,141,31.72,24.96,998.56,32.10,33.80,0,-127.00,"$GNGGA,042506.096,4900.5127,N,00825.4572,E,0,3,,102.1,M,47.9,M,,*5B",,,,
2022-04-12T06:25:30+02:00,142,31.74,24.93,998.56,31.60,33.20,0,-127.00,"$GNGGA,042526.094,4900.5048,N,00825.4388,E,0,3,,102.1,M,47.9,M,,*50",,,,
2022-04-12T06:25:50+02:00,143,31.76,24.92,998.56,31.60,33.20,0,-127.00,"$GNGGA,042546.094,4900.4906,N,00825.4185,E,0,3,,102.1,M,47.9,M,,*5B",,,,
2022-04-12T06:26:10+02:00,144,31.78,24.88,998.56,31.30,32.90,0,-127.00,"$GNGGA,042606.094,4900.4996,N,00825.4417,E,0,3,,102.1,M,47.9,M,,*5B",,,,
2022-04-12T06:26:30+02:00,145,31.80,24.87,998.56,30.80,32.40,0,-127.00,"$GNGGA,042626.094,4900.5099,N,00825.4596,E,0,3,,102.1,M,47.9,M,,*56",,,,
2022-04-12T06:26:50+02:00,146,31.83,24.79,998.55,30.60,32.20,0,-127.00,"$GNGGA,042646.094,4900.5032,N,00825.4382,E,0,3,,102.1,M,47.9,M,,*52",,,,
2022-04-12T06:27:11+02:00,147,31.86,24.70,998.56,32.30,34.00,0,-127.00,"$GNGGA,042707.094,4900.4872,N,00825.4327,E,0,3,,102.1,M,47.9,M,,*54",,,,
2022-04-12T06:27:31+02:00,148,31.88,24.70,998.56,34.10,35.90,0,-127.00,"$GNGGA,042727.095,4900.4861,N,00825.4545,E,0,0,,102.1,M,47.9,M,,*54",,,,
2022-04-12T06:27:51+02:00,149,31.90,24.69,998.56,34.90,36.70,0,-127.00,"$GNGGA,042747.093,4900.4861,N,00825.4545,E,0,0,,102.1,M,47.9,M,,*54",,,,
2022-04-12T06:28:12+02:00,150,31.93,24.68,998.56,34.00,35.80,0,-127.00,"$GNGGA,042808.093,4900.4861,N,00825.4545,E,0,0,,102.1,M,47.9,M,,*50",,,,
2022-04-12T06:28:32+02:00,151,31.94,24.60,998.57,33.00,34.70,0,-127.00,"$GNGGA,042828.093,4900.4861,N,00825.4545,E,0,0,,102.1,M,47.9,M,,*52",,,,
2022-04-12T06:28:52+02:00,152,31.96,24.56,998.58,32.50,34.20,0,-127.00,"$GNGGA,042848.093,4900.4861,N,00825.4545,E,0,0,,102.1,M,47.9,M,,*54",,,,
2022-04-12T06:29:13+02:00,153,31.97,24.58,998.57,32.90,34.60,0,-127.00,"$GNGGA,042908.308,4900.4861,N,00825.4545,E,0,0,,102.1,M,47.9,M,,*50",,,,
2022-04-12T06:29:33+02:00,154,31.98,24.53,998.57,33.30,35.00,0,-127.00,"$GNGGA,042928.306,4900.4861,N,00825.4545,E,0,0,,102.1,M,47.9,M,,*5C",,,,
2022-04-12T06:29:52+02:00,155,32.00,24.50,998.58,33.70,35.40,0,-127.00,"$GNGGA,042948.095,4900.4861,N,00825.4545,E,0,0,,102.1,M,47.9,M,,*53",,,,
2022-04-12T06:30:12+02:00,156,32.01,24.44,998.58,34.50,36.30,0,-127.00,"$GNGGA,043008.092,4900.4861,N,00825.4545,E,0,0,,102.1,M,47.9,M,,*58",,,,
2022-04-12T06:30:32+02:00,157,32.02,24.41,998.58,35.20,37.00,0,-127.00,"$GNGGA,043028.092,4900.4861,N,00825.4545,E,0,0,,102.1,M,47.9,M,,*5A",,,,
2022-04-12T06:30:52+02:00,158,32.04,24.36,998.58,33.20,34.90,0,-127.00,"$GNGGA,043048.092,4900.4861,N,00825.4545,E,0,0,,102.1,M,47.9,M,,*5C",,,,
2022-04-12T06:31:18+02:00,159,32.05,24.34,998.58,32.80,34.50,0,-127.00,"$GNGGA,043112.090,4900.4861,N,00825.4545,E,0,0,,102.1,M,47.9,M,,*50",,,,
2022-04-12T06:31:39+02:00,160,32.08,24.26,998.58,33.90,35.60,0,-127.00,"$GNGGA,043134.090,4900.4861,N,00825.4545,E,0,0,,102.1,M,47.9,M,,*54",,,,
2022-04-12T06:31:58+02:00,161,32.10,24.18,998.58,34.40,36.20,0,-127.00,"$GNGGA,043154.098,4900.4861,N,00825.4545,E,0,0,,102.1,M,47.9,M,,*5A",,,,
2022-04-12T06:32:19+02:00,162,32.12,24.17,998.57,32.80,34.50,0,-127.00,"$GNGGA,043215.093,4900.4861,N,00825.4545,E,0,0,,102.1,M,47.9,M,,*57",,,,
2022-04-12T06:32:39+02:00,163,32.13,24.16,998.56,31.20,32.80,0,-127.00,"$GNGGA,043235.093,4900.4861,N,00825.4545,E,0,0,,102.1,M,47.9,M,,*55",,,,
2022-04-12T06:32:59+02:00,164,32.15,24.11,998.55,30.90,32.50,0,-127.00,"$GNGGA,043255.091,4900.4861,N,00825.4545,E,0,0,,102.1,M,47.9,M,,*51",,,,
2022-04-12T06:33:20+02:00,165,32.17,24.09,998.55,31.20,32.80,0,-127.00,"$GNGGA,043316.091,4900.4861,N,00825.4545,E,0,0,,102.1,M,47.9,M,,*57",,,,
2022-04-12T06:33:40+02:00,166,32.18,24.06,998.54,31.40,33.00,0,-127.00,"$GNGGA,043336.103,4900.4861,N,00825.4545,E,0,0,,102.1,M,47.9,M,,*5F",,,,
2022-04-12T06:34:00+02:00,167,32.20,23.99,998.54,31.40,33.00,0,-127.00,"$GNGGA,043356.296,4900.4861,N,00825.4545,E,0,0,,102.1,M,47.9,M,,*56",,,,
2022-04-12T06:34:21+02:00,168,32.22,23.97,998.54,31.30,32.90,0,-127.00,"$GNGGA,043417.096,4900.4861,N,00825.4545,E,0,0,,102.1,M,47.9,M,,*56",,,,
2022-04-12T06:34:42+02:00,169,32.24,23.98,998.53,31.40,33.00,0,-127.00,"$GNGGA,043437.307,4900.4861,N,00825.4545,E,0,0,,102.1,M,47.9,M,,*5F",,,,
2022-04-12T06:35:02+02:00,170,32.26,23.95,998.54,31.30,32.90,0,-127.00,"$GNGGA,043457.306,4900.4861,N,00825.4545,E,0,0,,102.1,M,47.9,M,,*58",,,,
2022-04-12T06:35:22+02:00,171,32.27,23.91,998.54,32.10,33.80,0,-127.00,"$GNGGA,043518.094,4900.4861,N,00825.4545,E,0,0,,102.1,M,47.9,M,,*5A",,,,
2022-04-12T06:35:42+02:00,172,32.28,23.91,998.54,32.80,34.50,0,-127.00,"$GNGGA,043538.094,4900.4861,N,00825.4545,E,0,0,,102.1,M,47.9,M,,*58",,,,
2022-04-12T06:36:02+02:00,173,32.30,23.87,998.55,33.00,34.70,0,-127.00,"$GNGGA,043558.094,4900.4861,N,00825.4545,E,0,0,,102.1,M,47.9,M,,*5E",,,,
2022-04-12T06:36:22+02:00,174,32.32,23.80,998.56,32.70,34.40,0,-127.00,"$GNGGA,043618.093,4900.4861,N,00825.4545,E,0,0,,102.1,M,47.9,M,,*5E",,,,
2022-04-12T06:36:42+02:00,175,32.34,23.77,998.57,32.50,34.20,0,-127.00,"$GNGGA,043638.093,4900.4861,N,00825.4545,E,0,0,,102.1,M,47.9,M,,*5C",,,,
2022-04-12T06:37:02+02:00,176,32.36,23.72,998.57,33.20,34.90,0,-127.00,"$GNGGA,043658.093,4900.4861,N,00825.4545,E,0,0,,102.1,M,47.9,M,,*5A",,,,
2022-04-12T06:37:23+02:00,177,32.38,23.68,998.58,33.60,35.30,0,-127.00,"$GNGGA,043718.090,4900.4861,N,00825.4545,E,0,0,,102.1,M,47.9,M,,*5C",,,,
2022-04-12T06:37:44+02:00,178,32.40,23.65,998.59,34.20,36.00,0,-127.00,"$GNGGA,043739.313,4900.4861,N,00825.4545,E,0,0,,102.1,M,47.9,M,,*57",,,,
2022-04-12T06:38:05+02:00,179,32.41,23.65,998.60,34.80,36.60,0,-127.00,"$GNGGA,043800.089,4900.4861,N,00825.4545,E,0,0,,102.1,M,47.9,M,,*52",,,,
2022-04-12T06:38:25+02:00,180,32.42,23.62,998.60,35.10,36.90,0,-127.00,"$GNGGA,043820.102,4900.5279,N,00825.3997,E,0,3,,102.1,M,47.9,M,,*57",,,,
2022-04-12T06:38:44+02:00,181,32.44,23.59,998.60,34.50,36.30,0,-127.00,"$GNGGA,043840.095,4900.5216,N,00825.4336,E,0,3,,102.1,M,47.9,M,,*51",,,,
2022-04-12T06:39:05+02:00,182,32.44,23.58,998.61,33.80,35.50,0,-127.00,"$GNGGA,043901.095,4900.5219,N,00825.4383,E,0,3,,102.1,M,47.9,M,,*54",,,,
2022-04-12T06:39:25+02:00,183,32.45,23.56,998.61,33.00,34.70,0,-127.00,"$GNGGA,043921.095,4900.5255,N,00825.4232,E,0,3,,102.1,M,47.9,M,,*55",,,,
2022-04-12T06:39:46+02:00,184,32.47,23.57,998.61,33.10,34.80,0,-127.00,"$GNGGA,043941.312,4900.5299,N,00825.3954,E,0,3,,102.1,M,47.9,M,,*53",,,,
2022-04-12T06:40:07+02:00,185,32.48,23.49,998.61,32.00,33.70,0,-127.00,"$GNGGA,044002.308,4900.5266,N,00825.4355,E,0,3,,102.1,M,47.9,M,,*5D",,,,
2022-04-12T06:40:26+02:00,186,32.49,23.44,998.61,31.70,33.30,0,-127.00,"$GNGGA,044021.309,4900.5261,N,00825.4504,E,0,3,,102.1,M,47.9,M,,*58",,,,
2022-04-12T06:40:45+02:00,187,32.51,23.44,998.61,31.50,33.10,0,-127.00,"$GNGGA,044041.095,4900.5285,N,00825.4084,E,0,3,,102.1,M,47.9,M,,*5F",,,,
2022-04-12T06:41:05+02:00,188,32.53,23.41,998.61,32.60,34.30,0,-127.00,"$GNGGA,044101.099,4900.5252,N,00825.4478,E,0,3,,102.1,M,47.9,M,,*5B",,,,
2022-04-12T06:41:25+02:00,189,32.54,23.38,998.61,32.90,34.60,0,-127.00,"$GNGGA,044120.309,4900.5264,N,00825.4319,E,0,3,,102.1,M,47.9,M,,*57",,,,
2022-04-12T06:41:44+02:00,190,32.56,23.32,998.60,34.20,36.00,0,-127.00,"$GNGGA,044140.102,4900.5317,N,00825.3701,E,0,3,,102.1,M,47.9,M,,*57",,,,
2022-04-12T06:42:05+02:00,191,32.57,23.30,998.61,33.50,35.20,0,-127.00,"$GNGGA,044200.090,4900.5278,N,00825.4116,E,0,3,,102.1,M,47.9,M,,*55",,,,
2022-04-12T06:42:24+02:00,192,32.58,23.26,998.61,33.20,34.90,0,-127.00,"$GNGGA,044219.306,4900.5253,N,00825.4424,E,0,3,,102.1,M,47.9,M,,*5C",,,,
2022-04-12T06:42:45+02:00,193,32.60,23.23,998.60,31.70,33.30,0,-127.00,"$GNGGA,044240.309,4900.5267,N,00825.4422,E,0,3,,102.1,M,47.9,M,,*5E",,,,
2022-04-12T06:43:04+02:00,194,32.62,23.19,998.60,32.20,33.90,0,-127.00,"$GNGGA,044300.101,4900.5265,N,00825.4200,E,0,3,,102.1,M,47.9,M,,*55",,,,
2022-04-12T06:43:24+02:00,195,32.64,23.18,998.59,33.10,34.80,0,-127.00,"$GNGGA,044320.097,4900.5263,N,00825.4247,E,0,3,,102.1,M,47.9,M,,*5C",,,,
2022-04-12T06:43:45+02:00,196,32.66,23.15,998.58,33.90,35.60,0,-127.00,"$GNGGA,044340.307,4900.5244,N,00825.4335,E,0,3,,102.1,M,47.9,M,,*51",,,,
2022-04-12T06:44:04+02:00,197,32.67,23.18,998.59,33.30,35.00,0,-127.00,"$GNGGA,044400.096,4900.5264,N,00825.4258,E,0,3,,102.1,M,47.9,M,,*51",,,,
2022-04-12T06:44:24+02:00,198,32.69,23.12,998.59,32.60,34.30,0,-127.00,"$GNGGA,044420.096,4900.5252,N,00825.4307,E,0,3,,102.1,M,47.9,M,,*5D",,,,
2022-04-12T06:44:45+02:00,199,32.70,23.18,998.58,31.70,33.30,0,-127.00,"$GNGGA,044440.306,4900.5262,N,00825.4337,E,0,3,,102.1,M,47.9,M,,*51",,,,
2022-04-12T06:45:04+02:00,200,32.70,23.24,998.57,32.20,33.90,0,-127.00,"$GNGGA,044500.103,4900.5271,N,00825.4297,E,0,3,,102.1,M,47.9,M,,*5A",,,,
2022-04-12T06:45:24+02:00,201,32.72,23.26,998.58,32.00,33.70,0,-127.00,"$GNGGA,044520.096,4900.5270,N,00825.4038,E,0,3,,102.1,M,47.9,M,,*53",,,,
2022-04-12T06:45:44+02:00,202,32.72,23.17,998.57,32.20,33.90,0,-127.00,"$GNGGA,044540.096,4900.5257,N,00825.4280,E,0,3,,102.1,M,47.9,M,,*51",,,,
2022-04-12T06:46:04+02:00,203,32.73,23.22,998.58,31.80,33.40,0,-127.00,"$GNGGA,044600.093,4900.5257,N,00825.4286,E,0,3,,102.1,M,47.9,M,,*55",,,,
2022-04-12T06:46:25+02:00,204,32.75,23.34,998.58,32.10,33.80,0,-127.00,"$GNGGA,044620.311,4900.5240,N,00825.4296,E,0,3,,102.1,M,47.9,M,,*59",,,,
2022-04-12T06:46:45+02:00,205,32.76,23.25,998.58,32.50,34.20,0,-127.00,"$GNGGA,044641.096,4900.5236,N,00825.4452,E,0,3,,102.1,M,47.9,M,,*5D",,,,
2022-04-12T06:47:05+02:00,206,32.77,23.17,998.58,32.60,34.30,0,-127.00,"$GNGGA,044701.092,4900.5245,N,00825.4421,E,0,3,,102.1,M,47.9,M,,*5C",,,,
2022-04-12T06:47:25+02:00,207,32.78,23.20,998.57,32.00,33.70,0,-127.00,"$GNGGA,044720.308,4900.5250,N,00825.4347,E,0,3,,102.1,M,47.9,M,,*5C",,,,
2022-04-12T06:47:44+02:00,208,32.79,23.34,998.57,31.60,33.20,0,-127.00,"$GNGGA,044740.097,4900.5214,N,00825.4454,E,0,3,,102.1,M,47.9,M,,*5A",,,,
2022-04-12T06:48:05+02:00,209,32.80,23.30,998.57,31.20,32.80,0,-127.00,"$GNGGA,044800.086,4900.5232,N,00825.4480,E,0,3,,102.1,M,47.9,M,,*5C",,,,
2022-04-12T06:48:25+02:00,210,32.82,23.33,998.56,31.70,33.30,0,-127.00,"$GNGGA,044820.307,4900.5249,N,00825.4053,E,0,3,,102.1,M,47.9,M,,*52",,,,
2022-04-12T06:48:44+02:00,211,32.82,23.25,998.57,31.60,33.20,0,-127.00,"$GNGGA,044840.100,4900.5228,N,00825.4298,E,0,3,,102.1,M,47.9,M,,*53",,,,
2022-04-12T06:49:04+02:00,212,32.84,23.32,998.57,31.70,33.30,0,-127.00,"$GNGGA,044900.093,4900.5204,N,00825.4544,E,0,3,,102.1,M,47.9,M,,*55",,,,
2022-04-12T06:49:25+02:00,213,32.85,23.32,998.57,31.50,33.10,0,-127.00,"$GNGGA,044920.311,4900.5225,N,00825.4439,E,0,3,,102.1,M,47.9,M,,*56",,,,
2022-04-12T06:49:46+02:00,214,32.85,23.32,998.57,31.30,32.90,0,-127.00,"$GNGGA,044941.092,4900.5259,N,00825.3822,E,0,3,,102.1,M,47.9,M,,*53",,,,
2022-04-12T06:50:05+02:00,215,32.86,23.29,998.57,31.40,33.00,0,-127.00,"$GNGGA,045001.095,4900.5204,N,00825.4299,E,0,3,,102.1,M,47.9,M,,*5D",,,,
2022-04-12T06:50:26+02:00,216,32.88,23.13,998.57,31.80,33.40,0,-127.00,"$GNGGA,045021.306,4900.5174,N,00825.4559,E,0,3,,102.1,M,47.9,M,,*59",,,,
2022-04-12T06:50:45+02:00,217,32.89,23.06,998.57,32.50,34.20,0,-127.00,"$GNGGA,045041.101,4900.5324,N,00825.3896,E,0,3,,102.1,M,47.9,M,,*54",,,,
2022-04-12T06:51:05+02:00,218,32.90,23.02,998.58,32.40,34.10,0,-127.00,"$GNGGA,045101.094,4900.5254,N,00825.4458,E,0,3,,102.1,M,47.9,M,,*53",,,,
2022-04-12T06:51:26+02:00,219,32.92,23.01,998.58,32.20,33.90,0,-127.00,"$GNGGA,045122.094,4900.5241,N,00825.4730,E,0,3,,102.1,M,47.9,M,,*5B",,,,
2022-04-12T06:51:46+02:00,220,32.92,23.05,998.59,32.00,33.70,0,-127.00,"$GNGGA,045142.094,4900.5154,N,00825.4635,E,0,3,,102.1,M,47.9,M,,*5E",,,,
2022-04-12T06:52:06+02:00,221,32.94,23.01,998.59,32.60,34.30,0,-127.00,"$GNGGA,045202.094,4900.5251,N,00825.3889,E,0,3,,102.1,M,47.9,M,,*51",,,,
2022-04-12T06:52:27+02:00,222,32.95,23.09,998.59,33.10,34.80,0,-127.00,"$GNGGA,045223.094,4900.5337,N,00825.4211,E,0,3,,102.1,M,47.9,M,,*5F",,,,
2022-04-12T06:52:47+02:00,223,32.96,23.09,998.59,33.00,34.70,0,-127.00,"$GNGGA,045242.310,4900.5249,N,00825.4640,E,0,3,,102.1,M,47.9,M,,*5F",,,,
2022-04-12T06:53:07+02:00,224,32.97,23.11,998.60,32.50,34.20,0,-127.00,"$GNGGA,045302.311,4900.5314,N,00825.4283,E,0,3,,102.1,M,47.9,M,,*59",,,,
2022-04-12T06:53:27+02:00,225,32.99,23.12,998.60,32.60,34.30,0,-127.00,"$GNGGA,045323.101,4900.5289,N,00825.4341,E,0,3,,102.1,M,47.9,M,,*53",,,,
2022-04-12T06:53:47+02:00,226,33.00,23.04,998.60,32.40,34.10,0,-127.00,"$GNGGA,045342.308,4900.5247,N,00825.4540,E,0,3,,102.1,M,47.9,M,,*5A",,,,
2022-04-12T06:54:06+02:00,227,33.01,23.04,998.61,32.90,34.60,0,-127.00,"$GNGGA,045402.104,4900.5266,N,00825.4751,E,0,3,,102.1,M,47.9,M,,*56",,,,
2022-04-12T06:54:27+02:00,228,33.03,22.96,998.61,32.20,33.90,0,-127.00,"$GNGGA,045423.100,4900.5331,N,00825.3758,E,0,3,,102.1,M,47.9,M,,*5C",,,,
2022-04-12T06:54:47+02:00,229,33.03,22.90,998.61,32.10,33.80,0,-127.00,"$GNGGA,045442.313,4900.5221,N,00825.4544,E,0,3,,102.1,M,47.9,M,,*53",,,,
2022-04-12T06:55:07+02:00,230,33.05,22.83,998.61,31.50,33.10,0,-127.00,"$GNGGA,045503.096,4900.5201,N,00825.4806,E,0,3,,102.1,M,47.9,M,,*50",,,,
2022-04-12T06:55:29+02:00,231,33.06,22.88,998.61,31.50,33.10,0,-127.00,"$GNGGA,045524.000,4900.5280,N,00825.4035,E,0,4,,72.8,M,47.9,M,,*63",,,,
2022-04-12T06:55:49+02:00,232,33.06,22.93,998.61,31.60,33.20,0,-127.00,"$GNGGA,045544.000,4900.5229,N,00825.4529,E,1,4,3.99,100.0,M,47.9,M,,*4E",,,,
2022-04-12T06:56:09+02:00,233,33.06,22.83,998.62,31.20,32.80,0,-127.00,"$GNGGA,045604.000,4900.5265,N,00825.3974,E,1,4,3.99,84.4,M,47.9,M,,*7B",,,,
2022-04-12T06:56:30+02:00,234,33.07,22.84,998.61,31.70,33.30,0,-127.00,"$GNGGA,045625.000,4900.5308,N,00825.3603,E,1,4,3.99,70.9,M,47.9,M,,*7B",,,,
2022-04-12T06:56:50+02:00,235,33.07,22.81,998.61,32.60,34.30,0,-127.00,"$GNGGA,045645.000,4900.5324,N,00825.3771,E,1,4,3.98,78.8,M,47.9,M,,*7F",,,,
2022-04-12T06:57:11+02:00,236,33.08,22.90,998.62,33.20,34.90,0,-127.00,"$GNGGA,045706.000,4900.5310,N,00825.3846,E,1,4,3.98,70.5,M,47.9,M,,*70",,,,
2022-04-12T06:57:32+02:00,237,33.09,22.83,998.63,33.10,34.80,0,-127.00,"$GNGGA,045727.000,4900.5311,N,00825.3862,E,1,3,12.00,65.8,M,47.9,M,,*4B",,,,
2022-04-12T06:57:52+02:00,238,33.10,22.71,998.62,31.90,33.50,0,-127.00,"$GNGGA,045747.000,4900.5399,N,00825.3068,E,1,3,12.08,66.4,M,47.9,M,,*48",,,,
2022-04-12T06:58:12+02:00,239,33.11,22.76,998.62,31.20,32.80,0,-127.00,"$GNGGA,045807.000,4900.5342,N,00825.3490,E,1,3,12.15,66.2,M,47.9,M,,*4C",,,,
2022-04-12T06:58:33+02:00,240,33.12,22.73,998.62,30.70,32.30,0,-127.00,"$GNGGA,045828.000,4900.5276,N,00825.4110,E,1,4,3.97,65.5,M,47.9,M,,*74",,,,
2022-04-12T06:58:53+02:00,241,33.13,22.69,998.62,32.60,34.30,0,-127.00,"$GNGGA,045848.000,4900.5253,N,00825.4300,E,1,4,3.97,66.3,M,47.9,M,,*73",,,,
2022-04-12T06:59:13+02:00,242,33.14,22.64,998.61,33.30,35.00,0,-127.00,"$GNGGA,045908.000,4900.5307,N,00825.4303,E,1,4,3.97,68.0,M,47.9,M,,*78",,,,
2022-04-12T06:59:34+02:00,243,33.14,22.67,998.60,33.50,35.20,0,-127.00,"$GNGGA,045929.000,4900.5244,N,00825.3912,E,1,4,3.97,67.4,M,47.9,M,,*7B",,,,
2022-04-12T06:59:54+02:00,244,33.14,22.65,998.60,32.10,33.80,0,-127.00,"$GNGGA,045949.000,4900.5249,N,00825.3967,E,1,4,3.97,65.6,M,47.9,M,,*72",,,,
2022-04-12T07:00:15+02:00,245,33.15,22.74,998.60,31.70,33.30,0,-127.00,"$GNGGA,050010.000,4900.5349,N,00825.4016,E,1,4,3.97,66.1,M,47.9,M,,*7E",,,,
2022-04-12T07:00:36+02:00,246,33.14,22.66,998.60,31.40,33.00,0,-127.00,"$GNGGA,050031.000,4900.5290,N,00825.4174,E,1,4,3.96,66.6,M,47.9,M,,*7B",,,,
2022-04-12T07:00:56+02:00,247,33.14,22.65,998.60,31.20,32.80,0,-127.00,"$GNGGA,050051.000,4900.5280,N,00825.3629,E,1,4,3.96,64.3,M,47.9,M,,*73",,,,
2022-04-12T07:01:16+02:00,248,33.15,22.58,998.59,31.20,32.80,0,-127.00,"$GNGGA,050111.000,4900.5279,N,00825.3639,E,1,4,3.96,65.7,M,47.9,M,,*74",,,,
2022-04-12T07:01:37+02:00,249,33.16,22.56,998.60,32.10,33.80,0,-127.00,"$GNGGA,050132.000,4900.5297,N,00825.3677,E,1,4,3.96,72.0,M,47.9,M,,*7E",,,,
2022-04-12T07:01:57+02:00,250,33.17,22.56,998.61,32.50,34.20,0,-127.00,"$GNGGA,050152.000,4900.5263,N,00825.3673,E,1,4,3.96,70.7,M,47.9,M,,*72",,,,
2022-04-12T07:02:18+02:00,251,33.18,22.70,998.61,32.90,34.60,0,-127.00,"$GNGGA,050213.000,4900.5302,N,00825.3311,E,1,4,3.96,67.8,M,47.9,M,,*7A",,,,
2022-04-12T07:02:39+02:00,252,33.19,22.67,998.62,32.10,33.80,0,-127.00,"$GNGGA,050234.000,4900.5314,N,00825.3206,E,1,4,12.78,69.1,M,47.9,M,,*48",,,,
2022-04-12T07:03:00+02:00,253,33.21,22.63,998.61,31.30,32.90,0,-127.00,"$GNGGA,050255.000,4900.5265,N,00825.3357,E,1,4,3.96,66.7,M,47.9,M,,*74",,,,
2022-04-12T07:03:21+02:00,254,33.21,22.61,998.60,31.40,33.00,0,-127.00,"$GNGGA,050316.000,4900.5258,N,00825.3458,E,1,4,3.96,66.8,M,47.9,M,,*7B",,,,
2022-04-12T07:03:42+02:00,255,33.21,22.60,998.59,31.70,33.30,0,-127.00,"$GNGGA,050337.000,4900.5288,N,00825.3548,E,1,4,3.95,73.6,M,47.9,M,,*7C",,,,
2022-04-12T07:04:02+02:00,256,33.21,22.67,998.59,32.50,34.20,0,-127.00,"$GNGGA,050357.000,4900.5272,N,00825.3538,E,1,4,3.95,76.4,M,47.9,M,,*7F",,,,
2022-04-12T07:04:22+02:00,257,33.22,22.57,998.59,32.60,34.30,0,-127.00,"$GNGGA,050417.000,4900.5266,N,00825.3674,E,1,4,12.29,78.5,M,47.9,M,,*4A",,,,
2022-04-12T07:04:43+02:00,258,33.23,22.56,998.59,33.00,34.70,0,-127.00,"$GNGGA,050438.000,4900.5307,N,00825.3804,E,1,4,3.96,84.5,M,47.9,M,,*7F",,,,
2022-04-12T07:05:03+02:00,259,33.24,22.54,998.59,32.00,33.70,0,-127.00,"$GNGGA,050458.000,4900.5308,N,00825.3983,E,1,4,3.95,89.2,M,47.9,M,,*71",,,,
2022-04-12T07:05:23+02:00,260,33.25,22.44,998.59,31.90,33.50,0,-127.00,"$GNGGA,050518.000,4900.5312,N,00825.3943,E,1,4,12.02,89.0,M,47.9,M,,*4F",,,,
2022-04-12T07:05:44+02:00,261,33.26,22.47,998.57,31.50,33.10,0,-127.00,"$GNGGA,050539.000,4900.5354,N,00825.3770,E,1,4,3.95,92.4,M,47.9,M,,*70",,,,
2022-04-12T07:06:04+02:00,262,33.27,22.57,998.56,32.00,33.70,0,-127.00,"$GNGGA,050559.000,4900.5312,N,00825.3683,E,1,4,3.96,95.3,M,47.9,M,,*7A",,,,
2022-04-12T07:06:24+02:00,263,33.28,22.50,998.56,31.90,33.50,0,-127.00,"$GNGGA,050619.000,4900.5317,N,00825.3506,E,1,4,3.96,89.4,M,47.9,M,,*7C",,,,
2022-04-12T07:06:45+02:00,264,33.29,22.38,998.56,32.30,34.00,0,-127.00,"$GNGGA,050640.000,4900.5307,N,00825.3682,E,1,4,3.96,89.0,M,47.9,M,,*7A",,,,
2022-04-12T07:07:05+02:00,265,33.29,22.37,998.57,31.80,33.40,0,-127.00,"$GNGGA,050700.000,4900.5261,N,00825.3984,E,1,4,3.96,96.9,M,47.9,M,,*70",,,,
2022-04-12T07:07:26+02:00,266,33.31,22.31,998.57,32.20,33.90,0,-127.00,"$GNGGA,050721.000,4900.5272,N,00825.4167,E,1,4,3.96,99.8,M,47.9,M,,*7D",,,,
2022-04-12T07:07:47+02:00,267,33.31,22.44,998.57,32.20,33.90,0,-127.00,"$GNGGA,050742.000,4900.5293,N,00825.4241,E,1,4,3.96,98.8,M,47.9,M,,*71",,,,
2022-04-12T07:08:07+02:00,268,33.31,22.42,998.58,32.50,34.20,0,-127.00,"$GNGGA,050802.000,4900.5322,N,00825.4010,E,1,4,11.41,100.6,M,47.9,M,,*70",,,,
2022-04-12T07:08:28+02:00,269,33.32,22.30,998.58,32.30,34.00,0,-127.00,"$GNGGA,050823.000,4900.5274,N,00825.3774,E,1,4,3.96,97.8,M,47.9,M,,*7B",,,,
2022-04-12T07:08:48+02:00,270,33.34,22.35,998.58,32.10,33.80,0,-127.00,"$GNGGA,050843.000,4900.5233,N,00825.3885,E,1,4,3.96,96.1,M,47.9,M,,*77",,,,
2022-04-12T07:09:09+02:00,271,33.35,22.27,998.59,31.90,33.50,0,-127.00,"$GNGGA,050904.000,4900.5324,N,00825.4078,E,1,4,3.97,98.5,M,47.9,M,,*74",,,,
2022-04-12T07:09:30+02:00,272,33.36,22.23,998.60,32.00,33.70,0,-127.00,"$GNGGA,050925.000,4900.5265,N,00825.4203,E,1,4,3.97,102.1,M,47.9,M,,*4B",,,,
2022-04-12T07:09:50+02:00,273,33.37,22.24,998.59,31.30,32.90,0,-127.00,"$GNGGA,050945.000,4900.5313,N,00825.4077,E,1,4,3.97,101.1,M,47.9,M,,*4F",,,,
2022-04-12T07:10:10+02:00,274,33.38,22.25,998.61,33.20,34.90,0,-127.00,"$GNGGA,051005.000,4900.5270,N,00825.3739,E,1,4,3.97,100.0,M,47.9,M,,*4D",,,,
2022-04-12T07:10:31+02:00,275,33.39,22.18,998.60,33.40,35.10,0,-127.00,"$GNGGA,051026.000,4900.5275,N,00825.4225,E,1,4,3.97,101.3,M,47.9,M,,*44",,,,
2022-04-12T07:10:51+02:00,276,33.40,22.22,998.61,34.30,36.10,0,-127.00,"$GNGGA,051046.000,4900.5272,N,00825.4246,E,1,4,3.98,99.0,M,47.9,M,,*7C",,,,
2022-04-12T07:11:11+02:00,277,33.41,22.27,998.61,32.60,34.30,0,-127.00,"$GNGGA,051106.000,4900.5322,N,00825.4468,E,1,4,3.98,98.6,M,47.9,M,,*70",,,,
2022-04-12T07:11:32+02:00,278,33.42,22.24,998.61,31.60,33.20,0,-127.00,"$GNGGA,051127.000,4900.5278,N,00825.4458,E,1,3,4.74,99.7,M,47.9,M,,*7C",,,,
2022-04-12T07:11:52+02:00,279,33.42,22.16,998.61,31.30,32.90,0,-127.00,"$GNGGA,051147.000,4900.5238,N,00825.4155,E,1,3,4.74,99.9,M,47.9,M,,*78",,,,
2022-04-12T07:12:12+02:00,280,33.44,22.14,998.62,31.20,32.80,0,-127.00,"$GNGGA,051207.000,4900.5232,N,00825.4077,E,1,3,4.74,99.9,M,47.9,M,,*74",,,,
2022-04-12T07:12:33+02:00,281,33.44,22.09,998.62,31.30,32.90,0,-127.00,"$GNGGA,051228.000,4900.5267,N,00825.4001,E,1,3,4.74,99.8,M,47.9,M,,*79",,,,
2022-04-12T07:12:53+02:00,282,33.44,22.06,998.62,32.70,34.40,0,-127.00,"$GNGGA,051248.000,4900.5231,N,00825.4063,E,1,3,4.74,99.8,M,47.9,M,,*78",,,,
2022-04-12T07:13:13+02:00,283,33.45,22.07,998.63,33.20,34.90,0,-127.00,"$GNGGA,051308.000,4900.5212,N,00825.4085,E,1,3,4.75,99.9,M,47.9,M,,*74",,,,
2022-04-12T07:13:34+02:00,284,33.45,22.10,998.62,33.20,34.90,0,-127.00,"$GNGGA,051329.000,4900.5293,N,00825.4277,E,1,3,4.75,100.0,M,47.9,M,,*49",,,,
2022-04-12T07:13:54+02:00,285,33.45,22.10,998.63,33.10,34.80,0,-127.00,"$GNGGA,051349.000,4900.5244,N,00825.3841,E,1,3,4.75,100.1,M,47.9,M,,*4C",,,,
2022-04-12T07:14:14+02:00,286,33.45,22.11,998.64,32.90,34.60,0,-127.00,"$GNGGA,051409.000,4900.5218,N,00825.4008,E,1,3,4.75,100.1,M,47.9,M,,*44",,,,
2022-04-12T07:14:35+02:00,287,33.45,22.23,998.64,33.20,34.90,0,-127.00,"$GNGGA,051430.000,4900.5282,N,00825.4228,E,1,3,4.75,100.1,M,47.9,M,,*4D",,,,
2022-04-12T07:14:55+02:00,288,33.46,22.08,998.65,32.30,34.00,0,-127.00,"$GNGGA,051450.000,4900.5242,N,00825.3910,E,1,3,4.76,100.2,M,47.9,M,,*40",,,,
2022-04-12T07:15:15+02:00,289,33.46,22.04,998.64,32.00,33.70,0,-127.00,"$GNGGA,051510.000,4900.5229,N,00825.3984,E,1,3,4.76,100.2,M,47.9,M,,*45",,,,
2022-04-12T07:15:36+02:00,290,33.47,22.00,998.65,32.20,33.90,0,-127.00,"$GNGGA,051531.000,4900.5362,N,00825.4356,E,1,3,4.76,100.3,M,47.9,M,,*4B",,,,
2022-04-12T07:15:56+02:00,291,33.47,22.02,998.65,32.10,33.80,0,-127.00,"$GNGGA,051551.000,4900.5290,N,00825.4301,E,1,3,4.76,100.7,M,47.9,M,,*47",,,,
2022-04-12T07:16:16+02:00,292,33.48,21.98,998.66,32.90,34.60,0,-127.00,"$GNGGA,051611.000,4900.5020,N,00825.4197,E,1,3,4.77,100.7,M,47.9,M,,*45",,,,
2022-04-12T07:16:37+02:00,293,33.49,22.07,998.67,33.20,34.90,0,-127.00,"$GNGGA,051632.000,4900.5096,N,00825.4124,E,6,2,99.99,100.8,M,47.9,M,,*7C",,,,
2022-04-12T07:16:57+02:00,294,33.49,22.07,998.67,33.00,34.70,0,-127.00,"$GNGGA,051652.000,4900.5146,N,00825.4007,E,0,2,,100.8,M,47.9,M,,*5E",,,,
2022-04-12T07:17:17+02:00,295,33.50,22.08,998.68,31.30,32.90,0,-127.00,"$GNGGA,051712.000,4900.5131,N,00825.3991,E,1,3,4.77,100.5,M,47.9,M,,*4D",,,,
2022-04-12T07:17:38+02:00,296,33.50,22.08,998.67,32.10,33.80,0,-127.00,"$GNGGA,051733.000,4900.5136,N,00825.4192,E,1,3,4.78,100.5,M,47.9,M,,*4A",,,,
2022-04-12T07:17:58+02:00,297,33.51,22.00,998.67,33.00,34.70,0,-127.00,"$GNGGA,051753.000,4900.5224,N,00825.4285,E,1,3,4.78,100.7,M,47.9,M,,*4B",,,,
2022-04-12T07:18:18+02:00,298,33.52,22.00,998.67,34.10,35.90,0,-127.00,"$GNGGA,051813.000,4900.5075,N,00825.3950,E,6,2,99.99,101.2,M,47.9,M,,*7B",,,,
2022-04-12T07:18:39+02:00,299,33.52,22.02,998.68,33.00,34.70,0,-127.00,"$GNGGA,051834.000,4900.5491,N,00825.4058,E,0,2,,102.0,M,47.9,M,,*5F",,,,
2022-04-12T07:18:59+02:00,300,33.53,21.99,998.68,32.10,33.80,0,-127.00,"$GNGGA,051854.000,4900.5502,N,00825.4410,E,1,3,4.79,102.2,M,47.9,M,,*4C",,,,
2022-04-12T07:19:19+02:00,301,33.54,22.06,998.68,31.80,33.40,0,-127.00,"$GNGGA,051914.000,4900.5218,N,00825.4344,E,1,3,4.79,102.2,M,47.9,M,,*43",,,,
2022-04-12T07:19:40+02:00,302,33.55,21.91,998.69,31.80,33.40,0,-127.00,"$GNGGA,051935.000,4900.5166,N,00825.4163,E,1,3,4.80,102.8,M,47.9,M,,*41",,,,
2022-04-12T07:20:00+02:00,303,33.55,21.87,998.70,30.90,32.50,0,-127.00,"$GNGGA,051955.000,4900.5199,N,00825.4045,E,1,3,4.80,103.3,M,47.9,M,,*48",,,,
2022-04-12T07:20:20+02:00,304,33.57,21.79,998.70,31.10,32.70,0,-127.00,"$GNGGA,052015.000,4900.5185,N,00825.4095,E,1,3,4.81,103.8,M,47.9,M,,*4C",,,,
2022-04-12T07:20:41+02:00,305,33.57,21.78,998.69,33.10,34.80,0,-127.00,"$GNGGA,052036.000,4900.5107,N,00825.4211,E,1,3,4.81,104.1,M,47.9,M,,*47",,,,
2022-04-12T07:21:01+02:00,306,33.58,21.82,998.69,33.70,35.40,0,-127.00,"$GNGGA,052056.000,4900.5127,N,00825.4441,E,1,3,4.82,104.4,M,47.9,M,,*46",,,,
2022-04-12T07:21:22+02:00,307,33.59,21.79,998.69,33.70,35.40,0,-127.00,"$GNGGA,052117.000,4900.5140,N,00825.4324,E,1,3,4.82,104.7,M,47.9,M,,*44",,,,
2022-04-12T07:21:43+02:00,308,33.60,21.79,998.68,32.10,33.80,0,-127.00,"$GNGGA,052138.000,4900.5169,N,00825.4176,E,1,3,4.83,104.8,M,47.9,M,,*49",,,,
2022-04-12T07:22:03+02:00,309,33.59,21.79,998.68,31.70,33.30,0,-127.00,"$GNGGA,052158.000,4900.5069,N,00825.4185,E,1,3,4.83,105.0,M,47.9,M,,*4B",,,,
2022-04-12T07:22:23+02:00,310,33.60,21.77,998.68,31.40,33.00,0,-127.00,"$GNGGA,052218.000,4900.5034,N,00825.4125,E,1,3,4.84,105.2,M,47.9,M,,*4B",,,,
2022-04-12T07:22:44+02:00,311,33.61,21.90,998.68,32.80,34.50,0,-127.00,"$GNGGA,052239.000,4900.5316,N,00825.4167,E,1,3,4.84,105.4,M,47.9,M,,*4B",,,,
2022-04-12T07:23:04+02:00,312,33.61,21.84,998.69,33.80,35.50,0,-127.00,"$GNGGA,052259.000,4900.5400,N,00825.4172,E,1,3,4.85,105.6,M,47.9,M,,*4A",,,,
2022-04-12T07:23:24+02:00,313,33.62,21.81,998.69,33.90,35.60,0,-127.00,"$GNGGA,052319.000,4900.5548,N,00825.3976,E,0,2,,105.8,M,47.9,M,,*50",,,,
2022-04-12T07:23:45+02:00,314,33.62,21.80,998.68,32.50,34.20,0,-127.00,"$GNGGA,052340.000,4900.5374,N,00825.4294,E,0,2,,105.7,M,47.9,M,,*5A",,,,
2022-04-12T07:24:05+02:00,315,33.63,21.79,998.69,32.10,33.80,0,-127.00,"$GNGGA,052400.000,4900.5258,N,00825.4360,E,1,4,4.02,105.7,M,47.9,M,,*43",,,,
2022-04-12T07:24:25+02:00,316,33.64,21.75,998.69,32.60,34.30,0,-127.00,"$GNGGA,052420.000,4900.5241,N,00825.4428,E,1,4,4.02,105.6,M,47.9,M,,*43",,,,
2022-04-12T07:24:46+02:00,317,33.64,21.85,998.69,32.70,34.40,0,-127.00,"$GNGGA,052441.000,4900.5279,N,00825.4107,E,1,4,4.02,106.1,M,47.9,M,,*43",,,,
2022-04-12T07:25:06+02:00,318,33.64,21.75,998.69,32.20,33.90,0,-127.00,"$GNGGA,052501.000,4900.5289,N,00825.4069,E,1,4,7.45,107.2,M,47.9,M,,*42",,,,
2022-04-12T07:25:26+02:00,319,33.65,21.72,998.69,32.40,34.10,0,-127.00,"$GNGGA,052521.000,4900.5219,N,00825.4543,E,1,4,4.02,108.6,M,47.9,M,,*4F",,,,
2022-04-12T07:25:47+02:00,320,33.66,21.70,998.70,33.50,35.20,0,-127.00,"$GNGGA,052542.000,4900.5211,N,00825.4413,E,1,4,4.02,111.5,M,47.9,M,,*4D",,,,
2022-04-12T07:26:07+02:00,321,33.66,21.71,998.70,33.60,35.30,0,-127.00,"$GNGGA,052602.000,4900.5211,N,00825.4475,E,1,4,4.02,113.2,M,47.9,M,,*4F",,,,
2022-04-12T07:26:27+02:00,322,33.67,21.69,998.71,32.60,34.30,0,-127.00,"$GNGGA,052622.000,4900.5212,N,00825.4588,E,1,4,4.03,114.9,M,47.9,M,,*40",,,,
2022-04-12T07:26:48+02:00,323,33.68,21.69,998.71,32.90,34.60,0,-127.00,"$GNGGA,052643.000,4900.5208,N,00825.4611,E,1,4,4.02,117.4,M,47.9,M,,*40",,,,
2022-04-12T07:27:08+02:00,324,33.68,21.67,998.71,33.50,35.20,0,-127.00,"$GNGGA,052703.000,4900.5185,N,00825.4574,E,1,4,4.02,120.5,M,47.9,M,,*46",,,,
2022-04-12T07:27:28+02:00,325,33.69,21.74,998.72,33.50,35.20,0,-127.00,"$GNGGA,052723.000,4900.5176,N,00825.4369,E,1,4,4.02,123.1,M,47.9,M,,*45",,,,
2022-04-12T07:27:49+02:00,326,33.70,21.81,998.72,31.70,33.30,0,-127.00,"$GNGGA,052744.000,4900.5162,N,00825.4303,E,1,4,4.03,125.1,M,47.9,M,,*4A",,,,
2022-04-12T07:28:09+02:00,327,33.70,21.77,998.72,32.00,33.70,0,-127.00,"$GNGGA,052804.000,4900.5123,N,00825.4516,E,1,4,4.03,128.0,M,47.9,M,,*4A",,,,
2022-04-12T07:28:29+02:00,328,33.71,21.69,998.73,32.10,33.80,0,-127.00,"$GNGGA,052824.000,4900.5163,N,00825.4570,E,1,4,4.03,126.5,M,47.9,M,,*47",,,,
2022-04-12T07:28:50+02:00,329,33.72,21.64,998.74,31.80,33.40,0,-127.00,"$GNGGA,052845.000,4900.5165,N,00825.4622,E,1,4,4.03,126.7,M,47.9,M,,*40",,,,
2022-04-12T07:29:10+02:00,330,33.72,21.63,998.75,31.70,33.30,0,-127.00,"$GNGGA,052905.000,4900.5151,N,00825.4463,E,1,4,4.03,129.0,M,47.9,M,,*4D",,,,
2022-04-12T07:29:30+02:00,331,33.73,21.61,998.75,32.00,33.70,0,-127.00,"$GNGGA,052925.000,4900.5214,N,00825.4156,E,1,4,4.04,131.1,M,47.9,M,,*41",,,,
2022-04-12T07:29:51+02:00,332,33.73,21.61,998.76,32.40,34.10,0,-127.00,"$GNGGA,052946.000,4900.5136,N,00825.4614,E,1,4,4.04,130.2,M,47.9,M,,*44",,,,
2022-04-12T07:30:11+02:00,333,33.73,21.59,998.76,31.40,33.00,0,-127.00,"$GNGGA,053006.000,4900.5164,N,00825.4519,E,1,4,4.04,129.3,M,47.9,M,,*48",,,,
2022-04-12T07:30:31+02:00,334,33.74,21.59,998.77,32.00,33.70,0,-127.00,"$GNGGA,053026.000,4900.5155,N,00825.4437,E,1,4,4.04,128.6,M,47.9,M,,*41",,,,
2022-04-12T07:30:52+02:00,335,33.75,21.59,998.77,32.70,34.40,0,-127.00,"$GNGGA,053047.000,4900.5155,N,00825.4545,E,1,4,4.04,130.1,M,47.9,M,,*4C",,,,
2022-04-12T07:31:12+02:00,336,33.75,21.61,998.78,34.30,36.10,0,-127.00,"$GNGGA,053107.000,4900.5156,N,00825.4539,E,1,4,4.04,131.1,M,47.9,M,,*40",,,,
2022-04-12T07:31:32+02:00,337,33.76,21.57,998.79,35.10,36.90,0,-127.00,"$GNGGA,053127.000,4900.5111,N,00825.4478,E,1,4,4.04,130.5,M,47.9,M,,*40",,,,
2022-04-12T07:31:53+02:00,338,33.77,21.61,998.79,35.70,37.50,0,-127.00,"$GNGGA,053148.000,4900.5147,N,00825.4425,E,1,4,4.05,128.8,M,47.9,M,,*47",,,,
2022-04-12T07:32:14+02:00,339,33.76,21.65,998.80,34.10,35.90,0,-127.00,"$GNGGA,053209.000,4900.5178,N,00825.4393,E,1,4,4.05,124.8,M,47.9,M,,*4B",,,,
2022-04-12T07:32:34+02:00,340,33.76,21.68,998.80,33.00,34.70,0,-127.00,"$GNGGA,053229.000,4900.5188,N,00825.4301,E,1,4,4.05,123.3,M,47.9,M,,*41",,,,
2022-04-12T07:32:55+02:00,341,33.75,21.62,998.80,33.10,34.80,0,-127.00,"$GNGGA,053250.000,4900.5216,N,00825.4167,E,1,4,4.05,123.1,M,47.9,M,,*4B",,,,
2022-04-12T07:33:15+02:00,342,33.75,21.62,998.80,35.00,36.80,0,-127.00,"$GNGGA,053310.000,4900.5175,N,00825.4398,E,1,4,4.05,122.9,M,47.9,M,,*43",,,,
2022-04-12T07:33:35+02:00,343,33.75,21.57,998.80,34.00,35.80,0,-127.00,"$GNGGA,053330.000,4900.5189,N,00825.4337,E,1,4,4.06,123.3,M,47.9,M,,*4F",,,,
2022-04-12T07:33:56+02:00,344,33.75,21.59,998.80,33.00,34.70,0,-127.00,"$GNGGA,053351.000,4900.5229,N,00825.4237,E,1,4,7.36,121.6,M,47.9,M,,*47",,,,
2022-04-12T07:34:16+02:00,345,33.76,21.63,998.80,32.70,34.40,0,-127.00,"$GNGGA,053411.000,4900.5245,N,00825.4238,E,1,4,7.37,118.4,M,47.9,M,,*48",,,,
2022-04-12T07:34:36+02:00,346,33.77,21.60,998.80,34.20,36.00,0,-127.00,"$GNGGA,053431.000,4900.5247,N,00825.4326,E,1,4,4.06,117.4,M,47.9,M,,*48",,,,
2022-04-12T07:34:57+02:00,347,33.78,21.57,998.81,34.70,36.50,0,-127.00,"$GNGGA,053452.000,4900.5194,N,00825.4322,E,1,4,4.07,119.1,M,47.9,M,,*4E",,,,
2022-04-12T07:35:17+02:00,348,33.78,21.53,998.81,34.30,36.10,0,-127.00,"$GNGGA,053512.000,4900.5217,N,00825.4333,E,1,4,4.07,118.3,M,47.9,M,,*40",,,,
2022-04-12T07:35:37+02:00,349,33.79,21.53,998.80,33.60,35.30,0,-127.00,"$GNGGA,053532.000,4900.5212,N,00825.4312,E,1,4,4.07,117.8,M,47.9,M,,*40",,,,
2022-04-12T07:35:58+02:00,350,33.80,21.51,998.80,34.10,35.90,0,-127.00,"$GNGGA,053553.000,4900.5208,N,00825.4295,E,1,4,4.07,117.7,M,47.9,M,,*4D",,,,
2022-04-12T07:36:18+02:00,351,33.80,21.51,998.80,34.50,36.30,0,-127.00,"$GNGGA,053613.000,4900.5203,N,00825.4339,E,1,4,4.08,118.9,M,47.9,M,,*48",,,,
2022-04-12T07:36:39+02:00,352,33.81,21.50,998.80,34.00,35.80,0,-127.00,"$GNGGA,053634.000,4900.5214,N,00825.4348,E,1,4,4.08,119.5,M,47.9,M,,*40",,,,
2022-04-12T07:37:00+02:00,353,33.81,21.52,998.80,32.60,34.30,0,-127.00,"$GNGGA,053655.000,4900.5233,N,00825.4324,E,1,4,4.08,117.6,M,47.9,M,,*45",,,,
2022-04-12T07:37:20+02:00,354,33.81,21.64,998.80,31.40,33.00,0,-127.00,"$GNGGA,053715.000,4900.5260,N,00825.4311,E,1,3,4.31,117.4,M,47.9,M,,*4F",,,,
2022-04-12T07:37:40+02:00,355,33.82,21.62,998.80,30.70,32.30,0,-127.00,"$GNGGA,053735.000,4900.5235,N,00825.4405,E,1,4,4.09,118.7,M,47.9,M,,*4F",,,,
2022-04-12T07:38:01+02:00,356,33.82,21.54,998.79,31.10,32.70,0,-127.00,"$GNGGA,053756.000,4900.5211,N,00825.4503,E,1,4,4.09,119.8,M,47.9,M,,*45",,,,
2022-04-12T07:38:21+02:00,357,33.82,21.52,998.79,32.30,34.00,0,-127.00,"$GNGGA,053816.000,4900.5248,N,00825.4337,E,1,4,4.10,118.2,M,47.9,M,,*40",,,,
2022-04-12T07:38:41+02:00,358,33.82,21.57,998.79,32.80,34.50,0,-127.00,"$GNGGA,053836.000,4900.5276,N,00825.4154,E,1,4,4.10,116.2,M,47.9,M,,*46",,,,
2022-04-12T07:39:02+02:00,359,33.83,21.58,998.79,31.80,33.40,0,-127.00,"$GNGGA,053857.000,4900.5261,N,00825.4249,E,1,4,4.10,119.2,M,47.9,M,,*47",,,,
2022-04-12T07:39:22+02:00,360,33.83,21.51,998.81,30.90,32.50,0,-127.00,"$GNGGA,053917.000,4900.5240,N,00825.4403,E,1,4,4.11,121.0,M,47.9,M,,*41",,,,
2022-04-12T07:39:42+02:00,361,33.84,21.47,998.81,30.80,32.40,0,-127.00,"$GNGGA,053937.000,4900.5223,N,00825.4417,E,1,4,4.11,122.0,M,47.9,M,,*40",,,,
2022-04-12T07:40:03+02:00,362,33.86,21.48,998.81,30.80,32.40,0,-127.00,"$GNGGA,053958.000,4900.5232,N,00825.4394,E,1,4,4.11,123.7,M,47.9,M,,*43",,,,
2022-04-12T07:40:23+02:00,363,33.86,21.48,998.81,30.90,32.50,0,-127.00,"$GNGGA,054018.000,4900.5207,N,00825.4497,E,1,4,4.12,126.8,M,47.9,M,,*42",,,,
2022-04-12T07:40:44+02:00,364,33.87,21.46,998.81,32.10,33.80,0,-127.00,"$GNGGA,054039.000,4900.5206,N,00825.4469,E,1,4,4.12,128.4,M,47.9,M,,*43",,,,
2022-04-12T07:41:04+02:00,365,33.87,21.44,998.81,33.60,35.30,0,-127.00,"$GNGGA,054059.000,4900.5187,N,00825.4462,E,1,4,4.13,130.9,M,47.9,M,,*41",,,,
2022-04-12T07:41:24+02:00,366,33.88,21.42,998.81,34.30,36.10,0,-127.00,"$GNGGA,054119.000,4900.5229,N,00825.4336,E,1,4,4.13,130.2,M,47.9,M,,*4E",,,,
2022-04-12T07:41:45+02:00,367,33.89,21.39,998.80,35.10,36.90,0,-127.00,"$GNGGA,054140.000,4900.5249,N,00825.4237,E,1,4,4.14,125.2,M,47.9,M,,*47",,,,
2022-04-12T07:42:05+02:00,368,33.89,21.41,998.80,34.10,35.90,0,-127.00,"$GNGGA,054200.000,4900.5210,N,00825.4372,E,1,4,4.14,125.0,M,47.9,M,,*4E",,,,
2022-04-12T07:42:26+02:00,369,33.90,21.41,998.79,33.10,34.80,0,-127.00,"$GNGGA,054221.000,4900.5178,N,00825.4500,E,1,4,4.15,125.2,M,47.9,M,,*40",,,,
2022-04-12T07:42:47+02:00,370,33.90,21.39,998.80,31.30,32.90,0,-127.00,"$GNGGA,054242.000,4900.5172,N,00825.4576,E,1,4,4.15,129.8,M,47.9,M,,*48",,,,
2022-04-12T07:43:07+02:00,371,33.89,21.40,998.80,31.30,32.90,0,-127.00,"$GNGGA,054302.000,4900.5178,N,00825.4468,E,1,4,4.15,134.3,M,47.9,M,,*4E",,,,
2022-04-12T07:43:27+02:00,372,33.90,21.39,998.80,31.70,33.30,0,-127.00,"$GNGGA,054322.000,4900.5162,N,00825.4397,E,1,4,4.16,134.9,M,47.9,M,,*49",,,,
2022-04-12T07:43:48+02:00,373,33.90,21.40,998.81,32.80,34.50,0,-127.00,"$GNGGA,054343.000,4900.5165,N,00825.4452,E,1,4,4.17,133.8,M,47.9,M,,*40",,,,
2022-04-12T07:44:08+02:00,374,33.90,21.40,998.81,33.40,35.10,0,-127.00,"$GNGGA,054403.000,4900.5166,N,00825.4506,E,1,4,4.17,131.8,M,47.9,M,,*42",,,,
2022-04-12T07:44:28+02:00,375,33.90,21.38,998.81,34.20,36.00,0,-127.00,"$GNGGA,054423.000,4900.5187,N,00825.4531,E,1,4,4.17,130.6,M,47.9,M,,*44",,,,
2022-04-12T07:44:49+02:00,376,33.90,21.39,998.82,34.40,36.20,0,-127.00,"$GNGGA,054444.000,4900.5213,N,00825.4420,E,1,4,4.18,128.8,M,47.9,M,,*42",,,,
2022-04-12T07:45:09+02:00,377,33.90,21.41,998.82,33.60,35.30,0,-127.00,"$GNGGA,054504.000,4900.5199,N,00825.4417,E,1,4,4.19,128.5,M,47.9,M,,*4E",,,,
2022-04-12T07:45:29+02:00,378,33.91,21.41,998.82,32.60,34.30,0,-127.00,"$GNGGA,054524.000,4900.5212,N,00825.4395,E,1,4,4.19,128.3,M,47.9,M,,*47",,,,
2022-04-12T07:45:50+02:00,379,33.91,21.41,998.81,31.30,32.90,0,-127.00,"$GNGGA,054545.000,4900.5224,N,00825.4340,E,1,4,4.20,124.8,M,47.9,M,,*40",,,,
2022-04-12T07:46:10+02:00,380,33.90,21.42,998.82,31.60,33.20,0,-127.00,"$GNGGA,054605.000,4900.5216,N,00825.4321,E,1,4,4.21,124.2,M,47.9,M,,*4A",,,,
2022-04-12T07:46:30+02:00,381,33.91,21.40,998.81,31.70,33.30,0,-127.00,"$GNGGA,054625.000,4900.5215,N,00825.4244,E,1,4,4.21,123.8,M,47.9,M,,*44",,,,
2022-04-12T07:46:51+02:00,382,33.92,21.41,998.81,31.70,33.30,0,-127.00,"$GNGGA,054646.000,4900.5218,N,00825.4199,E,1,4,4.21,122.8,M,47.9,M,,*4E",,,,
2022-04-12T07:47:11+02:00,383,33.92,21.41,998.82,31.10,32.70,0,-127.00,"$GNGGA,054706.000,4900.5229,N,00825.4064,E,1,4,4.22,123.8,M,47.9,M,,*48",,,,
2022-04-12T07:47:32+02:00,384,33.93,21.39,998.82,30.70,32.30,0,-127.00,"$GNGGA,054727.000,4900.5226,N,00825.4163,E,1,4,4.23,124.9,M,47.9,M,,*45",,,,
2022-04-12T07:47:53+02:00,385,33.94,21.39,998.82,30.80,32.40,0,-127.00,"$GNGGA,054748.000,4900.5229,N,00825.4317,E,1,3,4.37,125.0,M,47.9,M,,*48",,,,
2022-04-12T07:48:13+02:00,386,33.94,21.41,998.82,30.60,32.20,0,-127.00,"$GNGGA,054808.000,4900.5242,N,00825.4339,E,1,4,4.24,125.9,M,47.9,M,,*4E",,,,
2022-04-12T07:48:33+02:00,387,33.95,21.39,998.83,30.20,31.80,0,-127.00,"$GNGGA,054828.000,4900.5242,N,00825.4298,E,1,4,4.24,127.5,M,47.9,M,,*48",,,,
2022-04-12T07:48:54+02:00,388,33.95,21.38,998.84,30.60,32.20,0,-127.00,"$GNGGA,054849.000,4900.5225,N,00825.4262,E,1,4,4.25,124.3,M,47.9,M,,*4F",,,,
2022-04-12T07:49:14+02:00,389,33.96,21.37,998.85,32.30,34.00,0,-127.00,"$GNGGA,054909.000,4900.5231,N,00825.4175,E,1,4,4.26,117.5,M,47.9,M,,*4F",,,,
2022-04-12T07:49:34+02:00,390,33.96,21.35,998.85,33.90,35.60,0,-127.00,"$GNGGA,054929.000,4900.5242,N,00825.4140,E,1,4,4.27,115.7,M,47.9,M,,*4E",,,,
2022-04-12T07:49:55+02:00,391,33.97,21.35,998.85,34.80,36.60,0,-127.00,"$GNGGA,054950.000,4900.5252,N,00825.4155,E,1,4,4.27,118.0,M,47.9,M,,*4F",,,,
2022-04-12T07:50:15+02:00,392,33.97,21.36,998.86,33.70,35.40,0,-127.00,"$GNGGA,055010.000,4900.5250,N,00825.4218,E,1,4,4.28,117.7,M,47.9,M,,*4C",,,,
2022-04-12T07:50:35+02:00,393,33.98,21.35,998.87,32.20,33.90,0,-127.00,"$GNGGA,055030.000,4900.5238,N,00825.4322,E,1,4,4.28,117.1,M,47.9,M,,*4E",,,,
2022-04-12T07:50:56+02:00,394,33.98,21.36,998.87,31.10,32.70,0,-127.00,"$GNGGA,055051.000,4900.5234,N,00825.4336,E,1,4,4.29,120.1,M,47.9,M,,*45",,,,
2022-04-12T07:51:16+02:00,395,33.98,21.36,998.87,30.70,32.30,0,-127.00,"$GNGGA,055111.000,4900.5244,N,00825.4486,E,1,4,4.30,122.5,M,47.9,M,,*45",,,,
2022-04-12T07:51:36+02:00,396,33.98,21.37,998.88,31.90,33.50,0,-127.00,"$GNGGA,055131.000,4900.5231,N,00825.4508,E,1,4,4.30,123.6,M,47.9,M,,*40",,,,
2022-04-12T07:51:57+02:00,397,33.99,21.34,998.88,32.50,34.20,0,-127.00,"$GNGGA,055152.000,4900.5214,N,00825.4392,E,1,4,4.31,121.4,M,47.9,M,,*46",,,,
2022-04-12T07:52:17+02:00,398,33.99,21.33,998.88,33.00,34.70,0,-127.00,"$GNGGA,055212.000,4900.5235,N,00825.4363,E,1,4,4.32,122.1,M,47.9,M,,*49",,,,
2022-04-12T07:52:37+02:00,399,33.99,21.31,998.89,31.80,33.40,0,-127.00,"$GNGGA,055232.000,4900.5216,N,00825.4361,E,1,4,4.33,123.6,M,47.9,M,,*4F",,,,
2022-04-12T07:52:58+02:00,400,34.00,21.31,998.90,31.00,32.60,0,-127.00,"$GNGGA,055253.000,4900.5212,N,00825.4308,E,1,4,4.34,123.8,M,47.9,M,,*4A",,,,
2022-04-12T07:53:18+02:00,401,34.00,21.32,998.90,30.40,32.00,0,-127.00,"$GNGGA,055313.000,4900.5218,N,00825.4291,E,1,4,4.34,123.3,M,47.9,M,,*4F",,,,
2022-04-12T07:53:39+02:00,402,34.01,21.28,998.90,31.40,33.00,0,-127.00,"$GNGGA,055334.000,4900.5158,N,00825.4255,E,1,4,4.35,123.9,M,47.9,M,,*4E",,,,
2022-04-12T07:53:59+02:00,403,34.02,21.28,998.89,32.20,33.90,0,-127.00,"$GNGGA,055354.000,4900.5202,N,00825.4211,E,1,4,4.36,124.8,M,47.9,M,,*41",,,,
2022-04-12T07:54:20+02:00,404,34.03,21.23,998.89,33.60,35.30,0,-127.00,"$GNGGA,055415.000,4900.5156,N,00825.4340,E,1,3,6.23,126.5,M,47.9,M,,*4A",,,,
2022-04-12T07:54:41+02:00,405,34.04,21.23,998.89,33.40,35.10,0,-127.00,"$GNGGA,055436.000,4900.5135,N,00825.4459,E,1,3,6.26,126.4,M,47.9,M,,*45",,,,
2022-04-12T07:55:01+02:00,406,34.04,21.24,998.88,34.40,36.20,0,-127.00,"$GNGGA,055456.000,4900.5141,N,00825.4468,E,1,3,6.29,126.5,M,47.9,M,,*4C",,,,
2022-04-12T07:55:21+02:00,407,34.05,21.22,998.88,35.00,36.80,0,-127.00,"$GNGGA,055516.000,4900.5216,N,00825.4479,E,1,4,7.81,126.6,M,47.9,M,,*4F",,,,
2022-04-12T07:55:42+02:00,408,34.06,21.22,998.88,34.10,35.90,0,-127.00,"$GNGGA,055537.000,4900.5236,N,00825.4454,E,1,3,6.35,128.1,M,47.9,M,,*41",,,,
2022-04-12T07:56:02+02:00,409,34.06,21.23,998.86,32.40,34.10,0,-127.00,"$GNGGA,055557.000,4900.5148,N,00825.4264,E,1,4,4.41,128.5,M,47.9,M,,*4A",,,,
