created_at,entry_id,field1,field2,field3,field4,field5,field6,field7,field8,latitude,longitude,elevation,status
2022-03-07T18:52:20+01:00,1,21.17,18.81,1010.56,36.60,38.50,0,-127.00,"$GNGGA,175215.098,4900.5294,N,00825.4950,E,0,0,,139.8,M,47.9,M,,*50",,,,
2022-03-07T18:52:40+01:00,2,20.57,16.02,1010.59,37.90,39.80,0,-127.00,"$GNGGA,175235.301,4850.3562,N,00800.6719,E,0,1,,215.2,M,47.9,M,,*5D",,,,
2022-03-07T18:53:02+01:00,3,19.78,15.40,1010.61,39.30,41.30,0,-127.00,"$GNGGA,175257.000,4900.5467,N,00825.4167,E,1,4,1.68,157.8,M,47.9,M,,*4D",,,,
2022-03-07T18:53:23+01:00,4,19.14,15.59,1010.61,40.10,42.20,0,-127.00,"$GNGGA,175318.000,4900.5454,N,00825.4126,E,1,6,1.38,134.8,M,47.9,M,,*40",,,,
2022-03-07T18:53:43+01:00,5,18.74,15.74,1010.60,40.40,42.50,0,-127.00,"$GNGGA,175338.000,4900.5437,N,00825.4288,E,1,6,1.38,145.4,M,47.9,M,,*4A",,,,
2022-03-07T18:54:04+01:00,6,18.44,15.51,1010.62,40.10,42.20,0,-127.00,"$GNGGA,175359.000,4900.5437,N,00825.4356,E,1,7,1.27,146.7,M,47.9,M,,*40",,,,
2022-03-07T18:54:24+01:00,7,18.26,15.43,1010.62,41.40,43.50,0,-127.00,"$GNGGA,175419.000,4900.5415,N,00825.4419,E,1,7,1.34,164.1,M,47.9,M,,*4B",,,,
2022-03-07T18:54:44+01:00,8,18.16,15.30,1010.63,41.40,43.50,0,-127.00,"$GNGGA,175439.000,4900.5430,N,00825.4373,E,1,9,1.06,158.1,M,47.9,M,,*45",,,,
2022-03-07T18:55:05+01:00,9,18.15,15.40,1010.64,42.00,44.20,0,-127.00,"$GNGGA,175500.000,4900.5440,N,00825.4364,E,1,10,0.95,154.7,M,47.9,M,,*76",,,,
2022-03-07T18:55:25+01:00,10,18.19,15.42,1010.65,42.30,44.50,0,-127.00,"$GNGGA,175520.000,4900.5458,N,00825.4357,E,1,10,0.95,153.0,M,47.9,M,,*7D",,,,
2022-03-07T18:55:45+01:00,11,18.19,15.22,1010.65,43.90,46.10,0,-127.00,"$GNGGA,175540.000,4900.5452,N,00825.4330,E,1,10,0.95,149.8,M,47.9,M,,*73",,,,
2022-03-07T18:56:06+01:00,12,18.20,15.07,1010.66,43.90,46.10,0,-127.00,"$GNGGA,175601.000,4900.5441,N,00825.4358,E,1,10,0.95,148.2,M,47.9,M,,*72",,,,
2022-03-07T18:56:26+01:00,13,18.04,14.85,1010.67,42.80,45.00,0,-127.00,"$GNGGA,175621.000,4900.5431,N,00825.4317,E,1,9,1.06,146.6,M,47.9,M,,*45",,,,
2022-03-07T18:56:46+01:00,14,17.98,15.21,1010.67,40.60,42.70,0,-127.00,"$GNGGA,175641.000,4900.5444,N,00825.4330,E,2,8,1.10,144.6,M,47.9,M,,*43",,,,
2022-03-07T18:57:07+01:00,15,17.99,15.85,1010.67,39.00,41.00,0,-127.00,"$GNGGA,175702.000,4900.5433,N,00825.4337,E,2,9,0.98,143.5,M,47.9,M,,*46",,,,
2022-03-07T18:57:28+01:00,16,17.95,15.43,1010.68,40.00,42.10,0,-127.00,"$GNGGA,175723.000,4900.5434,N,00825.4306,E,2,10,0.95,141.3,M,47.9,M,,*71",,,,
2022-03-07T18:57:49+01:00,17,17.70,15.07,1010.68,42.10,44.30,0,-127.00,"$GNGGA,175744.000,4900.5429,N,00825.4313,E,2,10,0.95,140.1,M,47.9,M,,*7B",,,,
2022-03-07T18:58:10+01:00,18,17.32,15.33,1010.69,43.20,45.40,0,-127.00,"$GNGGA,175805.000,4900.5423,N,00825.4370,E,2,10,0.95,138.2,M,47.9,M,,*72",,,,
2022-03-07T18:58:30+01:00,19,16.87,15.67,1010.68,42.00,44.20,0,-127.00,"$GNGGA,175825.000,4900.5394,N,00825.4314,E,2,10,0.95,134.3,M,47.9,M,,*74",,,,
2022-03-07T18:58:51+01:00,20,16.64,16.04,1010.69,40.50,42.60,0,-127.00,"$GNGGA,175846.000,4900.5385,N,00825.4305,E,2,10,0.95,129.4,M,47.9,M,,*7A",,,,
2022-03-07T18:59:12+01:00,21,16.36,16.07,1010.70,41.40,43.50,0,-127.00,"$GNGGA,175907.000,4900.5376,N,00825.4291,E,2,10,1.01,124.8,M,47.9,M,,*73",,,,
2022-03-07T18:59:33+01:00,22,16.23,16.18,1010.71,40.00,42.10,0,-127.00,"$GNGGA,175928.000,4900.5381,N,00825.4310,E,2,11,0.89,124.3,M,47.9,M,,*75",,,,
2022-03-07T18:59:54+01:00,23,16.09,16.15,1010.71,41.10,43.20,0,-127.00,"$GNGGA,175949.000,4900.5394,N,00825.4337,E,2,11,0.89,123.7,M,47.9,M,,*70",,,,
2022-03-07T19:00:15+01:00,24,15.90,16.22,1010.71,40.20,42.30,0,-127.00,"$GNGGA,180010.000,4900.5406,N,00825.4383,E,2,11,0.89,122.4,M,47.9,M,,*7E",,,,
2022-03-07T19:00:36+01:00,25,15.77,16.37,1010.70,41.10,43.20,0,-127.00,"$GNGGA,180031.000,4900.5440,N,00825.4318,E,2,12,0.84,124.6,M,47.9,M,,*77",,,,
2022-03-07T19:00:57+01:00,26,15.76,16.51,1010.70,41.10,43.20,0,-127.00,"$GNGGA,180052.000,4900.5443,N,00825.4320,E,2,12,0.84,118.0,M,47.9,M,,*73",,,,
2022-03-07T19:01:18+01:00,27,15.79,16.58,1010.70,41.70,43.80,0,-127.00,"$GNGGA,180113.000,4900.5411,N,00825.4293,E,2,13,0.79,114.2,M,47.9,M,,*74",,,,
2022-03-07T19:01:39+01:00,28,15.69,16.39,1010.69,41.90,44.00,0,-127.00,"$GNGGA,180134.000,4900.5410,N,00825.4296,E,2,13,0.79,114.4,M,47.9,M,,*73",,,,
2022-03-07T19:02:00+01:00,29,15.53,16.41,1010.68,41.40,43.50,0,-127.00,"$GNGGA,180155.000,4900.5409,N,00825.4300,E,2,13,0.79,113.8,M,47.9,M,,*79",,,,
2022-03-07T19:02:21+01:00,30,15.47,17.09,1010.68,40.80,42.90,0,-127.00,"$GNGGA,180216.000,4900.5427,N,00825.4315,E,0,0,,113.7,M,47.9,M,,*5A",,,,
2022-03-07T19:02:42+01:00,31,15.47,18.02,1010.69,37.70,39.60,0,-127.00,"$GNGGA,180237.000,4900.5427,N,00825.4316,E,0,0,,113.6,M,47.9,M,,*5B",,,,
2022-03-07T19:03:03+01:00,32,15.41,17.80,1010.68,37.20,39.10,0,-127.00,"$GNGGA,180258.000,4900.5175,N,00825.4392,E,2,11,0.94,121.9,M,47.9,M,,*73",,,,
2022-03-07T19:03:24+01:00,33,15.29,17.24,1010.69,36.40,38.30,0,-127.00,"$GNGGA,180319.000,4900.5172,N,00825.4407,E,2,13,0.79,123.0,M,47.9,M,,*71",,,,
2022-03-07T19:03:45+01:00,34,15.13,16.99,1010.68,37.30,39.20,0,-127.00,"$GNGGA,180340.000,4900.5204,N,00825.4336,E,2,13,0.79,134.1,M,47.9,M,,*7D",,,,
2022-03-07T19:04:07+01:00,35,14.85,17.06,1010.69,37.80,39.70,0,-127.00,"$GNGGA,180401.000,4900.5503,N,00825.4209,E,2,13,0.79,160.8,M,47.9,M,,*7A",,,,
2022-03-07T19:04:27+01:00,36,14.54,17.36,1010.71,38.40,40.40,0,-127.00,"$GNGGA,180422.000,4900.5835,N,00825.4158,E,2,13,0.79,147.8,M,47.9,M,,*71",,,,
2022-03-07T19:04:49+01:00,37,14.24,17.71,1010.70,39.70,41.70,0,-127.00,"$GNGGA,180444.000,4900.6358,N,00825.3985,E,2,12,0.85,154.8,M,47.9,M,,*7D",,,,
2022-03-07T19:05:10+01:00,38,13.93,17.90,1010.71,38.50,40.50,0,-127.00,"$GNGGA,180505.000,4900.6752,N,00825.4068,E,2,13,0.79,137.1,M,47.9,M,,*74",,,,
2022-03-07T19:05:31+01:00,39,13.57,18.50,1010.72,37.70,39.60,0,-127.00,"$GNGGA,180526.000,4900.7291,N,00825.3803,E,2,13,0.79,125.5,M,47.9,M,,*7B",,,,
2022-03-07T21:19:00+01:00,40,15.60,17.76,1011.58,61.70,68.70,0,-127.00,"$GNGGA,201855.000,4901.0644,N,00825.3072,E,1,9,0.96,128.7,M,47.9,M,,*4A",,,,
2022-03-07T21:19:21+01:00,41,15.36,17.88,1011.59,53.90,56.60,0,-127.00,"$GNGGA,201916.000,4901.0529,N,00825.3101,E,1,9,0.96,123.3,M,47.9,M,,*4E",,,,
2022-03-07T21:23:26+01:00,42,13.25,19.78,1011.58,45.20,47.50,0,-127.00,"$GNGGA,202321.000,4900.8890,N,00825.3476,E,1,7,1.23,128.5,M,47.9,M,,*4C",,,,
2022-03-07T21:23:46+01:00,43,13.01,19.96,1011.59,44.30,46.60,0,-127.00,"$GNGGA,202341.000,4900.8788,N,00825.3500,E,1,8,1.06,127.1,M,47.9,M,,*4F",,,,
2022-03-07T21:24:06+01:00,44,12.77,20.08,1011.61,42.60,44.80,0,-127.00,"$GNGGA,202401.000,4900.8696,N,00825.3479,E,1,8,1.19,131.6,M,47.9,M,,*43",,,,
2022-03-07T21:24:27+01:00,45,12.53,20.25,1011.61,41.50,43.60,0,-127.00,"$GNGGA,202422.000,4900.8525,N,00825.3497,E,1,8,1.19,134.8,M,47.9,M,,*42",,,,
2022-03-07T21:25:25+01:00,46,12.48,20.58,1011.60,41.40,43.50,0,-127.00,"$GNGGA,202520.000,4900.8176,N,00825.3559,E,1,8,1.19,151.3,M,47.9,M,,*48",,,,
2022-03-07T21:25:46+01:00,47,12.22,20.74,1011.61,42.50,44.70,0,-127.00,"$GNGGA,202541.000,4900.7994,N,00825.3588,E,1,8,1.19,145.0,M,47.9,M,,*4E",,,,
2022-03-07T21:26:07+01:00,48,11.97,20.81,1011.60,42.30,44.50,0,-127.00,"$GNGGA,202602.000,4900.7926,N,00825.3685,E,1,7,1.26,142.8,M,47.9,M,,*41",,,,
2022-03-07T21:26:28+01:00,49,11.77,21.02,1011.60,39.20,41.20,0,-127.00,"$GNGGA,202623.000,4900.7775,N,00825.3683,E,1,9,1.05,136.2,M,47.9,M,,*4A",,,,
2022-03-07T21:26:48+01:00,50,11.63,21.14,1011.60,38.70,40.70,0,-127.00,"$GNGGA,202643.000,4900.7626,N,00825.3731,E,1,9,1.05,129.8,M,47.9,M,,*47",,,,
2022-03-07T21:27:09+01:00,51,11.50,21.15,1011.60,38.30,40.30,0,-127.00,"$GNGGA,202704.000,4900.7458,N,00825.3745,E,1,10,0.89,128.4,M,47.9,M,,*7D",,,,
2022-03-07T21:27:30+01:00,52,11.37,21.27,1011.60,40.40,42.50,0,-127.00,"$GNGGA,202725.000,4900.7318,N,00825.3757,E,1,10,0.89,134.1,M,47.9,M,,*76",,,,
2022-03-07T21:27:50+01:00,53,11.28,21.38,1011.59,38.70,40.70,0,-127.00,"$GNGGA,202745.000,4900.7188,N,00825.3776,E,1,10,0.89,135.8,M,47.9,M,,*70",,,,
2022-03-07T21:28:10+01:00,54,11.22,21.45,1011.59,38.90,40.90,0,-127.00,"$GNGGA,202805.000,4900.7058,N,00825.3823,E,1,10,0.89,136.0,M,47.9,M,,*73",,,,
2022-03-07T21:28:31+01:00,55,11.16,21.42,1011.58,37.00,38.90,0,-127.00,"$GNGGA,202826.000,4900.6956,N,00825.3939,E,1,10,0.89,133.0,M,47.9,M,,*7B",,,,
2022-03-07T21:28:52+01:00,56,11.15,21.47,1011.59,39.40,41.40,0,-127.00,"$GNGGA,202847.000,4900.6901,N,00825.4102,E,1,10,0.89,134.2,M,47.9,M,,*7C",,,,
2022-03-07T21:29:13+01:00,57,11.19,21.45,1011.59,40.50,42.60,0,-127.00,"$GNGGA,202908.000,4900.6872,N,00825.4172,E,1,10,0.89,137.1,M,47.9,M,,*74",,,,
2022-03-07T21:29:34+01:00,58,11.17,21.29,1011.59,41.80,43.90,0,-127.00,"$GNGGA,202929.000,4900.6798,N,00825.4086,E,1,11,0.88,143.1,M,47.9,M,,*75",,,,
2022-03-07T21:29:54+01:00,59,11.10,21.37,1011.58,40.40,42.50,0,-127.00,"$GNGGA,202949.000,4900.6722,N,00825.3936,E,1,11,0.88,150.0,M,47.9,M,,*74",,,,
2022-03-07T21:30:15+01:00,60,10.95,21.52,1011.57,39.30,41.30,0,-127.00,"$GNGGA,203010.000,4900.6512,N,00825.3961,E,1,11,0.89,138.2,M,47.9,M,,*7E",,,,
2022-03-07T21:30:36+01:00,61,10.83,21.68,1011.56,39.70,41.70,0,-127.00,"$GNGGA,203031.000,4900.6360,N,00825.3911,E,2,11,0.89,134.9,M,47.9,M,,*7D",,,,
2022-03-07T21:30:56+01:00,62,10.69,21.88,1011.56,39.80,41.80,0,-127.00,"$GNGGA,203051.000,4900.6228,N,00825.3950,E,2,11,0.89,138.9,M,47.9,M,,*7F",,,,
2022-03-07T21:31:17+01:00,63,10.58,22.11,1011.57,39.40,41.40,0,-127.00,"$GNGGA,203112.000,4900.6092,N,00825.3948,E,2,11,0.89,137.2,M,47.9,M,,*77",,,,
2022-03-07T21:31:38+01:00,64,10.50,22.17,1011.57,39.00,41.00,0,-127.00,"$GNGGA,203133.000,4900.5955,N,00825.4050,E,2,11,0.89,132.9,M,47.9,M,,*7C",,,,
2022-03-07T21:31:59+01:00,65,10.46,22.18,1011.58,39.50,41.50,0,-127.00,"$GNGGA,203153.000,4900.5818,N,00825.4036,E,2,11,0.89,132.8,M,47.9,M,,*73",,,,
2022-03-07T21:32:20+01:00,66,10.42,22.17,1011.58,38.50,40.50,0,-127.00,"$GNGGA,203215.000,4900.5650,N,00825.4169,E,2,11,0.89,122.4,M,47.9,M,,*76",,,,
2022-03-07T21:32:41+01:00,67,10.41,22.14,1011.59,36.20,38.10,0,-127.00,"$GNGGA,203236.000,4900.5548,N,00825.4080,E,2,11,0.96,126.8,M,47.9,M,,*7D",,,,
2022-03-07T21:33:01+01:00,68,10.44,22.06,1011.58,35.80,37.60,0,-127.00,"$GNGGA,203256.000,4900.5422,N,00825.4100,E,2,11,0.96,132.1,M,47.9,M,,*73",,,,
2022-03-07T21:33:22+01:00,69,10.47,22.10,1011.57,35.90,37.70,0,-127.00,"$GNGGA,203317.000,4900.5283,N,00825.4131,E,2,11,0.97,140.8,M,47.9,M,,*75",,,,
2022-03-07T21:33:43+01:00,70,10.52,22.16,1011.55,36.70,38.60,0,-127.00,"$GNGGA,203338.000,4900.5214,N,00825.4196,E,2,11,0.89,146.9,M,47.9,M,,*73",,,,
