created_at,entry_id,field1,field2,field3,field4,field5,field6,field7,field8,latitude,longitude,elevation,status
2022-03-03T18:42:34+01:00,99,22.76,22.39,1003.73,49,51.5,0,-127,"$GNGGA,174229.093,4900.4679,N,00825.4587,E,0,0,,143.4,M,47.9,M,,*54",,,,
2022-03-03T18:42:54+01:00,100,22.51,21.33,1003.76,48.4,50.9,0,-127,"$GNGGA,174249.291,4900.4679,N,00825.4587,E,0,0,,143.4,M,47.9,M,,*52",,,,
2022-03-03T18:43:15+01:00,101,22.35,21.1,1003.77,49,51.5,0,-127,"$GNGGA,174310.000,4900.5170,N,00825.4168,E,1,4,1.77,149.2,M,47.9,M,,*49",,,,
2022-03-03T18:43:36+01:00,102,22.14,20.11,1003.81,47.8,50.2,0,-127,"$GNGGA,174331.000,4900.5239,N,00825.4140,E,1,4,2.57,152.0,M,47.9,M,,*47",,,,
2022-03-03T18:43:56+01:00,103,21.78,20,1003.84,46.9,49.3,0,-127,"$GNGGA,174351.000,4900.5390,N,00825.4138,E,1,6,1.44,165.8,M,47.9,M,,*43",,,,
2022-03-03T18:44:16+01:00,104,21.29,20.37,1003.85,46.9,49.3,0,-127,"$GNGGA,174411.000,4900.5514,N,00825.4109,E,1,6,1.44,169.8,M,47.9,M,,*44",,,,
2022-03-03T18:44:37+01:00,105,20.74,21.03,1003.86,47.5,49.9,0,-127,"$GNGGA,174432.000,4900.5691,N,00825.4177,E,1,6,1.49,163.4,M,47.9,M,,*49",,,,
2022-03-03T18:44:57+01:00,106,20.24,21.55,1003.86,50.6,53.2,0,-127,"$GNGGA,174452.000,4900.5795,N,00825.4099,E,1,6,1.43,155.0,M,47.9,M,,*40",,,,
2022-03-03T18:45:17+01:00,107,19.73,22.07,1003.87,55.4,58.2,0,-127,"$GNGGA,174512.000,4900.5888,N,00825.4022,E,1,6,1.48,158.8,M,47.9,M,,*48",,,,
2022-03-03T18:45:40+01:00,108,19.25,22.6,1003.87,57.5,60.4,0,-127,"$GNGGA,174535.000,4900.6067,N,00825.4067,E,1,6,1.42,157.6,M,47.9,M,,*4D",,,,
2022-03-03T18:46:00+01:00,109,18.84,22.96,1003.87,55.3,58.1,0,-127,"$GNGGA,174555.000,4900.6152,N,00825.3975,E,1,6,1.42,160.0,M,47.9,M,,*43",,,,
2022-03-03T18:46:20+01:00,110,18.44,23.27,1003.86,52.1,54.8,0,-127,"$GNGGA,174615.000,4900.6322,N,00825.3978,E,1,6,1.42,160.6,M,47.9,M,,*4A",,,,
2022-03-03T18:46:41+01:00,111,18.06,23.63,1003.87,48.1,50.6,0,-127,"$GNGGA,174636.000,4900.6474,N,00825.3995,E,1,6,1.47,156.4,M,47.9,M,,*4E",,,,
2022-03-03T18:47:01+01:00,112,17.75,23.9,1003.88,47.8,50.2,0,-127,"$GNGGA,174656.000,4900.6605,N,00825.4021,E,1,6,1.47,154.3,M,47.9,M,,*48",,,,
2022-03-03T18:47:22+01:00,113,17.54,24.18,1003.87,48,50.5,0,-127,"$GNGGA,174717.000,4900.6720,N,00825.4116,E,1,6,1.46,150.1,M,47.9,M,,*48",,,,
2022-03-03T18:47:43+01:00,114,17.4,24.31,1003.86,48.6,51.1,0,-127,"$GNGGA,174738.000,4900.6867,N,00825.4157,E,1,6,1.40,146.6,M,47.9,M,,*4A",,,,
2022-03-03T18:48:03+01:00,115,17.41,24.08,1003.88,49.4,51.9,0,-127,"$GNGGA,174758.000,4900.6876,N,00825.4154,E,1,6,1.40,148.2,M,47.9,M,,*45",,,,
2022-03-03T18:48:23+01:00,116,17.4,23.82,1003.89,48.5,51,0,-127,"$GNGGA,174818.000,4900.6957,N,00825.4089,E,1,6,1.40,144.1,M,47.9,M,,*42",,,,
2022-03-03T18:48:44+01:00,117,17.31,23.98,1003.89,47.8,50.2,0,-127,"$GNGGA,174839.000,4900.7002,N,00825.3912,E,1,6,1.39,139.4,M,47.9,M,,*44",,,,
2022-03-03T18:49:04+01:00,118,17.17,24.22,1003.9,46,48.4,0,-127,"$GNGGA,174859.000,4900.7126,N,00825.3849,E,1,6,1.39,133.7,M,47.9,M,,*43",,,,
2022-03-03T18:49:24+01:00,119,17.04,24.68,1003.91,44.1,46.4,0,-127,"$GNGGA,174919.000,4900.7239,N,00825.3753,E,1,5,2.26,133.4,M,47.9,M,,*42",,,,
2022-03-03T18:49:45+01:00,120,16.9,25.04,1003.91,46,48.4,0,-127,"$GNGGA,174940.000,4900.7370,N,00825.3687,E,1,6,1.39,136.6,M,47.9,M,,*43",,,,
2022-03-03T18:50:05+01:00,121,16.74,25.22,1003.92,46.6,49,0,-127,"$GNGGA,175000.000,4900.7543,N,00825.3739,E,1,6,1.44,133.6,M,47.9,M,,*42",,,,
2022-03-03T18:50:26+01:00,122,16.61,25.56,1003.92,50,52.6,0,-127,"$GNGGA,175021.000,4900.7670,N,00825.3678,E,1,6,1.38,135.8,M,47.9,M,,*45",,,,
2022-03-03T18:50:47+01:00,123,16.55,25.78,1003.93,47.7,50.1,0,-127,"$GNGGA,175042.000,4900.7796,N,00825.3645,E,1,6,1.43,136.8,M,47.9,M,,*48",,,,
2022-03-03T18:52:46+01:00,124,16.14,26.78,1003.94,49.1,51.6,0,-127,"$GNGGA,175241.000,4900.8620,N,00825.3551,E,1,5,1.46,130.5,M,47.9,M,,*41",,,,
2022-03-03T18:53:06+01:00,125,15.9,27.13,1003.94,49,51.5,0,-127,"$GNGGA,175301.000,4900.8722,N,00825.3453,E,1,5,1.55,132.9,M,47.9,M,,*48",,,,
2022-03-03T18:53:26+01:00,126,15.66,27.55,1003.95,48,50.5,0,-127,"$GNGGA,175321.000,4900.8876,N,00825.3497,E,1,5,1.45,126.9,M,47.9,M,,*48",,,,
2022-03-03T20:35:00+01:00,127,14.87,28.58,1004.75,42.7,44.9,0,-127,"$GNGGA,193455.096,4901.1512,N,00825.2825,E,0,3,,123.7,M,47.9,M,,*5A",,,,
2022-03-03T20:35:21+01:00,128,14.49,29.01,1004.77,42.4,44.6,0,-127,"$GNGGA,193516.096,4901.1359,N,00825.2901,E,0,3,,123.7,M,47.9,M,,*52",,,,
2022-03-03T20:35:44+01:00,129,14.09,29.67,1004.78,44,46.3,0,-127,"$GNGGA,193538.000,4901.1220,N,00825.2955,E,1,4,2.02,112.7,M,47.9,M,,*45",,,,
2022-03-03T20:36:08+01:00,130,13.69,30.29,1004.79,44,46.3,0,-127,"$GNGGA,193601.000,4901.1014,N,00825.2969,E,1,4,2.02,125.0,M,47.9,M,,*45",,,,
2022-03-03T20:36:31+01:00,131,13.37,30.9,1004.8,46.2,48.6,0,-127,"$GNGGA,193626.000,4901.0852,N,00825.3003,E,1,4,2.02,118.3,M,47.9,M,,*42",,,,
2022-03-03T20:36:53+01:00,132,13.11,31.23,1004.82,45.4,47.7,0,-127,"$GNGGA,193648.000,4901.0729,N,00825.3053,E,1,4,2.03,113.7,M,47.9,M,,*42",,,,
2022-03-03T20:37:44+01:00,133,13.11,31.81,1004.79,69.2,72.9,0,-127,"$GNGGA,193739.000,4901.0321,N,00825.3156,E,1,4,2.03,120.4,M,47.9,M,,*4E",,,,
2022-03-03T20:38:04+01:00,134,12.83,31.97,1004.79,59.9,62.9,0,-127,"$GNGGA,193759.000,4901.0179,N,00825.3182,E,1,4,2.03,117.9,M,47.9,M,,*47",,,,
2022-03-03T20:38:25+01:00,135,12.56,32.24,1004.8,47.6,50,0,-127,"$GNGGA,193820.000,4901.0027,N,00825.3228,E,1,4,2.03,113.7,M,47.9,M,,*45",,,,
2022-03-03T20:40:10+01:00,136,12.09,33.75,1004.74,48.8,51.3,0,-127,"$GNGGA,194005.000,4900.9268,N,00825.3383,E,1,4,2.04,124.5,M,47.9,M,,*4D",,,,
2022-03-03T20:40:31+01:00,137,11.85,33.9,1004.75,48.2,50.7,0,-127,"$GNGGA,194026.000,4900.9141,N,00825.3416,E,1,4,2.04,117.6,M,47.9,M,,*4C",,,,
2022-03-03T20:41:47+01:00,138,11.87,34.22,1004.72,58,63.2,0,-127,"$GNGGA,194142.000,4900.8527,N,00825.3373,E,1,4,2.05,141.7,M,47.9,M,,*4D",,,,
2022-03-03T20:42:07+01:00,139,11.67,34.26,1004.74,53.8,56.5,0,-127,"$GNGGA,194202.000,4900.8488,N,00825.3482,E,1,4,2.05,121.8,M,47.9,M,,*4E",,,,
2022-03-03T20:43:23+01:00,140,12.55,33.88,1004.76,49.4,51.9,0,-127,"$GNGGA,194318.000,4900.7877,N,00825.3606,E,1,4,2.05,147.0,M,47.9,M,,*41",,,,
2022-03-03T20:43:44+01:00,141,12.24,34.01,1004.76,51.2,53.8,0,-127,"$GNGGA,194339.000,4900.7753,N,00825.3646,E,1,4,2.05,136.8,M,47.9,M,,*41",,,,
2022-03-03T20:44:04+01:00,142,12.03,34.07,1004.76,53.5,56.2,0,-127,"$GNGGA,194359.000,4900.7610,N,00825.3616,E,1,4,2.05,134.7,M,47.9,M,,*49",,,,
2022-03-03T20:44:25+01:00,143,11.88,34,1004.77,52.1,54.8,0,-127,"$GNGGA,194420.000,4900.7462,N,00825.3692,E,1,4,2.06,132.3,M,47.9,M,,*4A",,,,
2022-03-03T20:44:45+01:00,144,11.68,33.99,1004.77,50.8,53.4,0,-127,"$GNGGA,194440.000,4900.7342,N,00825.3709,E,1,4,2.06,123.1,M,47.9,M,,*48",,,,
2022-03-03T20:45:06+01:00,145,11.52,34.25,1004.77,50.9,53.5,0,-127,"$GNGGA,194501.000,4900.7179,N,00825.3733,E,1,4,2.06,120.3,M,47.9,M,,*4E",,,,
2022-03-03T20:45:27+01:00,146,11.4,34.44,1004.78,52.2,54.9,0,-127,"$GNGGA,194522.000,4900.7016,N,00825.3795,E,1,4,2.06,122.2,M,47.9,M,,*48",,,,
2022-03-03T20:45:47+01:00,147,11.25,34.62,1004.78,52,54.7,0,-127,"$GNGGA,194542.000,4900.6932,N,00825.3985,E,1,5,1.64,119.1,M,47.9,M,,*42",,,,
2022-03-03T20:46:07+01:00,148,11.23,35.01,1004.78,50.2,52.8,0,-127,"$GNGGA,194602.000,4900.6912,N,00825.4096,E,1,5,1.64,118.5,M,47.9,M,,*4E",,,,
2022-03-03T20:46:28+01:00,149,11.33,34.67,1004.8,47.9,50.3,0,-127,"$GNGGA,194623.000,4900.6886,N,00825.4106,E,1,5,2.85,118.1,M,47.9,M,,*41",,,,
2022-03-03T20:46:48+01:00,150,11.38,34.02,1004.79,48.5,51,0,-127,"$GNGGA,194643.000,4900.6802,N,00825.4183,E,1,5,1.64,117.0,M,47.9,M,,*44",,,,
2022-03-03T20:47:09+01:00,151,11.36,33.92,1004.79,52.8,55.5,0,-127,"$GNGGA,194704.000,4900.6723,N,00825.4020,E,1,5,1.64,115.1,M,47.9,M,,*41",,,,
2022-03-03T20:47:30+01:00,152,11.32,33.97,1004.8,53.8,56.5,0,-127,"$GNGGA,194725.000,4900.6506,N,00825.3973,E,1,5,1.64,123.4,M,47.9,M,,*4F",,,,
2022-03-03T20:47:50+01:00,153,11.3,34.04,1004.8,52.8,55.5,0,-127,"$GNGGA,194745.000,4900.6403,N,00825.3973,E,1,5,1.64,124.2,M,47.9,M,,*4C",,,,
2022-03-03T20:48:10+01:00,154,11.3,34.07,1004.8,47.4,49.8,0,-127,"$GNGGA,194805.000,4900.6242,N,00825.3946,E,1,5,1.63,123.1,M,47.9,M,,*41",,,,
2022-03-03T20:48:31+01:00,155,11.34,34.06,1004.8,46.5,48.9,0,-127,"$GNGGA,194826.000,4900.6181,N,00825.4087,E,2,4,33.21,123.5,M,47.9,M,,*7E",,,,
2022-03-03T20:48:51+01:00,156,11.45,33.93,1004.8,45.2,47.5,0,-127,"$GNGGA,194846.000,4900.6169,N,00825.4091,E,2,4,2.20,123.0,M,47.9,M,,*4F",,,,
2022-03-03T20:49:11+01:00,157,11.59,33.61,1004.8,44,46.3,0,-127,"$GNGGA,194906.000,4900.6165,N,00825.4052,E,2,4,2.20,122.5,M,47.9,M,,*4D",,,,
2022-03-03T20:49:32+01:00,158,11.73,33.3,1004.81,40.7,42.8,0,-127,"$GNGGA,194927.000,4900.6120,N,00825.4037,E,2,5,1.63,122.8,M,47.9,M,,*44",,,,
2022-03-03T20:49:52+01:00,159,11.79,33.05,1004.82,40.2,42.3,0,-127,"$GNGGA,194947.000,4900.6020,N,00825.3976,E,2,5,1.63,129.9,M,47.9,M,,*42",,,,
2022-03-03T20:50:13+01:00,160,11.8,32.77,1004.83,41.4,43.5,0,-127,"$GNGGA,195008.000,4900.5918,N,00825.4078,E,2,5,1.63,124.5,M,47.9,M,,*41",,,,
2022-03-03T20:50:35+01:00,161,11.82,32.74,1004.84,44.9,47.2,0,-127,"$GNGGA,195030.000,4900.5767,N,00825.4061,E,2,5,1.63,129.8,M,47.9,M,,*44",,,,
2022-03-03T20:50:55+01:00,162,11.83,32.63,1004.84,44.6,46.9,0,-127,"$GNGGA,195050.000,4900.5634,N,00825.4144,E,2,5,1.63,138.5,M,47.9,M,,*4E",,,,
2022-03-03T20:51:15+01:00,163,11.82,31.82,1004.85,42.8,45,0,-127,"$GNGGA,195110.000,4900.5578,N,00825.4175,E,2,5,1.63,125.8,M,47.9,M,,*43",,,,
2022-03-03T20:51:36+01:00,164,11.76,31.49,1004.86,40.8,42.9,0,-127,"$GNGGA,195131.000,4900.5432,N,00825.4177,E,2,5,1.63,130.2,M,47.9,M,,*43",,,,
2022-03-03T20:51:56+01:00,165,11.71,31.57,1004.86,40.5,42.6,0,-127,"$GNGGA,195151.000,4900.5287,N,00825.4198,E,2,5,1.63,135.9,M,47.9,M,,*42",,,,
2022-03-03T20:52:16+01:00,166,11.7,31.7,1004.87,42.2,44.4,0,-127,"$GNGGA,195211.000,4900.5179,N,00825.4208,E,2,5,1.63,136.8,M,47.9,M,,*4F",,,,
2022-03-03T20:52:37+01:00,167,11.74,31.66,1004.87,42,44.2,0,-127,"$GNGGA,195232.000,4900.5124,N,00825.4214,E,2,5,1.62,141.3,M,47.9,M,,*41",,,,
