created_at,entry_id,field1,field2,field3,field4,field5,field6,field7,field8,latitude,longitude,elevation,status
2022-05-23T21:00:14+02:00,720,26.93,48.66,990.38,2,5.8,0,0,"$GNGGA,190009.090,4900.5003,N,00825.7044,E,0,0,,137.6,M,47.9,M,,*5F",,,,
2022-05-23T21:00:34+02:00,721,26.8,48.45,990.4,2,5.1,0,0,"$GNGGA,190029.095,4900.5003,N,00825.7044,E,0,0,,137.6,M,47.9,M,,*58",,,,
2022-05-23T21:00:55+02:00,722,26.8,47.54,990.43,1.8,4.7,0,0,"$GNGGA,190050.000,4900.5263,N,00825.4359,E,1,3,3.23,116.7,M,47.9,M,,*4E",,,,
2022-05-23T21:01:15+02:00,723,26.87,46.57,990.43,1.7,3.9,0,0,"$GNGGA,190110.000,4900.5234,N,00825.4279,E,1,4,2.94,130.9,M,47.9,M,,*4A",,,,
2022-05-23T21:01:35+02:00,724,26.99,45.78,990.44,1.7,3.8,0,0,"$GNGGA,190130.000,4900.5231,N,00825.4259,E,1,4,6.82,138.9,M,47.9,M,,*44",,,,
2022-05-23T21:01:56+02:00,725,27.13,45.34,990.46,1.7,4.4,0,0,"$GNGGA,190151.000,4900.5219,N,00825.4249,E,1,4,2.93,144.0,M,47.9,M,,*4E",,,,
2022-05-23T21:02:16+02:00,726,27.27,45.01,990.47,2,3.9,0,0,"$GNGGA,190211.000,4900.5220,N,00825.4206,E,1,5,1.46,149.7,M,47.9,M,,*48",,,,
2022-05-23T21:02:36+02:00,727,27.41,44.7,990.48,1.8,4.7,0,0,"$GNGGA,190231.000,4900.5287,N,00825.4186,E,1,5,1.47,148.8,M,47.9,M,,*43",,,,
2022-05-23T21:02:57+02:00,728,27.54,44.52,990.5,1.8,5.2,0,0,"$GNGGA,190252.000,4900.5393,N,00825.4187,E,1,6,1.45,152.8,M,47.9,M,,*49",,,,
2022-05-23T21:03:17+02:00,729,27.68,44.49,990.51,1.7,4.4,0,0,"$GNGGA,190312.000,4900.5498,N,00825.4186,E,1,7,1.36,152.0,M,47.9,M,,*4C",,,,
2022-05-23T21:03:37+02:00,730,27.82,44.05,990.51,1.9,3.4,0,0,"$GNGGA,190332.000,4900.5585,N,00825.4168,E,1,7,1.37,144.8,M,47.9,M,,*4D",,,,
2022-05-23T21:03:58+02:00,731,27.96,43.83,990.52,1.9,3.8,0,0,"$GNGGA,190353.000,4900.5745,N,00825.4164,E,1,7,1.37,140.3,M,47.9,M,,*47",,,,
2022-05-23T21:04:18+02:00,732,28.1,43.1,990.51,2.1,4.2,0,0,"$GNGGA,190413.000,4900.5825,N,00825.4061,E,1,7,1.39,135.0,M,47.9,M,,*46",,,,
2022-05-23T21:04:38+02:00,733,28.24,42.87,990.51,1.8,3.5,0,0,"$GNGGA,190433.000,4900.5900,N,00825.4066,E,1,7,1.39,131.4,M,47.9,M,,*45",,,,
2022-05-23T21:04:59+02:00,734,28.37,42.96,990.51,1.8,4.9,0,0,"$GNGGA,190454.000,4900.6003,N,00825.4067,E,1,7,1.40,125.2,M,47.9,M,,*41",,,,
2022-05-23T21:05:19+02:00,735,28.47,42.56,990.51,2.1,5,0,0,"$GNGGA,190514.000,4900.6135,N,00825.4015,E,1,7,1.39,129.9,M,47.9,M,,*4C",,,,
2022-05-23T21:05:39+02:00,736,28.56,42.3,990.51,2.1,4.7,0,0,"$GNGGA,190534.000,4900.6221,N,00825.3977,E,1,7,1.39,130.2,M,47.9,M,,*41",,,,
2022-05-23T21:06:00+02:00,737,28.65,41.97,990.52,1.9,3.2,0,0,"$GNGGA,190555.000,4900.6322,N,00825.3939,E,1,7,1.40,134.0,M,47.9,M,,*46",,,,
2022-05-23T21:06:23+02:00,738,28.73,42.59,990.53,2.4,4.3,0,0,"$GNGGA,190618.000,4900.6431,N,00825.3958,E,1,7,1.41,127.3,M,47.9,M,,*4E",,,,
2022-05-23T21:06:43+02:00,739,28.79,41.81,990.53,2.4,4.2,0,0,"$GNGGA,190638.000,4900.6570,N,00825.3973,E,1,7,1.41,138.6,M,47.9,M,,*4A",,,,
2022-05-23T21:07:04+02:00,740,28.82,41.81,990.53,2.2,4.2,0,0,"$GNGGA,190659.000,4900.6639,N,00825.3988,E,1,7,1.41,143.8,M,47.9,M,,*45",,,,
2022-05-23T21:07:24+02:00,741,28.84,42.47,990.53,2.5,4.2,0,0,"$GNGGA,190719.000,4900.6757,N,00825.4032,E,1,7,1.42,140.3,M,47.9,M,,*4D",,,,
2022-05-23T21:07:44+02:00,742,28.84,42.54,990.53,3.9,5.9,0,0,"$GNGGA,190739.000,4900.6844,N,00825.4168,E,1,8,1.16,122.8,M,47.9,M,,*4D",,,,
2022-05-23T21:08:05+02:00,743,28.84,42.02,990.52,5.1,7.3,0,0,"$GNGGA,190800.000,4900.6849,N,00825.4164,E,1,8,1.16,124.1,M,47.9,M,,*46",,,,
2022-05-23T21:08:25+02:00,744,28.83,42.06,990.52,2.6,3.7,0,0,"$GNGGA,190820.000,4900.6943,N,00825.4074,E,1,8,1.16,121.6,M,47.9,M,,*4D",,,,
2022-05-23T21:08:46+02:00,745,28.82,41.63,990.53,1.8,5.4,0,0,"$GNGGA,190841.000,4900.6971,N,00825.3895,E,1,8,1.16,122.9,M,47.9,M,,*47",,,,
2022-05-23T21:09:07+02:00,746,28.81,41.44,990.54,1.8,5.5,0,0,"$GNGGA,190902.000,4900.7088,N,00825.3845,E,1,8,1.16,124.9,M,47.9,M,,*44",,,,
2022-05-23T21:09:27+02:00,747,28.78,41.77,990.53,1.9,3.7,0,0,"$GNGGA,190922.000,4900.7210,N,00825.3797,E,1,8,1.17,129.9,M,47.9,M,,*49",,,,
2022-05-23T21:09:48+02:00,748,28.74,41.67,990.53,2,5.1,0,0,"$GNGGA,190943.000,4900.7336,N,00825.3757,E,1,8,1.17,134.3,M,47.9,M,,*41",,,,
2022-05-23T21:10:09+02:00,749,28.7,41.71,990.53,1.6,3.2,0,0,"$GNGGA,191004.000,4900.7470,N,00825.3728,E,1,8,1.17,136.5,M,47.9,M,,*43",,,,
2022-05-23T21:10:29+02:00,750,28.64,41.78,990.54,1.5,3,0,0,"$GNGGA,191024.000,4900.7601,N,00825.3772,E,1,9,1.30,120.5,M,47.9,M,,*49",,,,
2022-05-23T21:10:49+02:00,751,28.58,41.87,990.53,1.8,4,0,0,"$GNGGA,191044.000,4900.7709,N,00825.3692,E,1,9,1.20,117.0,M,47.9,M,,*49",,,,
2022-05-23T21:11:10+02:00,752,28.53,42.01,990.53,1.7,4.8,0,0,"$GNGGA,191105.000,4900.7836,N,00825.3709,E,1,9,1.31,112.3,M,47.9,M,,*4B",,,,
2022-05-23T21:11:30+02:00,753,28.48,42.25,990.52,1.6,3.5,0,0,"$GNGGA,191125.000,4900.7962,N,00825.3707,E,1,9,1.21,107.0,M,47.9,M,,*41",,,,
2022-05-23T21:11:50+02:00,754,28.43,42.41,990.52,1.6,3.7,0,0,"$GNGGA,191145.000,4900.8091,N,00825.3673,E,1,9,1.32,111.7,M,47.9,M,,*4D",,,,
2022-05-23T21:12:11+02:00,755,28.38,42.31,990.53,1.8,3.5,0,0,"$GNGGA,191206.000,4900.8211,N,00825.3614,E,1,9,1.05,113.5,M,47.9,M,,*46",,,,
2022-05-23T21:12:31+02:00,756,28.34,42.52,990.54,1.7,3.4,0,0,"$GNGGA,191226.000,4900.8338,N,00825.3561,E,1,9,1.33,116.1,M,47.9,M,,*4B",,,,
2022-05-23T21:12:51+02:00,757,28.31,42.81,990.54,1.6,3.7,0,0,"$GNGGA,191246.000,4900.8465,N,00825.3557,E,1,9,1.06,113.3,M,47.9,M,,*46",,,,
2022-05-23T21:13:12+02:00,758,28.27,42.76,990.54,1.7,3.7,0,0,"$GNGGA,191307.000,4900.8598,N,00825.3541,E,1,9,1.21,114.4,M,47.9,M,,*43",,,,
2022-05-23T21:13:33+02:00,759,28.24,42.44,990.54,1.6,3.5,0,0,"$GNGGA,191328.000,4900.8716,N,00825.3516,E,1,9,1.06,113.2,M,47.9,M,,*4C",,,,
2022-05-23T21:13:54+02:00,760,28.2,42.35,990.53,1.6,4.1,0,0,"$GNGGA,191349.000,4900.8857,N,00825.3511,E,1,9,1.23,109.5,M,47.9,M,,*4D",,,,
2022-05-23T21:14:15+02:00,761,28.18,42.32,990.55,1.5,3.3,0,0,"$GNGGA,191410.000,4900.8984,N,00825.3480,E,1,9,1.23,109.9,M,47.9,M,,*4C",,,,
2022-05-23T21:14:36+02:00,762,28.16,42.08,990.55,1.6,3.2,0,0,"$GNGGA,191431.000,4900.9108,N,00825.3459,E,1,9,1.23,110.2,M,47.9,M,,*45",,,,
2022-05-23T21:14:57+02:00,763,28.14,41.69,990.54,1.5,2.7,0,0,"$GNGGA,191452.000,4900.9235,N,00825.3433,E,1,9,1.24,108.3,M,47.9,M,,*4E",,,,
2022-05-23T21:15:18+02:00,764,28.13,41.82,990.52,1.3,2.1,0,0,"$GNGGA,191513.000,4900.9368,N,00825.3402,E,1,9,1.24,111.6,M,47.9,M,,*4C",,,,
2022-05-23T21:15:39+02:00,765,28.11,42.18,990.52,1.4,3.1,0,0,"$GNGGA,191534.000,4900.9492,N,00825.3359,E,1,9,1.24,114.1,M,47.9,M,,*40",,,,
2022-05-23T21:16:00+02:00,766,28.09,42.54,990.51,1.9,3.1,0,0,"$GNGGA,191555.000,4900.9635,N,00825.3329,E,1,9,1.07,116.1,M,47.9,M,,*4C",,,,
2022-05-23T21:16:21+02:00,767,28.06,42.83,990.5,1.7,3.7,0,0,"$GNGGA,191616.000,4900.9750,N,00825.3279,E,1,9,1.25,122.6,M,47.9,M,,*4E",,,,
2022-05-23T21:16:42+02:00,768,28.03,43.91,990.5,1.6,4.2,0,0,"$GNGGA,191637.000,4900.9891,N,00825.3257,E,1,9,1.07,122.8,M,47.9,M,,*4D",,,,
2022-05-23T21:17:03+02:00,769,28,44.05,990.5,1.5,3.6,0,0,"$GNGGA,191658.000,4901.0012,N,00825.3232,E,1,9,1.25,116.3,M,47.9,M,,*40",,,,
2022-05-23T21:17:24+02:00,770,27.97,43.55,990.5,1.4,3.2,0,0,"$GNGGA,191719.000,4901.0127,N,00825.3201,E,1,9,1.07,116.6,M,47.9,M,,*46",,,,
2022-05-23T21:17:46+02:00,771,27.95,44.05,990.51,1.6,3.6,0,0,"$GNGGA,191740.000,4901.0262,N,00825.3169,E,1,9,1.07,119.9,M,47.9,M,,*45",,,,
2022-05-23T21:18:07+02:00,772,27.93,45.17,990.52,1.7,4.8,0,0,"$GNGGA,191802.000,4901.0400,N,00825.3149,E,1,9,1.26,116.2,M,47.9,M,,*4B",,,,
2022-05-23T21:18:28+02:00,773,27.92,45.57,990.52,1.9,4.8,0,0,"$GNGGA,191823.000,4901.0527,N,00825.3128,E,1,9,1.26,107.3,M,47.9,M,,*4A",,,,
2022-05-23T21:18:49+02:00,774,27.91,45.9,990.53,1.6,3.1,0,0,"$GNGGA,191844.000,4901.0654,N,00825.3101,E,1,9,1.27,104.6,M,47.9,M,,*40",,,,
2022-05-23T21:19:10+02:00,775,27.89,46.52,990.54,1.6,3,0,0,"$GNGGA,191905.000,4901.0794,N,00825.3075,E,1,9,1.08,109.2,M,47.9,M,,*4F",,,,
2022-05-23T21:19:31+02:00,776,27.88,46.55,990.55,1.5,3,0,0,"$GNGGA,191926.000,4901.0916,N,00825.3035,E,1,9,1.27,114.4,M,47.9,M,,*49",,,,
2022-05-23T21:19:52+02:00,777,27.88,46.14,990.55,1.5,2.4,0,0,"$GNGGA,191947.000,4901.1064,N,00825.2996,E,1,9,1.27,117.2,M,47.9,M,,*47",,,,
2022-05-23T21:20:13+02:00,778,27.88,46.39,990.56,1.7,2.4,0,0,"$GNGGA,192008.000,4901.1181,N,00825.2960,E,1,9,1.28,114.6,M,47.9,M,,*4D",,,,
2022-05-23T21:20:34+02:00,779,27.89,46.71,990.56,1.5,2.4,0,0,"$GNGGA,192029.000,4901.1319,N,00825.2920,E,1,9,1.28,119.1,M,47.9,M,,*43",,,,
2022-05-23T21:20:55+02:00,780,27.89,46.46,990.58,1.6,2.5,0,0,"$GNGGA,192050.000,4901.1445,N,00825.2889,E,1,9,1.08,115.4,M,47.9,M,,*4A",,,,
2022-05-23T21:21:17+02:00,781,27.89,46.22,990.58,1.8,4.5,0,0,"$GNGGA,192111.000,4901.1584,N,00825.2867,E,1,9,1.28,110.0,M,47.9,M,,*41",,,,
2022-05-23T21:21:37+02:00,782,27.87,45.96,990.58,1.9,4.4,0,0,"$GNGGA,192132.000,4901.1724,N,00825.2854,E,1,9,1.08,110.4,M,47.9,M,,*4E",,,,
2022-05-23T21:21:58+02:00,783,27.85,45.92,990.58,1.8,4.2,0,0,"$GNGGA,192153.000,4901.1852,N,00825.2844,E,1,9,1.08,106.6,M,47.9,M,,*43",,,,
2022-05-23T21:22:19+02:00,784,27.84,45.5,990.57,1.6,3.5,0,0,"$GNGGA,192214.000,4901.1768,N,00825.2877,E,1,9,1.08,108.4,M,47.9,M,,*49",,,,
2022-05-23T21:22:41+02:00,785,27.81,45.79,990.57,1.7,3.3,0,0,"$GNGGA,192235.000,4901.1636,N,00825.2902,E,1,10,0.91,111.1,M,47.9,M,,*77",,,,
2022-05-23T21:23:01+02:00,786,27.78,46.12,990.57,1.8,3.4,0,0,"$GNGGA,192256.000,4901.1499,N,00825.2926,E,1,10,0.91,114.0,M,47.9,M,,*77",,,,
2022-05-23T21:23:23+02:00,787,27.74,46.45,990.56,1.6,3.2,0,0,"$GNGGA,192317.000,4901.1366,N,00825.2967,E,1,10,0.89,112.5,M,47.9,M,,*7B",,,,
2022-05-23T21:23:43+02:00,788,27.69,47.33,990.56,1.4,3.5,0,0,"$GNGGA,192338.000,4901.1244,N,00825.2983,E,1,11,0.84,113.8,M,47.9,M,,*7D",,,,
2022-05-23T21:24:04+02:00,789,27.64,47.47,990.55,1.4,2.7,0,0,"$GNGGA,192359.000,4901.1104,N,00825.3013,E,2,11,0.84,115.5,M,47.9,M,,*74",,,,
2022-05-23T21:24:25+02:00,790,27.58,47.4,990.55,1.8,4.9,0,0,"$GNGGA,192420.000,4901.0971,N,00825.3040,E,2,11,0.84,114.2,M,47.9,M,,*76",,,,
2022-05-23T21:24:46+02:00,791,27.53,47.44,990.55,1.6,3.6,0,0,"$GNGGA,192441.000,4901.0815,N,00825.3103,E,2,11,0.84,114.5,M,47.9,M,,*73",,,,
2022-05-23T21:25:07+02:00,792,27.47,47.12,990.53,1.5,2.8,0,0,"$GNGGA,192502.000,4901.0692,N,00825.3129,E,2,11,0.84,112.5,M,47.9,M,,*7A",,,,
2022-05-23T21:25:28+02:00,793,27.42,46.3,990.5,1.6,3.3,0,0,"$GNGGA,192523.000,4901.0556,N,00825.3142,E,2,11,0.84,115.4,M,47.9,M,,*79",,,,
2022-05-23T21:25:49+02:00,794,27.37,46.43,990.49,1.9,4.2,0,0,"$GNGGA,192544.000,4901.0403,N,00825.3201,E,2,11,0.85,119.9,M,47.9,M,,*7D",,,,
2022-05-23T21:26:10+02:00,795,27.32,47.56,990.49,2,4.7,0,0,"$GNGGA,192605.000,4901.0266,N,00825.3211,E,2,11,0.84,126.5,M,47.9,M,,*7E",,,,
2022-05-23T21:26:31+02:00,796,27.27,47.21,990.49,1.8,4.3,0,0,"$GNGGA,192626.000,4901.0119,N,00825.3247,E,2,11,0.84,124.8,M,47.9,M,,*78",,,,
2022-05-23T21:26:52+02:00,797,27.22,46.57,990.48,1.7,4,0,0,"$GNGGA,192647.000,4900.9999,N,00825.3265,E,2,11,0.84,121.6,M,47.9,M,,*7C",,,,
2022-05-23T21:27:13+02:00,798,27.17,45.76,990.47,1.6,4.2,0,0,"$GNGGA,192708.000,4900.9867,N,00825.3314,E,2,11,0.84,119.4,M,47.9,M,,*78",,,,
2022-05-23T21:27:34+02:00,799,27.12,45.52,990.47,1.5,2.6,0,0,"$GNGGA,192729.000,4900.9716,N,00825.3355,E,2,11,0.85,124.6,M,47.9,M,,*7A",,,,
2022-05-23T21:27:55+02:00,800,27.08,45.09,990.48,1.6,4.9,0,0,"$GNGGA,192750.000,4900.9577,N,00825.3359,E,2,12,0.77,127.4,M,47.9,M,,*72",,,,
2022-05-23T21:28:16+02:00,801,27.02,44.66,990.47,1.8,6.5,0,0,"$GNGGA,192811.000,4900.9450,N,00825.3381,E,2,12,0.77,122.2,M,47.9,M,,*7A",,,,
2022-05-23T21:28:37+02:00,802,26.97,44.54,990.48,1.6,2.5,0,0,"$GNGGA,192832.000,4900.9325,N,00825.3453,E,2,12,0.77,115.7,M,47.9,M,,*77",,,,
2022-05-23T21:28:58+02:00,803,26.93,44.57,990.46,1.6,4.1,0,0,"$GNGGA,192853.000,4900.9174,N,00825.3467,E,2,12,0.79,113.9,M,47.9,M,,*77",,,,
2022-05-23T21:29:19+02:00,804,26.89,44.53,990.45,1.9,4.6,0,0,"$GNGGA,192914.000,4900.9042,N,00825.3493,E,2,12,0.77,112.9,M,47.9,M,,*75",,,,
2022-05-23T21:29:40+02:00,805,26.86,44.87,990.46,1.9,3.2,0,0,"$GNGGA,192935.000,4900.8870,N,00825.3506,E,2,12,0.79,120.6,M,47.9,M,,*73",,,,
2022-05-23T21:30:01+02:00,806,26.83,44.25,990.47,1.9,3.9,0,0,"$GNGGA,192956.000,4900.8737,N,00825.3527,E,2,12,0.77,121.0,M,47.9,M,,*70",,,,
2022-05-23T21:30:22+02:00,807,26.8,44.41,990.48,1.6,3.3,0,0,"$GNGGA,193017.000,4900.8597,N,00825.3532,E,2,11,0.83,113.7,M,47.9,M,,*7F",,,,
2022-05-23T21:30:43+02:00,808,26.77,44.4,990.48,1.5,3.3,0,0,"$GNGGA,193038.000,4900.8464,N,00825.3558,E,2,13,0.74,113.9,M,47.9,M,,*77",,,,
2022-05-23T21:31:04+02:00,809,26.76,44.6,990.48,1.8,4.6,0,0,"$GNGGA,193059.000,4900.8329,N,00825.3572,E,2,12,0.82,117.5,M,47.9,M,,*76",,,,
2022-05-23T21:31:25+02:00,810,26.74,44.73,990.48,2.1,4.2,0,0,"$GNGGA,193120.000,4900.8188,N,00825.3609,E,2,13,0.76,119.0,M,47.9,M,,*7E",,,,
2022-05-23T21:31:45+02:00,811,26.73,44.69,990.49,2.2,6,0,0,"$GNGGA,193140.000,4900.8075,N,00825.3624,E,2,13,0.74,124.8,M,47.9,M,,*70",,,,
2022-05-23T21:32:06+02:00,812,26.73,44.57,990.49,1.8,3.7,0,0,"$GNGGA,193201.000,4900.8057,N,00825.3761,E,2,13,0.74,127.3,M,47.9,M,,*7E",,,,
2022-05-23T21:32:26+02:00,813,26.75,44.67,990.5,1.6,3,0,0,"$GNGGA,193221.000,4900.8030,N,00825.3991,E,2,13,0.76,130.8,M,47.9,M,,*73",,,,
2022-05-23T21:32:46+02:00,814,26.76,45.07,990.51,1.4,1.7,0,0,"$GNGGA,193241.000,4900.8066,N,00825.4211,E,2,13,0.74,136.3,M,47.9,M,,*7D",,,,
2022-05-23T21:33:07+02:00,815,26.77,45.3,990.53,1.6,2.7,0,0,"$GNGGA,193302.000,4900.8071,N,00825.4415,E,2,13,0.74,138.8,M,47.9,M,,*7A",,,,
2022-05-23T21:33:28+02:00,816,26.77,45.71,990.54,1.8,4.5,0,0,"$GNGGA,193323.000,4900.7936,N,00825.4557,E,2,13,0.74,131.6,M,47.9,M,,*7C",,,,
2022-05-23T21:33:49+02:00,817,26.79,45.34,990.52,2,4,0,0,"$GNGGA,193344.000,4900.7919,N,00825.4735,E,2,10,1.08,131.5,M,47.9,M,,*7C",,,,
2022-05-23T21:34:10+02:00,818,26.84,45.17,990.43,1.7,2.9,0,0,"$GNGGA,193405.000,4900.7795,N,00825.4475,E,2,4,4.49,130.1,M,47.9,M,,*43",,,,
2022-05-23T21:34:30+02:00,819,26.91,44.91,990.27,1.6,2.2,0,0,"$GNGGA,193425.000,4900.7765,N,00825.4385,E,0,0,,129.8,M,47.9,M,,*56",,,,
2022-05-23T21:34:50+02:00,820,26.99,44.43,990.15,1.6,2.6,0,0,"$GNGGA,193445.000,4900.7765,N,00825.4385,E,0,0,,129.8,M,47.9,M,,*50",,,,
2022-05-23T21:35:11+02:00,821,27.07,44.56,990.07,1.7,1.9,0,0,"$GNGGA,193506.000,4900.7765,N,00825.4385,E,0,0,,129.8,M,47.9,M,,*56",,,,
2022-05-23T21:35:31+02:00,822,27.17,44.59,990.01,1.5,1.9,0,0,"$GNGGA,193526.000,4900.7765,N,00825.4385,E,0,0,,129.8,M,47.9,M,,*54",,,,
2022-05-23T21:35:52+02:00,823,27.29,44.43,989.97,1.7,2,0,0,"$GNGGA,193547.000,4900.7765,N,00825.4385,E,0,0,,129.8,M,47.9,M,,*53",,,,
2022-05-23T21:36:12+02:00,824,27.4,44.29,989.94,1.5,3.3,0,0,"$GNGGA,193607.000,4900.7833,N,00825.4259,E,2,8,1.60,117.3,M,47.9,M,,*4D",,,,
2022-05-23T21:36:32+02:00,825,27.52,44.04,989.92,1.5,3,0,0,"$GNGGA,193627.000,4900.7846,N,00825.4315,E,2,9,1.14,115.3,M,47.9,M,,*44",,,,
2022-05-23T21:36:53+02:00,826,27.64,43.57,989.88,1.4,2.5,0,0,"$GNGGA,193648.000,4900.7847,N,00825.4323,E,2,8,1.18,116.0,M,47.9,M,,*44",,,,
2022-05-23T21:37:13+02:00,827,27.76,43.13,989.87,1.5,2.7,0,0,"$GNGGA,193708.000,4900.7847,N,00825.4329,E,2,11,0.83,115.5,M,47.9,M,,*76",,,,
2022-05-23T21:37:34+02:00,828,27.87,42.77,989.87,1.6,2.2,0,0,"$GNGGA,193729.000,4900.7847,N,00825.4334,E,2,10,0.88,115.0,M,47.9,M,,*76",,,,
2022-05-23T21:37:55+02:00,829,27.99,42.65,989.86,1.5,2.5,0,0,"$GNGGA,193750.000,4900.7850,N,00825.4341,E,2,11,0.83,115.3,M,47.9,M,,*75",,,,
2022-05-23T21:38:16+02:00,830,28.11,42.54,989.86,1.3,2.1,0,0,"$GNGGA,193811.000,4900.7850,N,00825.4344,E,2,11,0.85,115.4,M,47.9,M,,*7B",,,,
2022-05-23T21:38:36+02:00,831,28.22,42.32,989.87,1.3,1.4,0,0,"$GNGGA,193831.000,4900.7843,N,00825.4353,E,2,11,0.83,116.2,M,47.9,M,,*7E",,,,
2022-05-23T21:38:57+02:00,832,28.32,42.14,989.87,1.5,1.9,0,0,"$GNGGA,193852.000,4900.7843,N,00825.4413,E,2,11,0.82,116.6,M,47.9,M,,*7D",,,,
2022-05-23T21:39:17+02:00,833,28.43,41.85,989.87,1.5,2.1,0,0,"$GNGGA,193912.000,4900.7845,N,00825.4421,E,2,11,0.83,117.7,M,47.9,M,,*7E",,,,
2022-05-23T21:39:38+02:00,834,28.53,41.61,989.87,1.4,3.1,0,0,"$GNGGA,193933.000,4900.7857,N,00825.4372,E,2,11,0.82,120.5,M,47.9,M,,*78",,,,
2022-05-23T21:39:59+02:00,835,28.63,41.49,989.88,1.4,2.3,0,0,"$GNGGA,193954.000,4900.7866,N,00825.4355,E,2,11,0.82,119.5,M,47.9,M,,*74",,,,
2022-05-23T21:40:19+02:00,836,28.72,41.4,989.89,1.3,1.6,0,0,"$GNGGA,194014.000,4900.7869,N,00825.4354,E,2,11,0.85,118.9,M,47.9,M,,*7A",,,,
2022-05-23T21:40:40+02:00,837,28.81,41.24,989.9,1.2,2,0,0,"$GNGGA,194035.000,4900.7867,N,00825.4353,E,2,9,0.98,119.4,M,47.9,M,,*49",,,,
2022-05-23T21:41:01+02:00,838,28.9,41.12,989.89,1.3,1.6,0,0,"$GNGGA,194056.000,4900.7860,N,00825.4344,E,2,10,1.58,120.5,M,47.9,M,,*73",,,,
2022-05-23T21:41:21+02:00,839,28.99,40.94,989.91,1.3,1.9,0,0,"$GNGGA,194116.000,4900.7834,N,00825.4467,E,2,9,1.58,122.0,M,47.9,M,,*4E",,,,
2022-05-23T21:41:41+02:00,840,29.08,40.7,989.92,1.3,2.9,0,0,"$GNGGA,194136.000,4900.7837,N,00825.4444,E,2,9,1.58,124.2,M,47.9,M,,*4A",,,,
2022-05-23T21:42:02+02:00,841,29.16,40.4,989.93,1.2,2,0,0,"$GNGGA,194157.000,4900.7853,N,00825.4406,E,2,9,1.12,123.9,M,47.9,M,,*4B",,,,
2022-05-23T21:42:22+02:00,842,29.23,40.06,989.93,1.3,2.4,0,0,"$GNGGA,194217.000,4900.7858,N,00825.4408,E,2,10,0.93,123.2,M,47.9,M,,*72",,,,
2022-05-23T21:42:43+02:00,843,29.31,39.88,989.93,1.5,2.2,0,0,"$GNGGA,194238.000,4900.7862,N,00825.4405,E,2,9,1.12,122.2,M,47.9,M,,*4A",,,,
2022-05-23T21:43:04+02:00,844,29.39,39.89,989.94,1.3,1.8,0,0,"$GNGGA,194259.000,4900.7861,N,00825.4403,E,2,11,0.86,122.3,M,47.9,M,,*7C",,,,
2022-05-23T21:43:24+02:00,845,29.46,39.75,989.94,1.2,2.2,0,0,"$GNGGA,194319.000,4900.7855,N,00825.4408,E,2,10,0.89,120.7,M,47.9,M,,*7D",,,,
2022-05-23T21:43:44+02:00,846,29.52,39.57,989.95,1.4,3.2,0,0,"$GNGGA,194339.000,4900.7847,N,00825.4407,E,2,11,0.86,121.1,M,47.9,M,,*7A",,,,
2022-05-23T21:44:06+02:00,847,29.59,39.51,989.95,1.5,2.8,0,0,"$GNGGA,194400.000,4900.7845,N,00825.4406,E,2,10,0.93,119.7,M,47.9,M,,*7C",,,,
2022-05-23T21:44:26+02:00,848,29.65,39.51,989.95,1.3,2,0,0,"$GNGGA,194421.000,4900.7840,N,00825.4408,E,2,9,1.60,119.7,M,47.9,M,,*41",,,,
2022-05-23T21:44:47+02:00,849,29.71,39.43,989.96,1.4,1.9,0,0,"$GNGGA,194442.000,4900.7841,N,00825.4409,E,2,11,0.86,119.1,M,47.9,M,,*72",,,,
2022-05-23T21:45:08+02:00,850,29.78,39.27,989.96,1.5,2.4,0,0,"$GNGGA,194503.000,4900.7844,N,00825.4413,E,2,11,0.86,118.9,M,47.9,M,,*71",,,,
2022-05-23T21:45:29+02:00,851,29.84,39.21,989.97,1.2,1.6,0,0,"$GNGGA,194524.000,4900.7850,N,00825.4411,E,2,9,1.12,118.2,M,47.9,M,,*4D",,,,
2022-05-23T21:45:50+02:00,852,29.89,39.02,989.97,1.4,4.7,0,0,"$GNGGA,194545.000,4900.7849,N,00825.4408,E,2,9,1.11,118.4,M,47.9,M,,*4F",,,,
2022-05-23T21:46:10+02:00,853,29.95,38.89,989.97,1.6,5.6,0,0,"$GNGGA,194605.000,4900.7851,N,00825.4410,E,2,10,0.94,117.8,M,47.9,M,,*7F",,,,
2022-05-23T21:46:30+02:00,854,30,38.89,989.98,1.4,2.3,0,0,"$GNGGA,194625.000,4900.7850,N,00825.4407,E,2,11,0.86,118.0,M,47.9,M,,*7F",,,,
2022-05-23T21:46:51+02:00,855,30.06,38.7,989.98,1.5,2.4,0,0,"$GNGGA,194646.000,4900.7847,N,00825.4411,E,2,12,0.76,118.1,M,47.9,M,,*76",,,,
2022-05-23T21:47:11+02:00,856,30.11,38.69,989.97,1.4,3,0,0,"$GNGGA,194706.000,4900.7847,N,00825.4410,E,2,9,1.29,118.5,M,47.9,M,,*47",,,,
2022-05-23T21:47:32+02:00,857,30.16,38.61,989.96,1.3,2.3,0,0,"$GNGGA,194727.000,4900.7847,N,00825.4412,E,2,8,1.43,118.5,M,47.9,M,,*4B",,,,
2022-05-23T21:47:53+02:00,858,30.2,38.29,989.96,1.4,2.5,0,0,"$GNGGA,194748.000,4900.7847,N,00825.4411,E,2,9,0.92,118.6,M,47.9,M,,*4E",,,,
2022-05-23T21:48:13+02:00,859,30.24,38.29,989.94,1.5,2.5,0,0,"$GNGGA,194808.000,4900.7850,N,00825.4413,E,2,9,1.03,118.1,M,47.9,M,,*4F",,,,
2022-05-23T21:48:34+02:00,860,30.28,38.33,989.94,1.5,3.3,0,0,"$GNGGA,194829.000,4900.7853,N,00825.4415,E,2,9,1.24,117.9,M,47.9,M,,*4B",,,,
2022-05-23T21:48:55+02:00,861,30.32,38.38,989.93,1.3,2.3,0,0,"$GNGGA,194850.000,4900.7853,N,00825.4412,E,2,9,1.24,118.4,M,47.9,M,,*40",,,,
2022-05-23T21:49:15+02:00,862,30.36,38.38,989.93,1.2,2.6,0,0,"$GNGGA,194910.000,4900.7854,N,00825.4413,E,2,9,0.98,118.7,M,47.9,M,,*46",,,,
2022-05-23T21:49:36+02:00,863,30.4,38.41,989.93,1.3,2.3,0,0,"$GNGGA,194931.000,4900.7855,N,00825.4412,E,2,11,0.85,118.7,M,47.9,M,,*70",,,,
2022-05-23T21:49:57+02:00,864,30.44,38.33,989.95,1.1,1.5,0,0,"$GNGGA,194952.000,4900.7849,N,00825.4410,E,2,10,0.87,119.4,M,47.9,M,,*7B",,,,
2022-05-23T21:50:18+02:00,865,30.47,38.3,989.97,1.2,1.7,0,0,"$GNGGA,195013.000,4900.7847,N,00825.4423,E,2,7,3.24,120.5,M,47.9,M,,*4F",,,,
2022-05-23T21:50:38+02:00,866,30.5,38.11,989.97,1.3,2.1,0,0,"$GNGGA,195033.000,4900.7851,N,00825.4435,E,2,9,0.99,119.1,M,47.9,M,,*48",,,,
2022-05-23T21:50:59+02:00,867,30.54,38.06,989.98,1.3,2.2,0,0,"$GNGGA,195054.000,4900.7863,N,00825.4459,E,2,9,1.11,116.5,M,47.9,M,,*48",,,,
2022-05-23T21:51:19+02:00,868,30.58,38.02,989.98,1.2,1.4,0,0,"$GNGGA,195114.000,4900.7872,N,00825.4467,E,2,10,0.93,116.2,M,47.9,M,,*74",,,,
2022-05-23T21:51:40+02:00,869,30.62,37.68,989.99,1.5,2.1,0,0,"$GNGGA,195135.000,4900.7873,N,00825.4449,E,2,9,1.23,118.0,M,47.9,M,,*44",,,,
2022-05-23T21:52:01+02:00,870,30.65,37.62,990,1.4,2,0,0,"$GNGGA,195156.000,4900.7864,N,00825.4420,E,2,10,0.94,120.5,M,47.9,M,,*73",,,,
2022-05-23T21:52:21+02:00,871,30.68,37.55,990,1.5,2.4,0,0,"$GNGGA,195216.000,4900.7863,N,00825.4409,E,2,9,0.95,121.5,M,47.9,M,,*40",,,,
2022-05-23T21:52:41+02:00,872,30.7,37.53,989.99,1.3,2.1,0,0,"$GNGGA,195236.000,4900.7857,N,00825.4388,E,2,9,1.10,123.1,M,47.9,M,,*41",,,,
2022-05-23T21:53:02+02:00,873,30.72,37.47,990,1.5,2.7,0,0,"$GNGGA,195257.000,4900.7855,N,00825.4390,E,2,9,1.23,123.7,M,47.9,M,,*4B",,,,
2022-05-23T21:53:22+02:00,874,30.74,37.56,990,1.2,2.3,0,0,"$GNGGA,195317.000,4900.7863,N,00825.4409,E,2,9,1.23,123.5,M,47.9,M,,*4E",,,,
2022-05-23T21:53:42+02:00,875,30.76,37.51,990.01,1.2,2.4,0,0,"$GNGGA,195337.000,4900.7863,N,00825.4437,E,2,10,0.88,123.2,M,47.9,M,,*7E",,,,
2022-05-23T21:54:03+02:00,876,30.78,37.31,990.01,1.4,2.8,0,0,"$GNGGA,195358.000,4900.7867,N,00825.4431,E,2,9,0.95,121.9,M,47.9,M,,*48",,,,
2022-05-23T21:54:23+02:00,877,30.8,37.11,990,1.6,2.8,0,0,"$GNGGA,195418.000,4900.7869,N,00825.4455,E,2,9,1.00,117.4,M,47.9,M,,*42",,,,
2022-05-23T21:54:44+02:00,878,30.82,37.12,990,1.3,2.1,0,0,"$GNGGA,195439.000,4900.7865,N,00825.4456,E,2,11,0.83,117.1,M,47.9,M,,*78",,,,
2022-05-23T21:55:05+02:00,879,30.83,37.06,990,1.5,2.8,0,0,"$GNGGA,195500.000,4900.7863,N,00825.4457,E,2,11,0.85,117.6,M,47.9,M,,*75",,,,
2022-05-23T21:55:26+02:00,880,30.84,37.12,990.01,1.6,2.6,0,0,"$GNGGA,195521.000,4900.7859,N,00825.4476,E,2,9,0.97,116.7,M,47.9,M,,*46",,,,
2022-05-23T21:55:46+02:00,881,30.85,37.22,990.01,1.2,1.9,0,0,"$GNGGA,195541.000,4900.7847,N,00825.4459,E,2,10,1.11,116.0,M,47.9,M,,*72",,,,
2022-05-23T21:56:07+02:00,882,30.87,37.3,990.01,1.2,1.6,0,0,"$GNGGA,195602.000,4900.7847,N,00825.4473,E,2,10,0.92,112.5,M,47.9,M,,*75",,,,
2022-05-23T21:56:27+02:00,883,30.89,37.33,990.02,1.1,1.8,0,0,"$GNGGA,195622.000,4900.7863,N,00825.4440,E,2,9,1.68,112.7,M,47.9,M,,*4F",,,,
2022-05-23T21:56:47+02:00,884,30.9,37.28,990.03,1.1,1.9,0,0,"$GNGGA,195642.000,4900.7867,N,00825.4439,E,2,9,1.23,112.9,M,47.9,M,,*42",,,,
2022-05-23T21:57:08+02:00,885,30.92,37.25,990.03,1.1,1.3,0,0,"$GNGGA,195703.000,4900.7871,N,00825.4445,E,2,10,0.93,112.8,M,47.9,M,,*79",,,,
2022-05-23T21:57:28+02:00,886,30.94,37.13,990.03,1.3,1.8,0,0,"$GNGGA,195723.000,4900.7873,N,00825.4442,E,2,9,1.23,112.9,M,47.9,M,,*4D",,,,
2022-05-23T21:57:48+02:00,887,30.96,37.18,990.04,1.2,1.7,0,0,"$GNGGA,195743.000,4900.7862,N,00825.4413,E,2,10,0.96,116.6,M,47.9,M,,*73",,,,
2022-05-23T21:58:09+02:00,888,30.98,37.21,990.05,1.1,1.7,0,0,"$GNGGA,195804.000,4900.7847,N,00825.4356,E,2,10,0.93,123.5,M,47.9,M,,*7E",,,,
2022-05-23T21:58:29+02:00,889,31.01,37.19,990.05,1.1,2.3,0,0,"$GNGGA,195824.000,4900.7850,N,00825.4349,E,2,9,1.23,125.7,M,47.9,M,,*42",,,,
2022-05-23T21:58:50+02:00,890,31.03,37.18,990.06,1.1,1.5,0,0,"$GNGGA,195845.000,4900.7834,N,00825.4317,E,2,10,1.69,132.3,M,47.9,M,,*78",,,,
2022-05-23T21:59:11+02:00,891,31.05,36.77,990.09,1.2,1.4,0,0,"$GNGGA,195906.000,4900.7834,N,00825.4332,E,2,11,0.82,136.1,M,47.9,M,,*7A",,,,
2022-05-23T21:59:32+02:00,892,31.08,36.65,990.1,1.4,2.6,0,0,"$GNGGA,195927.000,4900.7841,N,00825.4363,E,2,10,0.88,135.1,M,47.9,M,,*77",,,,
2022-05-23T21:59:53+02:00,893,31.11,36.58,990.1,1.7,2.8,0,0,"$GNGGA,195948.000,4900.7853,N,00825.4301,E,2,10,0.88,136.6,M,47.9,M,,*7D",,,,
2022-05-23T22:00:14+02:00,894,31.14,36.6,990.12,1.6,2,0,0,"$GNGGA,200009.000,4900.7862,N,00825.4307,E,2,11,0.86,133.2,M,47.9,M,,*74",,,,
2022-05-23T22:00:35+02:00,895,31.18,36.45,990.13,1.3,1.7,0,0,"$GNGGA,200030.000,4900.7875,N,00825.4336,E,2,9,0.95,126.2,M,47.9,M,,*45",,,,
2022-05-23T22:00:55+02:00,896,31.2,36.38,990.14,1.5,2.9,0,0,"$GNGGA,200050.000,4900.7876,N,00825.4351,E,2,8,1.25,123.4,M,47.9,M,,*49",,,,
2022-05-23T22:01:16+02:00,897,31.23,36.39,990.15,1.3,2.1,0,0,"$GNGGA,200111.000,4900.7885,N,00825.4343,E,2,10,0.93,124.1,M,47.9,M,,*75",,,,
2022-05-23T22:01:37+02:00,898,31.25,36.46,990.16,1.1,1.9,0,0,"$GNGGA,200132.000,4900.7877,N,00825.4386,E,2,9,1.24,123.8,M,47.9,M,,*4B",,,,
2022-05-23T22:01:58+02:00,899,31.28,36.38,990.18,1.1,1.3,0,0,"$GNGGA,200153.000,4900.7867,N,00825.4464,E,2,10,0.98,121.5,M,47.9,M,,*77",,,,
2022-05-23T22:02:19+02:00,900,31.29,36.16,990.19,1.3,1.8,0,0,"$GNGGA,200214.000,4900.7852,N,00825.4482,E,2,8,3.26,126.5,M,47.9,M,,*41",,,,
2022-05-23T22:02:39+02:00,901,31.3,36.03,990.19,1.5,2.9,0,0,"$GNGGA,200234.000,4900.7836,N,00825.4435,E,2,9,1.98,136.2,M,47.9,M,,*4D",,,,
2022-05-23T22:03:00+02:00,902,31.3,36.07,990.2,1.6,2.4,0,0,"$GNGGA,200255.000,4900.7845,N,00825.4350,E,2,10,0.96,138.0,M,47.9,M,,*71",,,,
2022-05-23T22:03:21+02:00,903,31.31,36.17,990.2,1.5,2.5,0,0,"$GNGGA,200316.000,4900.7854,N,00825.4365,E,2,8,1.73,132.9,M,47.9,M,,*41",,,,
2022-05-23T22:03:42+02:00,904,31.31,36.24,990.2,1.3,3.8,0,0,"$GNGGA,200337.000,4900.7854,N,00825.4377,E,2,8,1.73,128.9,M,47.9,M,,*4A",,,,
2022-05-23T22:04:03+02:00,905,31.31,36.31,990.2,1.2,3.9,0,0,"$GNGGA,200358.000,4900.7860,N,00825.4416,E,2,8,1.73,123.1,M,47.9,M,,*47",,,,
2022-05-23T22:04:24+02:00,906,31.31,36.38,990.2,1.3,1.8,0,0,"$GNGGA,200419.000,4900.7868,N,00825.4446,E,2,8,2.08,116.1,M,47.9,M,,*41",,,,
2022-05-23T22:04:44+02:00,907,31.32,36.4,990.2,1.4,2.7,0,0,"$GNGGA,200439.000,4900.7868,N,00825.4488,E,2,7,2.30,109.5,M,47.9,M,,*4F",,,,
2022-05-23T22:05:05+02:00,908,31.31,36.3,990.21,1.4,2.7,0,0,"$GNGGA,200500.000,4900.7866,N,00825.4545,E,2,8,8.81,105.3,M,47.9,M,,*4F",,,,
2022-05-23T22:05:26+02:00,909,31.32,36.12,990.21,1.4,3.4,0,0,"$GNGGA,200521.000,4900.7872,N,00825.4623,E,2,9,1.05,99.9,M,47.9,M,,*70",,,,
2022-05-23T22:05:47+02:00,910,31.32,36.01,990.2,1.6,2.8,0,0,"$GNGGA,200542.000,4900.7881,N,00825.4558,E,2,9,1.05,102.7,M,47.9,M,,*4B",,,,
2022-05-23T22:06:08+02:00,911,31.32,36.01,990.21,1.6,2.4,0,0,"$GNGGA,200603.000,4900.7871,N,00825.4567,E,2,8,1.12,106.0,M,47.9,M,,*4A",,,,
2022-05-23T22:06:29+02:00,912,31.32,35.99,990.2,1.7,3.9,0,0,"$GNGGA,200624.000,4900.7872,N,00825.4534,E,2,9,1.04,107.2,M,47.9,M,,*4F",,,,
2022-05-23T22:06:49+02:00,913,31.32,36.04,990.2,2.1,6.1,0,0,"$GNGGA,200644.000,4900.7874,N,00825.4501,E,2,7,2.31,109.7,M,47.9,M,,*49",,,,
2022-05-23T22:07:10+02:00,914,31.33,36.11,990.19,1.9,5.2,0,0,"$GNGGA,200705.000,4900.7877,N,00825.4478,E,2,8,1.73,110.3,M,47.9,M,,*47",,,,
2022-05-23T22:07:31+02:00,915,31.33,36.07,990.2,1.2,1.7,0,0,"$GNGGA,200726.000,4900.7876,N,00825.4375,E,2,11,0.82,111.5,M,47.9,M,,*7D",,,,
2022-05-23T22:07:51+02:00,916,31.32,36.12,990.19,1.2,2.2,0,0,"$GNGGA,200746.000,4900.7871,N,00825.4304,E,2,9,1.38,116.7,M,47.9,M,,*46",,,,
2022-05-23T22:08:12+02:00,917,31.32,36.25,990.2,1,1.5,0,0,"$GNGGA,200807.000,4900.7869,N,00825.4334,E,2,9,1.01,121.1,M,47.9,M,,*4E",,,,
2022-05-23T22:08:33+02:00,918,31.31,36.3,990.19,1.1,1.7,0,0,"$GNGGA,200828.000,4900.7870,N,00825.4344,E,2,9,1.03,124.1,M,47.9,M,,*4B",,,,
2022-05-23T22:08:53+02:00,919,31.32,36.35,990.19,1,1.6,0,0,"$GNGGA,200848.000,4900.7870,N,00825.4333,E,2,11,0.87,124.6,M,47.9,M,,*7E",,,,
2022-05-23T22:09:14+02:00,920,31.32,36.34,990.18,1.1,1.9,0,0,"$GNGGA,200909.000,4900.7865,N,00825.4382,E,2,9,0.97,125.4,M,47.9,M,,*4F",,,,
2022-05-23T22:09:35+02:00,921,31.33,36.22,990.19,1.2,1.7,0,0,"$GNGGA,200930.000,4900.7859,N,00825.4382,E,2,10,0.97,126.1,M,47.9,M,,*74",,,,
2022-05-23T22:09:56+02:00,922,31.35,35.91,990.18,1.5,2.8,0,0,"$GNGGA,200951.000,4900.7859,N,00825.4366,E,2,9,0.98,126.2,M,47.9,M,,*4D",,,,
2022-05-23T22:10:17+02:00,923,31.36,35.94,990.18,1.4,1.9,0,0,"$GNGGA,201012.000,4900.7861,N,00825.4347,E,2,9,0.98,128.0,M,47.9,M,,*46",,,,
2022-05-23T22:10:38+02:00,924,31.37,36.05,990.17,1.2,2.3,0,0,"$GNGGA,201033.000,4900.7875,N,00825.4361,E,2,10,0.97,128.5,M,47.9,M,,*76",,,,
2022-05-23T22:10:59+02:00,925,31.38,36.11,990.18,1,1.3,0,0,"$GNGGA,201054.000,4900.7873,N,00825.4369,E,2,10,0.97,129.0,M,47.9,M,,*7D",,,,
2022-05-23T22:11:20+02:00,926,31.38,36.13,990.19,1.1,1.5,0,0,"$GNGGA,201115.000,4900.7870,N,00825.4364,E,2,9,0.98,130.3,M,47.9,M,,*4B",,,,
2022-05-23T22:11:40+02:00,927,31.38,36.16,990.19,1.2,1.5,0,0,"$GNGGA,201135.000,4900.7862,N,00825.4360,E,2,10,1.83,129.9,M,47.9,M,,*7F",,,,
2022-05-23T22:12:00+02:00,928,31.4,36.07,990.21,1.4,2.6,0,0,"$GNGGA,201155.000,4900.7857,N,00825.4349,E,2,8,1.90,128.8,M,47.9,M,,*4F",,,,
2022-05-23T22:12:21+02:00,929,31.42,36,990.21,1.5,2.6,0,0,"$GNGGA,201216.000,4900.7854,N,00825.4342,E,2,9,0.98,126.7,M,47.9,M,,*4A",,,,
2022-05-23T22:12:41+02:00,930,31.44,35.99,990.21,1.3,1.9,0,0,"$GNGGA,201236.000,4900.7844,N,00825.4345,E,2,10,1.84,127.4,M,47.9,M,,*78",,,,
2022-05-23T22:13:02+02:00,931,31.46,35.87,990.22,1.5,2,0,0,"$GNGGA,201257.000,4900.7850,N,00825.4352,E,2,10,1.91,126.6,M,47.9,M,,*7B",,,,
2022-05-23T22:13:23+02:00,932,31.48,35.94,990.22,1.4,2.1,0,0,"$GNGGA,201318.000,4900.7853,N,00825.4353,E,2,10,0.98,128.1,M,47.9,M,,*72",,,,
2022-05-23T22:13:43+02:00,933,31.5,35.83,990.22,1.4,2.4,0,0,"$GNGGA,201338.000,4900.7840,N,00825.4288,E,2,8,1.16,130.5,M,47.9,M,,*46",,,,
2022-05-23T22:14:04+02:00,934,31.52,35.77,990.22,1.6,3.2,0,0,"$GNGGA,201359.000,4900.7833,N,00825.4303,E,2,7,2.05,130.0,M,47.9,M,,*4C",,,,
2022-05-23T22:14:25+02:00,935,31.54,35.79,990.23,1.5,2.1,0,0,"$GNGGA,201420.000,4900.7840,N,00825.4305,E,2,9,0.99,126.4,M,47.9,M,,*4D",,,,
2022-05-23T22:14:45+02:00,936,31.55,35.73,990.23,1.5,3.4,0,0,"$GNGGA,201440.000,4900.7836,N,00825.4349,E,2,9,0.99,125.5,M,47.9,M,,*40",,,,
2022-05-23T22:15:05+02:00,937,31.57,35.76,990.23,1.5,2.4,0,0,"$GNGGA,201500.000,4900.7843,N,00825.4341,E,2,10,0.98,124.2,M,47.9,M,,*70",,,,
2022-05-23T22:15:26+02:00,938,31.57,35.58,990.22,1.8,3.3,0,0,"$GNGGA,201521.000,4900.7844,N,00825.4248,E,2,9,0.99,124.8,M,47.9,M,,*4F",,,,
2022-05-23T22:15:46+02:00,939,31.58,35.64,990.22,1.8,3.4,0,0,"$GNGGA,201541.000,4900.7862,N,00825.4236,E,2,10,0.98,124.0,M,47.9,M,,*75",,,,
2022-05-23T22:16:07+02:00,940,31.59,35.6,990.23,1.6,1.9,0,0,"$GNGGA,201602.000,4900.7858,N,00825.4228,E,2,9,1.12,124.3,M,47.9,M,,*4F",,,,
2022-05-23T22:16:28+02:00,941,31.58,35.61,990.22,2,3.6,0,0,"$GNGGA,201623.000,4900.7855,N,00825.4253,E,2,9,0.99,124.9,M,47.9,M,,*45",,,,
2022-05-23T22:16:48+02:00,942,31.58,35.58,990.22,2.1,4.4,0,0,"$GNGGA,201643.000,4900.7857,N,00825.4259,E,2,9,1.93,124.7,M,47.9,M,,*4E",,,,
2022-05-23T22:17:09+02:00,943,31.57,35.62,990.22,1.9,3.3,0,0,"$GNGGA,201704.000,4900.7857,N,00825.4263,E,2,9,0.99,125.3,M,47.9,M,,*4B",,,,
2022-05-23T22:17:29+02:00,944,31.56,35.66,990.22,2.1,4.2,0,0,"$GNGGA,201724.000,4900.7854,N,00825.4269,E,2,9,1.09,125.3,M,47.9,M,,*48",,,,
2022-05-23T22:17:50+02:00,945,31.55,35.65,990.21,1.8,3.2,0,0,"$GNGGA,201745.000,4900.7852,N,00825.4276,E,2,7,2.02,125.3,M,47.9,M,,*41",,,,
2022-05-23T22:18:11+02:00,946,31.55,35.67,990.2,1.6,3.5,0,0,"$GNGGA,201806.000,4900.7848,N,00825.4284,E,2,8,1.37,125.7,M,47.9,M,,*41",,,,
2022-05-23T22:18:31+02:00,947,31.54,35.7,990.19,1.5,2.3,0,0,"$GNGGA,201826.000,4900.7853,N,00825.4287,E,2,9,1.12,125.2,M,47.9,M,,*49",,,,
2022-05-23T22:18:52+02:00,948,31.54,35.74,990.19,1.3,1.9,0,0,"$GNGGA,201847.000,4900.7853,N,00825.4291,E,2,8,1.17,125.6,M,47.9,M,,*49",,,,
2022-05-23T22:19:13+02:00,949,31.54,35.77,990.19,1.2,2,0,0,"$GNGGA,201908.000,4900.7859,N,00825.4293,E,2,9,1.06,123.9,M,47.9,M,,*43",,,,
2022-05-23T22:19:33+02:00,950,31.54,35.83,990.2,1.1,1.4,0,0,"$GNGGA,201928.000,4900.7859,N,00825.4292,E,2,10,1.05,123.3,M,47.9,M,,*71",,,,
2022-05-23T22:19:54+02:00,951,31.54,35.89,990.21,1.2,1.8,0,0,"$GNGGA,201949.000,4900.7861,N,00825.4294,E,2,9,1.12,123.1,M,47.9,M,,*47",,,,
2022-05-23T22:20:15+02:00,952,31.53,35.94,990.22,1.6,2.9,0,0,"$GNGGA,202010.000,4900.7862,N,00825.4297,E,2,9,1.90,122.5,M,47.9,M,,*4E",,,,
2022-05-23T22:20:35+02:00,953,31.52,35.95,990.22,1.7,2.3,0,0,"$GNGGA,202030.000,4900.7862,N,00825.4299,E,2,8,1.22,122.6,M,47.9,M,,*49",,,,
2022-05-23T22:20:56+02:00,954,31.53,35.91,990.23,1.7,2.5,0,0,"$GNGGA,202051.000,4900.7861,N,00825.4300,E,2,9,1.36,122.9,M,47.9,M,,*47",,,,
2022-05-23T22:21:20+02:00,955,31.53,35.93,990.23,1.5,1.7,0,0,"$GNGGA,202115.000,4900.7825,N,00825.4288,E,2,10,0.99,133.2,M,47.9,M,,*70",,,,
2022-05-23T22:21:40+02:00,956,31.54,35.87,990.23,1.8,2.4,0,0,"$GNGGA,202135.000,4900.7824,N,00825.4294,E,2,9,1.00,132.8,M,47.9,M,,*4C",,,,
2022-05-23T22:22:01+02:00,957,31.56,35.84,990.23,2,3.2,0,0,"$GNGGA,202156.000,4900.7827,N,00825.4295,E,2,8,1.18,131.7,M,47.9,M,,*4F",,,,
2022-05-23T22:22:23+02:00,958,31.56,35.79,990.21,2.2,4.3,0,0,"$GNGGA,202218.000,4900.7838,N,00825.4299,E,2,8,1.18,129.8,M,47.9,M,,*42",,,,
2022-05-23T22:22:45+02:00,959,31.56,35.8,990.22,2.5,4.3,0,0,"$GNGGA,202240.000,4900.7840,N,00825.4298,E,2,8,1.18,128.9,M,47.9,M,,*41",,,,
2022-05-23T22:23:06+02:00,960,31.58,35.71,990.24,1.9,2.5,0,0,"$GNGGA,202301.000,4900.7843,N,00825.4297,E,2,10,0.95,128.6,M,47.9,M,,*7B",,,,
2022-05-23T22:23:27+02:00,961,31.59,35.72,990.24,1.7,2.2,0,0,"$GNGGA,202322.000,4900.7855,N,00825.4300,E,2,11,0.82,125.8,M,47.9,M,,*76",,,,
2022-05-23T22:23:48+02:00,962,31.6,35.73,990.26,1.9,3.3,0,0,"$GNGGA,202343.000,4900.7860,N,00825.4283,E,2,11,0.82,124.7,M,47.9,M,,*73",,,,
2022-05-23T22:24:09+02:00,963,31.6,35.7,990.27,2.3,4.1,0,0,"$GNGGA,202404.000,4900.7869,N,00825.4368,E,2,8,1.80,121.9,M,47.9,M,,*4A",,,,
2022-05-23T22:24:30+02:00,964,31.6,35.69,990.27,2.1,3.1,0,0,"$GNGGA,202425.000,4900.7886,N,00825.4331,E,2,11,0.83,117.7,M,47.9,M,,*75",,,,
2022-05-23T22:24:51+02:00,965,31.6,35.7,990.28,1.8,3,0,0,"$GNGGA,202446.000,4900.7884,N,00825.4362,E,2,11,0.83,116.6,M,47.9,M,,*74",,,,
2022-05-23T22:25:12+02:00,966,31.6,35.71,990.28,2,3.8,0,0,"$GNGGA,202507.000,4900.7869,N,00825.4322,E,2,8,1.01,117.3,M,47.9,M,,*40",,,,
2022-05-23T22:25:32+02:00,967,31.6,35.69,990.28,2,4.4,0,0,"$GNGGA,202527.000,4900.7871,N,00825.4290,E,2,8,1.06,118.5,M,47.9,M,,*4D",,,,
2022-05-23T22:25:53+02:00,968,31.6,35.68,990.28,2.1,5.3,0,0,"$GNGGA,202548.000,4900.7869,N,00825.4251,E,2,10,0.95,118.8,M,47.9,M,,*7F",,,,
2022-05-23T22:26:14+02:00,969,31.61,35.66,990.28,1.6,2.3,0,0,"$GNGGA,202609.000,4900.7860,N,00825.4296,E,2,9,1.00,118.2,M,47.9,M,,*44",,,,
2022-05-23T22:26:35+02:00,970,31.61,35.69,990.28,1.5,3,0,0,"$GNGGA,202630.000,4900.7860,N,00825.4344,E,2,9,1.20,119.1,M,47.9,M,,*40",,,,
2022-05-23T22:26:56+02:00,971,31.62,35.68,990.29,1.8,3.8,0,0,"$GNGGA,202651.000,4900.7860,N,00825.4293,E,2,8,1.78,119.2,M,47.9,M,,*43",,,,
2022-05-23T22:27:17+02:00,972,31.62,35.67,990.3,2.1,3,0,0,"$GNGGA,202712.000,4900.7864,N,00825.4243,E,2,8,1.10,118.0,M,47.9,M,,*41",,,,
2022-05-23T22:27:37+02:00,973,31.61,35.68,990.31,2.4,4.2,0,0,"$GNGGA,202732.000,4900.7874,N,00825.4295,E,2,7,2.38,116.2,M,47.9,M,,*43",,,,
2022-05-23T22:27:57+02:00,974,31.61,35.68,990.3,1.8,3,0,0,"$GNGGA,202752.000,4900.7873,N,00825.4322,E,2,10,0.94,114.3,M,47.9,M,,*7E",,,,
2022-05-23T22:28:18+02:00,975,31.61,35.66,990.3,1.6,2,0,0,"$GNGGA,202813.000,4900.7874,N,00825.4316,E,2,10,0.94,113.9,M,47.9,M,,*79",,,,
2022-05-23T22:28:39+02:00,976,31.61,35.66,990.3,1.5,2.3,0,0,"$GNGGA,202834.000,4900.7871,N,00825.4314,E,2,8,1.10,111.8,M,47.9,M,,*4C",,,,
2022-05-23T22:29:00+02:00,977,31.61,35.66,990.29,2,3.8,0,0,"$GNGGA,202855.000,4900.7863,N,00825.4231,E,2,9,1.04,118.4,M,47.9,M,,*4F",,,,
2022-05-23T22:29:21+02:00,978,31.6,35.65,990.3,2.2,4,0,0,"$GNGGA,202916.000,4900.7872,N,00825.4258,E,2,9,1.07,121.8,M,47.9,M,,*43",,,,
2022-05-23T22:29:42+02:00,979,31.59,35.69,990.29,2.1,3.4,0,0,"$GNGGA,202937.000,4900.7864,N,00825.4198,E,2,10,0.94,129.0,M,47.9,M,,*7B",,,,
2022-05-23T22:30:03+02:00,980,31.59,35.65,990.28,1.9,3.5,0,0,"$GNGGA,202958.000,4900.7864,N,00825.4221,E,2,10,0.94,127.5,M,47.9,M,,*78",,,,
2022-05-23T22:30:23+02:00,981,31.58,35.67,990.28,1.8,3.7,0,0,"$GNGGA,203018.000,4900.7863,N,00825.4164,E,2,10,0.94,125.4,M,47.9,M,,*72",,,,
2022-05-23T22:30:44+02:00,982,31.59,35.66,990.28,2,4.3,0,0,"$GNGGA,203039.000,4900.7844,N,00825.4211,E,2,6,4.25,128.1,M,47.9,M,,*44",,,,
2022-05-23T22:31:05+02:00,983,31.61,35.56,990.28,2,3.1,0,0,"$GNGGA,203100.000,4900.7851,N,00825.4240,E,2,7,2.33,128.5,M,47.9,M,,*4B",,,,
2022-05-23T22:31:25+02:00,984,31.61,35.56,990.28,2,3.2,0,0,"$GNGGA,203120.000,4900.7840,N,00825.4230,E,2,7,1.39,126.2,M,47.9,M,,*4E",,,,
2022-05-23T22:31:46+02:00,985,31.61,35.56,990.28,1.9,3.5,0,0,"$GNGGA,203141.000,4900.7831,N,00825.4269,E,2,9,0.95,127.6,M,47.9,M,,*4F",,,,
2022-05-23T22:32:07+02:00,986,31.61,35.63,990.29,2.2,3.8,0,0,"$GNGGA,203202.000,4900.7835,N,00825.4122,E,2,8,1.36,133.1,M,47.9,M,,*48",,,,
2022-05-23T22:32:27+02:00,987,31.6,35.65,990.29,1.9,3.7,0,0,"$GNGGA,203222.000,4900.7821,N,00825.4143,E,2,9,1.04,137.9,M,47.9,M,,*44",,,,
2022-05-23T22:32:47+02:00,988,31.59,35.67,990.3,1.6,2.6,0,0,"$GNGGA,203242.000,4900.7839,N,00825.4200,E,2,9,1.04,137.3,M,47.9,M,,*45",,,,
2022-05-23T22:33:08+02:00,989,31.59,35.69,990.3,1.5,2.9,0,0,"$GNGGA,203303.000,4900.7832,N,00825.4207,E,2,9,1.04,136.5,M,47.9,M,,*4A",,,,
2022-05-23T22:33:29+02:00,990,31.58,35.72,990.3,1.4,2.2,0,0,"$GNGGA,203324.000,4900.7826,N,00825.4148,E,2,9,1.04,136.8,M,47.9,M,,*4F",,,,
2022-05-23T22:33:50+02:00,991,31.57,35.76,990.32,1.6,2.9,0,0,"$GNGGA,203345.000,4900.7828,N,00825.4130,E,2,10,0.94,136.3,M,47.9,M,,*72",,,,
2022-05-23T22:34:11+02:00,992,31.57,35.73,990.32,1.9,3.7,0,0,"$GNGGA,203406.000,4900.7838,N,00825.4169,E,2,10,0.94,133.2,M,47.9,M,,*7B",,,,
2022-05-23T22:34:32+02:00,993,31.57,35.74,990.3,1.6,2.9,0,0,"$GNGGA,203427.000,4900.7833,N,00825.4219,E,2,8,1.09,134.6,M,47.9,M,,*48",,,,
2022-05-23T22:34:53+02:00,994,31.57,35.76,990.32,1.5,2.5,0,0,"$GNGGA,203448.000,4900.7822,N,00825.4252,E,2,9,0.95,131.5,M,47.9,M,,*4D",,,,
2022-05-23T22:35:14+02:00,995,31.57,35.77,990.32,1.6,2.5,0,0,"$GNGGA,203509.000,4900.7808,N,00825.4193,E,2,9,1.04,128.5,M,47.9,M,,*4E",,,,
2022-05-23T22:35:35+02:00,996,31.57,35.77,990.33,1.7,4.8,0,0,"$GNGGA,203530.000,4900.7813,N,00825.4189,E,2,9,1.04,126.0,M,47.9,M,,*4E",,,,
2022-05-23T22:35:56+02:00,997,31.57,35.76,990.32,2,6.3,0,0,"$GNGGA,203551.000,4900.7853,N,00825.4242,E,2,9,0.95,126.0,M,47.9,M,,*40",,,,
2022-05-23T22:36:17+02:00,998,31.57,35.73,990.31,2.1,5.3,0,0,"$GNGGA,203612.000,4900.7852,N,00825.4210,E,2,8,1.09,129.7,M,47.9,M,,*4F",,,,
2022-05-23T22:36:37+02:00,999,31.57,35.73,990.32,1.7,2.4,0,0,"$GNGGA,203632.000,4900.7829,N,00825.4234,E,2,8,1.09,130.6,M,47.9,M,,*4E",,,,
2022-05-23T22:36:58+02:00,1000,31.56,35.74,990.31,1.5,2.1,0,0,"$GNGGA,203653.000,4900.7838,N,00825.4257,E,2,8,1.09,129.3,M,47.9,M,,*41",,,,
2022-05-23T22:37:19+02:00,1001,31.56,35.78,990.31,1.3,2.7,0,0,"$GNGGA,203714.000,4900.7843,N,00825.4252,E,2,8,1.13,126.7,M,47.9,M,,*4A",,,,
2022-05-23T22:37:40+02:00,1002,31.56,35.82,990.3,1.5,2.4,0,0,"$GNGGA,203735.000,4900.7856,N,00825.4316,E,2,7,1.04,123.2,M,47.9,M,,*45",,,,
2022-05-23T22:38:01+02:00,1003,31.57,35.77,990.3,2,3.2,0,0,"$GNGGA,203756.000,4900.7853,N,00825.4317,E,2,8,1.03,124.7,M,47.9,M,,*4E",,,,
2022-05-23T22:38:22+02:00,1004,31.58,35.73,990.29,2.2,4.5,0,0,"$GNGGA,203817.000,4900.7846,N,00825.4258,E,2,7,1.04,129.7,M,47.9,M,,*4F",,,,
2022-05-23T22:38:42+02:00,1005,31.59,35.72,990.3,2,3.2,0,0,"$GNGGA,203837.000,4900.7851,N,00825.4259,E,2,7,1.19,130.3,M,47.9,M,,*4A",,,,
2022-05-23T22:39:03+02:00,1006,31.6,35.71,990.31,1.6,2.9,0,0,"$GNGGA,203858.000,4900.7846,N,00825.4246,E,2,7,1.23,133.7,M,47.9,M,,*45",,,,
2022-05-23T22:39:24+02:00,1007,31.61,35.7,990.3,1.6,2.7,0,0,"$GNGGA,203919.000,4900.7840,N,00825.4258,E,2,9,0.95,132.0,M,47.9,M,,*4C",,,,
2022-05-23T22:39:45+02:00,1008,31.63,35.73,990.29,1.6,3.9,0,0,"$GNGGA,203940.000,4900.7829,N,00825.4237,E,2,9,0.95,134.3,M,47.9,M,,*43",,,,
2022-05-23T22:40:06+02:00,1009,31.64,35.72,990.29,1.4,3.4,0,0,"$GNGGA,204001.000,4900.7831,N,00825.4234,E,2,7,1.24,132.3,M,47.9,M,,*41",,,,
2022-05-23T22:40:27+02:00,1010,31.65,35.73,990.3,1.8,2.4,0,0,"$GNGGA,204022.000,4900.7837,N,00825.4232,E,2,7,1.19,131.6,M,47.9,M,,*48",,,,
2022-05-23T22:40:47+02:00,1011,31.67,35.69,990.29,1.9,3.1,0,0,"$GNGGA,204042.000,4900.7839,N,00825.4216,E,2,9,1.03,131.7,M,47.9,M,,*42",,,,
2022-05-23T22:41:08+02:00,1012,31.68,35.67,990.3,1.8,2.7,0,0,"$GNGGA,204103.000,4900.7834,N,00825.4315,E,2,8,1.32,131.3,M,47.9,M,,*4E",,,,
2022-05-23T22:41:28+02:00,1013,31.7,35.66,990.3,1.5,1.8,0,0,"$GNGGA,204123.000,4900.7827,N,00825.4290,E,2,9,1.03,129.6,M,47.9,M,,*4D",,,,
2022-05-23T22:41:49+02:00,1014,31.72,35.6,990.29,1.6,3,0,0,"$GNGGA,204144.000,4900.7825,N,00825.4231,E,2,9,1.03,129.5,M,47.9,M,,*46",,,,
2022-05-23T22:42:10+02:00,1015,31.74,35.58,990.3,1.5,3.2,0,0,"$GNGGA,204205.000,4900.7822,N,00825.4227,E,2,9,1.03,127.6,M,47.9,M,,*4D",,,,
2022-05-23T22:42:30+02:00,1016,31.76,35.6,990.29,1.5,3,0,0,"$GNGGA,204225.000,4900.7832,N,00825.4228,E,2,9,1.03,128.6,M,47.9,M,,*4E",,,,
2022-05-23T22:42:50+02:00,1017,31.77,35.59,990.3,1.7,2.8,0,0,"$GNGGA,204245.000,4900.7822,N,00825.4230,E,2,9,1.09,128.4,M,47.9,M,,*48",,,,
2022-05-23T22:43:11+02:00,1018,31.78,35.6,990.3,1.8,3.1,0,0,"$GNGGA,204306.000,4900.7820,N,00825.4268,E,2,8,1.31,127.1,M,47.9,M,,*41",,,,
2022-05-23T22:43:31+02:00,1019,31.8,35.59,990.31,1.5,2.2,0,0,"$GNGGA,204326.000,4900.7840,N,00825.4264,E,2,8,1.31,122.7,M,47.9,M,,*4A",,,,
2022-05-23T22:43:52+02:00,1020,31.81,35.53,990.32,1.9,4.2,0,0,"$GNGGA,204347.000,4900.7841,N,00825.4356,E,2,8,1.31,120.5,M,47.9,M,,*4C",,,,
2022-05-23T22:44:13+02:00,1021,31.82,35.53,990.32,2,3.9,0,0,"$GNGGA,204408.000,4900.7822,N,00825.4273,E,2,8,1.31,120.9,M,47.9,M,,*4F",,,,
2022-05-23T22:44:33+02:00,1022,31.82,35.59,990.33,1.5,2.3,0,0,"$GNGGA,204428.000,4900.7830,N,00825.4246,E,2,8,1.11,122.3,M,47.9,M,,*42",,,,
2022-05-23T22:44:54+02:00,1023,31.83,35.63,990.33,1.3,2,0,0,"$GNGGA,204449.000,4900.7830,N,00825.4293,E,2,8,1.10,123.2,M,47.9,M,,*4C",,,,
2022-05-23T22:45:15+02:00,1024,31.84,35.65,990.34,1.4,1.9,0,0,"$GNGGA,204510.000,4900.7839,N,00825.4316,E,2,8,1.10,123.8,M,47.9,M,,*4E",,,,
2022-05-23T22:45:35+02:00,1025,31.85,35.62,990.34,1.4,2.1,0,0,"$GNGGA,204530.000,4900.7833,N,00825.4393,E,2,8,1.10,121.6,M,47.9,M,,*47",,,,
2022-05-23T22:45:55+02:00,1026,31.87,35.46,990.34,1.6,2.5,0,0,"$GNGGA,204550.000,4900.7824,N,00825.4384,E,2,8,1.16,120.1,M,47.9,M,,*41",,,,
2022-05-23T22:46:16+02:00,1027,31.88,35.44,990.34,1.6,3.2,0,0,"$GNGGA,204611.000,4900.7824,N,00825.4374,E,2,9,0.95,121.6,M,47.9,M,,*45",,,,
2022-05-23T22:46:36+02:00,1028,31.89,35.4,990.34,1.8,3.3,0,0,"$GNGGA,204631.000,4900.7818,N,00825.4369,E,2,8,1.10,121.5,M,47.9,M,,*4A",,,,
2022-05-23T22:46:57+02:00,1029,31.91,35.4,990.35,1.5,2.8,0,0,"$GNGGA,204652.000,4900.7821,N,00825.4344,E,2,7,1.19,121.5,M,47.9,M,,*4C",,,,
2022-05-23T22:47:18+02:00,1030,31.92,35.37,990.36,1.4,2.3,0,0,"$GNGGA,204713.000,4900.7834,N,00825.4322,E,2,7,1.19,121.9,M,47.9,M,,*40",,,,
2022-05-23T22:47:38+02:00,1031,31.92,35.36,990.36,1.7,2,0,0,"$GNGGA,204733.000,4900.7832,N,00825.4311,E,2,6,2.12,122.2,M,47.9,M,,*45",,,,
2022-05-23T22:47:58+02:00,1032,31.93,35.3,990.36,1.9,3.5,0,0,"$GNGGA,204753.000,4900.7820,N,00825.4319,E,2,8,1.01,122.4,M,47.9,M,,*41",,,,
2022-05-23T22:48:19+02:00,1033,31.92,35.25,990.37,2,3.7,0,0,"$GNGGA,204814.000,4900.7835,N,00825.4312,E,2,7,1.19,121.1,M,47.9,M,,*42",,,,
2022-05-23T22:48:39+02:00,1034,31.92,35.26,990.36,2,3.4,0,0,"$GNGGA,204834.000,4900.7860,N,00825.4315,E,2,7,1.19,117.6,M,47.9,M,,*45",,,,
2022-05-23T22:48:59+02:00,1035,31.92,35.25,990.36,1.7,2.6,0,0,"$GNGGA,204854.000,4900.7830,N,00825.4323,E,2,7,1.43,116.3,M,47.9,M,,*48",,,,
2022-05-23T22:49:20+02:00,1036,31.93,35.23,990.36,1.6,2.8,0,0,"$GNGGA,204915.000,4900.7840,N,00825.4372,E,2,7,1.19,113.3,M,47.9,M,,*45",,,,
2022-05-23T22:49:40+02:00,1037,31.94,35.22,990.36,1.7,3,0,0,"$GNGGA,204935.000,4900.7834,N,00825.4379,E,2,6,2.09,114.2,M,47.9,M,,*4A",,,,
2022-05-23T22:50:01+02:00,1038,31.95,35.24,990.36,1.9,2.9,0,0,"$GNGGA,204956.000,4900.7817,N,00825.4405,E,2,8,1.01,117.5,M,47.9,M,,*43",,,,
2022-05-23T22:50:22+02:00,1039,31.96,35.28,990.37,1.6,2.4,0,0,"$GNGGA,205017.000,4900.7825,N,00825.4333,E,2,9,0.99,121.7,M,47.9,M,,*4B",,,,
2022-05-23T22:50:43+02:00,1040,31.96,35.29,990.37,1.3,1.8,0,0,"$GNGGA,205038.000,4900.7824,N,00825.4319,E,2,8,1.11,123.1,M,47.9,M,,*4B",,,,
2022-05-23T22:51:03+02:00,1041,31.97,35.28,990.37,1.7,2.8,0,0,"$GNGGA,205058.000,4900.7834,N,00825.4281,E,2,8,1.11,126.4,M,47.9,M,,*4C",,,,
2022-05-23T22:51:24+02:00,1042,31.97,35.28,990.37,1.4,2,0,0,"$GNGGA,205119.000,4900.7848,N,00825.4261,E,2,7,1.36,129.4,M,47.9,M,,*48",,,,
2022-05-23T22:51:44+02:00,1043,31.96,35.27,990.38,2,2.9,0,0,"$GNGGA,205139.000,4900.7848,N,00825.4284,E,2,7,1.36,129.6,M,47.9,M,,*43",,,,
2022-05-23T22:52:05+02:00,1044,31.96,35.22,990.38,2,3,0,0,"$GNGGA,205200.000,4900.7860,N,00825.4289,E,2,7,1.36,126.2,M,47.9,M,,*46",,,,
2022-05-23T22:52:26+02:00,1045,31.96,35.18,990.39,2.1,3.1,0,0,"$GNGGA,205221.000,4900.7856,N,00825.4334,E,2,7,1.36,124.7,M,47.9,M,,*40",,,,
2022-05-23T22:52:46+02:00,1046,31.95,35.15,990.38,2.3,4.2,0,0,"$GNGGA,205241.000,4900.7861,N,00825.4356,E,2,7,1.19,121.9,M,47.9,M,,*40",,,,
2022-05-23T22:53:07+02:00,1047,31.94,35.12,990.37,2.2,4.3,0,0,"$GNGGA,205302.000,4900.7854,N,00825.4293,E,2,7,1.19,119.0,M,47.9,M,,*4A",,,,
2022-05-23T22:53:28+02:00,1048,31.93,35.11,990.38,2,3.2,0,0,"$GNGGA,205323.000,4900.7850,N,00825.4306,E,2,7,1.01,117.5,M,47.9,M,,*42",,,,
2022-05-23T22:53:49+02:00,1049,31.92,35.12,990.37,1.8,3.4,0,0,"$GNGGA,205344.000,4900.7855,N,00825.4367,E,2,7,2.41,118.3,M,47.9,M,,*4F",,,,
2022-05-23T22:54:10+02:00,1050,31.91,35.13,990.38,1.7,2.3,0,0,"$GNGGA,205405.000,4900.7837,N,00825.4404,E,2,9,0.98,122.4,M,47.9,M,,*4D",,,,
2022-05-23T22:54:30+02:00,1051,31.9,35.17,990.37,1.6,2.5,0,0,"$GNGGA,205425.000,4900.7830,N,00825.4417,E,2,6,1.20,122.2,M,47.9,M,,*41",,,,
2022-05-23T22:54:50+02:00,1052,31.89,35.2,990.37,1.7,4.9,0,0,"$GNGGA,205445.000,4900.7846,N,00825.4434,E,2,7,1.19,122.4,M,47.9,M,,*4A",,,,
2022-05-23T22:55:11+02:00,1053,31.89,35.24,990.37,1.8,2.2,0,0,"$GNGGA,205506.000,4900.7855,N,00825.4451,E,2,7,1.19,122.1,M,47.9,M,,*48",,,,
2022-05-23T22:55:31+02:00,1054,31.88,35.29,990.37,1.4,2.1,0,0,"$GNGGA,205526.000,4900.7839,N,00825.4499,E,2,8,1.10,121.7,M,47.9,M,,*47",,,,
2022-05-23T22:55:52+02:00,1055,31.87,35.31,990.38,1.6,2.8,0,0,"$GNGGA,205547.000,4900.7834,N,00825.4361,E,2,8,1.10,125.7,M,47.9,M,,*49",,,,
2022-05-23T22:56:13+02:00,1056,31.86,35.35,990.38,1.8,4.1,0,0,"$GNGGA,205608.000,4900.7833,N,00825.4281,E,2,7,1.63,129.8,M,47.9,M,,*41",,,,
2022-05-23T22:56:33+02:00,1057,31.85,35.33,990.39,1.7,3.1,0,0,"$GNGGA,205628.000,4900.7840,N,00825.4399,E,2,8,1.10,128.2,M,47.9,M,,*4F",,,,
2022-05-23T22:56:53+02:00,1058,31.85,35.32,990.4,1.5,2.1,0,0,"$GNGGA,205648.000,4900.7834,N,00825.4428,E,2,8,1.10,127.2,M,47.9,M,,*48",,,,
2022-05-23T22:57:14+02:00,1059,31.85,35.33,990.4,1.4,2.2,0,0,"$GNGGA,205709.000,4900.7844,N,00825.4409,E,2,9,0.98,126.7,M,47.9,M,,*4C",,,,
2022-05-23T22:57:35+02:00,1060,31.85,35.36,990.4,1.3,2.1,0,0,"$GNGGA,205730.000,4900.7872,N,00825.4432,E,2,8,1.19,123.4,M,47.9,M,,*44",,,,
2022-05-23T22:57:55+02:00,1061,31.85,35.4,990.4,1.4,2.5,0,0,"$GNGGA,205750.000,4900.7843,N,00825.4426,E,2,8,1.10,124.1,M,47.9,M,,*4E",,,,
2022-05-23T22:58:16+02:00,1062,31.85,35.44,990.41,1.4,1.9,0,0,"$GNGGA,205811.000,4900.7858,N,00825.4360,E,2,7,1.34,123.2,M,47.9,M,,*46",,,,
2022-05-23T22:58:37+02:00,1063,31.85,35.47,990.42,1.3,2.5,0,0,"$GNGGA,205832.000,4900.7844,N,00825.4274,E,2,7,1.34,125.9,M,47.9,M,,*43",,,,
2022-05-23T22:58:57+02:00,1064,31.85,35.46,990.43,1.5,3.1,0,0,"$GNGGA,205852.000,4900.7842,N,00825.4244,E,2,8,1.19,124.5,M,47.9,M,,*4D",,,,
2022-05-23T22:59:18+02:00,1065,31.86,35.43,990.44,1.8,3.1,0,0,"$GNGGA,205913.000,4900.7832,N,00825.4186,E,2,6,2.34,125.6,M,47.9,M,,*43",,,,
2022-05-23T22:59:38+02:00,1066,31.86,35.42,990.44,1.6,2.1,0,0,"$GNGGA,205933.000,4900.7826,N,00825.4202,E,2,7,1.20,125.6,M,47.9,M,,*4C",,,,
2022-05-23T22:59:58+02:00,1067,31.87,35.38,990.44,1.9,2.7,0,0,"$GNGGA,205953.000,4900.7837,N,00825.4220,E,2,7,1.62,125.3,M,47.9,M,,*49",,,,
2022-05-23T23:00:19+02:00,1068,31.88,35.34,990.46,1.7,2.4,0,0,"$GNGGA,210014.000,4900.7844,N,00825.4288,E,2,7,1.34,121.9,M,47.9,M,,*4C",,,,
2022-05-23T23:00:39+02:00,1069,31.88,35.33,990.46,1.5,2.9,0,0,"$GNGGA,210034.000,4900.7843,N,00825.4245,E,2,7,1.10,119.5,M,47.9,M,,*49",,,,
2022-05-23T23:01:00+02:00,1070,31.89,35.32,990.46,1.8,3.4,0,0,"$GNGGA,210055.000,4900.7845,N,00825.4202,E,2,7,1.19,120.3,M,47.9,M,,*4E",,,,
2022-05-23T23:01:21+02:00,1071,31.9,35.28,990.48,1.8,2.7,0,0,"$GNGGA,210116.000,4900.7820,N,00825.4202,E,2,7,1.19,119.8,M,47.9,M,,*4A",,,,
2022-05-23T23:01:41+02:00,1072,31.9,35.22,990.48,1.5,2.7,0,0,"$GNGGA,210136.000,4900.7817,N,00825.4215,E,2,7,1.34,116.0,M,47.9,M,,*42",,,,
2022-05-23T23:02:02+02:00,1073,31.9,35.19,990.47,1.8,3.2,0,0,"$GNGGA,210157.000,4900.7827,N,00825.4377,E,2,8,1.10,110.7,M,47.9,M,,*4B",,,,
2022-05-23T23:02:23+02:00,1074,31.9,35.16,990.48,1.9,3.7,0,0,"$GNGGA,210218.000,4900.7857,N,00825.4390,E,6,0,99.99,108.4,M,47.9,M,,*7B",,,,
2022-05-23T23:02:44+02:00,1075,31.89,35.14,990.49,2.3,4.7,0,0,"$GNGGA,210239.000,4900.7854,N,00825.4383,E,0,0,,108.5,M,47.9,M,,*50",,,,
2022-05-23T23:03:04+02:00,1076,31.89,35.07,990.49,2,3.5,0,0,"$GNGGA,210259.000,4900.7854,N,00825.4383,E,0,0,,108.5,M,47.9,M,,*56",,,,
2022-05-23T23:03:25+02:00,1077,31.89,35.07,990.5,1.6,3.1,0,0,"$GNGGA,210320.000,4900.7854,N,00825.4383,E,0,0,,108.5,M,47.9,M,,*59",,,,
2022-05-23T23:03:45+02:00,1078,31.87,35.13,990.51,1.5,3.1,0,0,"$GNGGA,210340.000,4900.7854,N,00825.4383,E,0,0,,108.5,M,47.9,M,,*5F",,,,
2022-05-23T23:04:06+02:00,1079,31.87,35.14,990.51,1.7,3.2,0,0,"$GNGGA,210401.000,4900.7854,N,00825.4383,E,0,0,,108.5,M,47.9,M,,*5D",,,,
2022-05-23T23:04:27+02:00,1080,31.86,35.14,990.52,1.8,3.9,0,0,"$GNGGA,210422.000,4900.7853,N,00825.4380,E,0,0,,108.8,M,47.9,M,,*55",,,,
2022-05-23T23:04:47+02:00,1081,31.85,35.15,990.53,1.6,2.7,0,0,"$GNGGA,210442.000,4900.7853,N,00825.4380,E,0,0,,108.8,M,47.9,M,,*53",,,,
2022-05-23T23:05:08+02:00,1082,31.84,35.17,990.51,1.8,2.4,0,0,"$GNGGA,210503.000,4900.7853,N,00825.4380,E,0,0,,108.8,M,47.9,M,,*57",,,,
2022-05-23T23:05:29+02:00,1083,31.83,35.21,990.51,1.5,2.6,0,0,"$GNGGA,210524.000,4900.7853,N,00825.4380,E,0,0,,108.8,M,47.9,M,,*52",,,,
2022-05-23T23:05:49+02:00,1084,31.82,35.24,990.51,1.3,3,0,0,"$GNGGA,210544.000,4900.7853,N,00825.4380,E,0,0,,108.8,M,47.9,M,,*54",,,,
2022-05-23T23:06:09+02:00,1085,31.81,35.36,990.5,1.4,2.9,0,0,"$GNGGA,210604.000,4900.7853,N,00825.4379,E,0,0,,108.8,M,47.9,M,,*55",,,,
2022-05-23T23:06:31+02:00,1086,31.79,35.51,990.5,1.7,2.7,0,0,"$GNGGA,210626.000,4900.7853,N,00825.4379,E,0,0,,108.8,M,47.9,M,,*55",,,,
2022-05-23T23:06:51+02:00,1087,31.76,35.74,990.62,1.8,2.6,0,0,"$GNGGA,210646.000,4900.7853,N,00825.4379,E,0,0,,108.8,M,47.9,M,,*53",,,,
2022-05-23T23:07:11+02:00,1088,31.74,35.91,990.79,1.8,3.2,0,0,"$GNGGA,210706.000,4900.7853,N,00825.4379,E,0,0,,108.8,M,47.9,M,,*56",,,,
2022-05-23T23:07:32+02:00,1089,31.71,36.1,990.93,1.8,2.9,0,0,"$GNGGA,210727.000,4900.7853,N,00825.4379,E,0,0,,108.8,M,47.9,M,,*55",,,,
2022-05-23T23:07:52+02:00,1090,31.67,36.19,991.04,1.4,2,0,0,"$GNGGA,210747.000,4900.7852,N,00825.4377,E,0,0,,108.8,M,47.9,M,,*5C",,,,
2022-05-23T23:08:12+02:00,1091,31.58,36.61,991.11,1.9,4.3,0,0,"$GNGGA,210807.000,4900.7850,N,00825.4548,E,2,4,2.39,80.9,M,47.9,M,,*7F",,,,
2022-05-23T23:08:33+02:00,1092,31.5,36.59,991.16,2.1,3.9,0,0,"$GNGGA,210828.000,4900.7520,N,00825.4635,E,2,5,1.81,94.5,M,47.9,M,,*79",,,,
2022-05-23T23:08:53+02:00,1093,31.43,36.48,991.2,2.2,4.3,0,0,"$GNGGA,210848.000,4900.7519,N,00825.4808,E,2,6,1.29,96.8,M,47.9,M,,*7B",,,,
2022-05-23T23:09:14+02:00,1094,31.33,36.49,991.26,2.2,5.6,0,0,"$GNGGA,210909.000,4900.7307,N,00825.5021,E,2,5,1.60,97.0,M,47.9,M,,*73",,,,
2022-05-23T23:09:35+02:00,1095,31.25,36.65,991.27,1.9,4.9,0,0,"$GNGGA,210930.000,4900.7527,N,00825.5341,E,2,6,1.29,97.0,M,47.9,M,,*76",,,,
2022-05-23T23:09:59+02:00,1096,31.19,36.71,991.29,1.8,3.2,0,0,"$GNGGA,210954.000,4900.7521,N,00825.5533,E,2,5,1.79,109.4,M,47.9,M,,*45",,,,
2022-05-23T23:10:20+02:00,1097,31.14,36.88,991.32,1.7,2.6,0,0,"$GNGGA,211015.000,4900.7525,N,00825.5674,E,2,4,2.33,108.2,M,47.9,M,,*47",,,,
2022-05-23T23:10:40+02:00,1098,31.07,37.03,991.3,1.9,3.2,0,0,"$GNGGA,211035.000,4900.7492,N,00825.5688,E,0,0,,107.2,M,47.9,M,,*5E",,,,
2022-05-23T23:11:01+02:00,1099,31,37.09,991.27,1.7,3,0,0,"$GNGGA,211056.000,4900.7491,N,00825.5687,E,0,0,,107.2,M,47.9,M,,*57",,,,
2022-05-23T23:11:22+02:00,1100,30.94,37.02,991.26,1.8,3.1,0,0,"$GNGGA,211117.000,4900.7491,N,00825.5687,E,0,0,,107.2,M,47.9,M,,*53",,,,
2022-05-23T23:11:42+02:00,1101,30.88,36.95,991.24,1.5,1.9,0,0,"$GNGGA,211137.000,4900.7491,N,00825.5687,E,0,0,,107.2,M,47.9,M,,*51",,,,
2022-05-23T23:12:02+02:00,1102,30.83,36.98,991.24,1.5,2,0,0,"$GNGGA,211157.000,4900.7491,N,00825.5687,E,0,0,,107.2,M,47.9,M,,*57",,,,
2022-05-23T23:12:23+02:00,1103,30.77,37.01,991.24,1.5,2.3,0,0,"$GNGGA,211218.000,4900.7492,N,00825.5688,E,0,0,,107.3,M,47.9,M,,*52",,,,
2022-05-23T23:12:43+02:00,1104,30.71,37.1,991.24,1.5,1.9,0,0,"$GNGGA,211238.000,4900.7492,N,00825.5688,E,0,0,,107.3,M,47.9,M,,*50",,,,
2022-05-23T23:13:03+02:00,1105,30.66,37.16,991.24,1.5,1.7,0,0,"$GNGGA,211258.000,4900.7492,N,00825.5688,E,0,0,,107.3,M,47.9,M,,*56",,,,
2022-05-23T23:13:24+02:00,1106,30.61,37.25,991.24,1.6,2.9,0,0,"$GNGGA,211319.000,4900.7492,N,00825.5688,E,0,0,,107.3,M,47.9,M,,*52",,,,
2022-05-23T23:13:44+02:00,1107,30.57,37.24,991.29,1.6,2.9,0,0,"$GNGGA,211339.000,4900.7492,N,00825.5688,E,0,0,,107.3,M,47.9,M,,*50",,,,
2022-05-23T23:14:04+02:00,1108,30.52,37.66,991.34,1.7,3.8,0,0,"$GNGGA,211359.000,4900.7411,N,00825.5415,E,0,4,,110.1,M,47.9,M,,*5B",,,,
2022-05-23T23:14:25+02:00,1109,30.49,37.87,991.38,2,4.1,0,0,"$GNGGA,211420.000,4900.7345,N,00825.5303,E,2,4,2.24,132.9,M,47.9,M,,*44",,,,
2022-05-23T23:14:46+02:00,1110,30.42,38.25,991.41,2.2,4.9,0,0,"$GNGGA,211441.000,4900.7353,N,00825.5092,E,2,4,2.15,127.7,M,47.9,M,,*47",,,,
2022-05-23T23:15:07+02:00,1111,30.36,38.25,991.44,2,4.3,0,0,"$GNGGA,211502.000,4900.7143,N,00825.4986,E,2,4,2.15,114.8,M,47.9,M,,*40",,,,
2022-05-23T23:15:27+02:00,1112,30.29,38.4,991.46,2.1,4.8,0,0,"$GNGGA,211522.000,4900.7065,N,00825.4800,E,2,4,2.14,111.8,M,47.9,M,,*4C",,,,
2022-05-23T23:15:47+02:00,1113,30.23,38.56,991.48,2.1,4.1,0,0,"$GNGGA,211542.000,4900.7026,N,00825.4625,E,2,4,2.14,107.5,M,47.9,M,,*4E",,,,
2022-05-23T23:16:08+02:00,1114,30.18,38.65,991.51,2.1,3.1,0,0,"$GNGGA,211603.000,4900.6961,N,00825.4513,E,2,4,2.14,95.3,M,47.9,M,,*79",,,,
2022-05-23T23:16:29+02:00,1115,30.14,38.63,991.52,2.1,4,0,0,"$GNGGA,211624.000,4900.6767,N,00825.4310,E,2,4,2.13,87.6,M,47.9,M,,*70",,,,
2022-05-23T23:16:50+02:00,1116,30.11,38.81,991.54,2.1,4.3,0,0,"$GNGGA,211645.000,4900.6730,N,00825.4228,E,2,3,2.79,86.8,M,47.9,M,,*7B",,,,
2022-05-23T23:17:11+02:00,1117,30.09,39,991.56,2.1,3.6,0,0,"$GNGGA,211706.000,4900.6767,N,00825.4058,E,2,4,2.30,94.8,M,47.9,M,,*73",,,,
2022-05-23T23:17:32+02:00,1118,30.06,39.37,991.56,2.3,4.5,0,0,"$GNGGA,211727.000,4900.6584,N,00825.3843,E,2,5,1.67,100.6,M,47.9,M,,*48",,,,
2022-05-23T23:17:52+02:00,1119,30.02,39.31,991.56,2.3,4.9,0,0,"$GNGGA,211747.000,4900.6246,N,00825.4174,E,2,5,1.67,102.5,M,47.9,M,,*4C",,,,
2022-05-23T23:18:13+02:00,1120,29.99,39.6,991.56,2.2,5.1,0,0,"$GNGGA,211808.000,4900.6004,N,00825.4043,E,2,5,1.67,104.8,M,47.9,M,,*42",,,,
2022-05-23T23:18:33+02:00,1121,29.97,39.67,991.56,1.9,4.2,0,0,"$GNGGA,211828.000,4900.5945,N,00825.4151,E,2,5,1.66,108.0,M,47.9,M,,*48",,,,
2022-05-23T23:18:54+02:00,1122,29.97,39.01,991.57,1.9,4.1,0,0,"$GNGGA,211849.000,4900.5806,N,00825.4096,E,2,4,2.26,110.8,M,47.9,M,,*44",,,,
2022-05-23T23:19:14+02:00,1123,29.97,39.5,991.58,2,5.3,0,0,"$GNGGA,211909.000,4900.5705,N,00825.4252,E,2,5,1.65,115.1,M,47.9,M,,*4E",,,,
2022-05-23T23:19:35+02:00,1124,29.97,39.64,991.59,1.9,3.8,0,0,"$GNGGA,211930.000,4900.5547,N,00825.4237,E,2,5,1.65,115.3,M,47.9,M,,*41",,,,
2022-05-23T23:19:56+02:00,1125,29.96,39.34,991.62,2.6,13.1,0,0,"$GNGGA,211951.000,4900.5444,N,00825.4256,E,2,5,1.64,117.8,M,47.9,M,,*4B",,,,
2022-05-23T23:20:16+02:00,1126,29.97,39.06,991.63,2,4.3,0,0,"$GNGGA,212011.000,4900.5346,N,00825.4154,E,0,0,,120.9,M,47.9,M,,*5E",,,,
2022-05-23T23:20:36+02:00,1127,29.99,39.14,991.63,2,3.9,0,0,"$GNGGA,212031.000,4900.5373,N,00825.4178,E,0,0,,120.9,M,47.9,M,,*54",,,,
2022-05-23T23:21:00+02:00,1128,30.01,39.12,991.62,1.6,3.6,0,0,"$GNGGA,212052.000,4900.5373,N,00825.4178,E,0,0,,120.9,M,47.9,M,,*51",,,,
2022-05-23T23:22:06+02:00,1129,30.04,39.27,991.62,1.5,2.8,0,0,"$GNGGA,212115.000,4900.5373,N,00825.4178,E,0,0,,120.9,M,47.9,M,,*53",,,,
2022-05-23T23:22:27+02:00,1130,29.99,39.87,991.19,1.4,2.4,0,0,"$GNGGA,212222.000,4900.5379,N,00825.4182,E,0,0,,120.9,M,47.9,M,,*5B",,,,
2022-05-23T23:22:48+02:00,1131,29.96,40.18,990.88,2.3,14.3,0,0,"$GNGGA,212243.000,4900.5379,N,00825.4182,E,0,0,,120.9,M,47.9,M,,*5C",,,,
2022-05-23T23:23:08+02:00,1132,29.96,40.46,990.63,1.7,5.2,0,0,"$GNGGA,212303.000,4900.5379,N,00825.4182,E,0,0,,120.9,M,47.9,M,,*59",,,,
2022-05-23T23:23:28+02:00,1133,29.96,40.67,990.45,1.3,2.2,0,0,"$GNGGA,212323.000,4900.5379,N,00825.4182,E,0,0,,120.9,M,47.9,M,,*5B",,,,
