
Hello Loop Testing....
gprsPWR....

+CREG: 2

^STN: 37
+CTZV:22/01/07,21:19:29,+01

+CREG: 1

A9/A9G
V02.02.20190915R
Ai_Thinker_Co._Ltd.
READY
AT

OK
AT+GPS=1

OK
AT+CGATT=1

+CGATT:1

OK
AT+CGDCONT=1,"IP","pinternet.interkom.de"

OK
AT+CGACT=1,1

OK
AT+GPSRD=10

OK
+GPSRD:$GNGGA,212216.000,4900.5228,N,00825.4507,E,1,4,3.72,137.6,M,47.9,M,,*44
$GPGSA,A,3,18,23,10,15,,,,,,,,,3.84,3.72,0.94*0B
$BDGSA,A,3,,,,,,,,,,,,,3.84,3.72,0.94*17
$GPGSV,3,1,11,18,54,059,35,26,54,183,,27,45,289,,23,43,122,30*75
$GPGSV,3,2,11,10,38,152,24,08,14,284,,44,12,116,,07,07,333,*77
$GPGSV,3,3,11,29,06,094,18,15,04,070,27,05,02,027,*40
$BDGSV,1,1,00*68
$GNRMC,212216.000,A,4900.5228,N,00825.4507,E,0.289,31.44,070122,,,A*7A
$GNVTG,31.44,T,,M,0.289,N,0.535,K,A*11
+GPSRD:$GNGGA,212226.000,4900.5229,N,00825.4551,E,1,4,3.73,138.2,M,47.9,M,,*4F
$GPGSA,A,3,18,23,10,15,,,,,,,,,3.85,3.73,0.94*0B
$BDGSA,A,3,,,,,,,,,,,,,3.85,3.73,0.94*17
$GPGSV,3,1,11,18,54,059,35,26,54,183,,27,45,289,,23,43,122,30*75
$GPGSV,3,2,11,10,38,152,25,37,32,162,,08,14,284,,07,07,333,*73
$GPGSV,3,3,11,29,06,094,18,15,04,070,27,05,02,026,*41
$BDGSV,1,1,00*68
$GNRMC,212226.000,A,4900.5229,N,00825.4551,E,0.096,225.38,070122,,,A*4B
$GNVTG,225.38,T,,M,0.096,N,0.177,K,A*23
+GPSRD:$GNGGA,212236.000,4900.5231,N,00825.4581,E,1,4,3.74,138.3,M,47.9,M,,*4C
$GPGSA,A,3,18,23,10,15,,,,,,,,,3.86,3.74,0.94*0F
$BDGSA,A,3,,,,,,,,,,,,,3.86,3.74,0.94*13
$GPGSV,3,1,11,18,54,059,35,26,54,183,12,27,45,289,,23,43,122,30*76
$GPGSV,3,2,11,33,29,210,,10,26,157,26,08,14,284,,07,07,333,*72
$GPGSV,3,3,11,29,06,094,19,15,04,070,28,05,02,026,*4F
$BDGSV,1,1,00*68
$GNRMC,212236.000,A,4900.5231,N,00825.4581,E,0.045,86.88,070122,,,A*70
$GNVTG,86.88,T,,M,0.045,N,0.083,K,A*17
+GPSRD:$GNGGA,212246.000,4900.5234,N,00825.4598,E,1,4,3.75,138.0,M,47.9,M,,*44
$GPGSA,A,3,18,23,10,15,,,,,,,,,3.87,3.75,0.94*0F
$BDGSA,A,3,,,,,,,,,,,,,3.87,3.75,0.94*13
$GPGSV,3,1,12,16,70,269,,26,54,183,13,18,53,059,35,27,45,289,*7A
$GPGSV,3,2,12,23,43,122,30,10,26,157,24,08,14,284,,40,13,117,*7D
$GPGSV,3,3,12,07,07,333,,29,06,094,20,15,04,070,27,05,02,026,*7A
$BDGSV,1,1,00*68
$GNRMC,212246.000,A,4900.5234,N,00825.4598,E,0.433,96.67,070122,,,A*7F
$GNVTG,96.67,T,,M,0.433,N,0.803,K,A*12
+GPSRD:$GNGGA,212256.000,4900.5228,N,00825.4589,E,1,4,3.76,137.9,M,47.9,M,,*4D
$GPGSA,A,3,18,23,10,15,,,,,,,,,3.88,3.76,0.94*03
$BDGSA,A,3,,,,,,,,,,,,,3.88,3.76,0.94*1F
$GPGSV,3,1,12,16,70,269,,18,53,059,34,26,53,182,13,27,46,289,*7E
$GPGSV,3,2,12,23,43,122,29,10,26,157,22,08,14,284,,44,12,116,*77
$GPGSV,3,3,12,07,07,333,,29,06,094,20,15,04,070,27,05,02,026,*7A
$BDGSV,1,1,00*68
$GNRMC,212256.000,A,4900.5228,N,00825.4589,E,0.672,26.93,070122,,,A*74
$GNVTG,26.93,T,,M,0.672,N,1.245,K,A*1C
+GPSRD:$GNGGA,212306.000,4900.5228,N,00825.4589,E,1,4,3.77,137.5,M,47.9,M,,*44
$GPGSA,A,3,18,23,10,15,,,,,,,,,3.89,3.77,0.94*03
$BDGSA,A,3,,,,,,,,,,,,,3.89,3.77,0.94*1F
$GPGSV,3,1,12,16,70,269,,18,53,059,34,26,53,182,16,27,46,289,*7B
$GPGSV,3,2,12,23,43,122,30,10,26,157,23,08,14,284,,07,07,333,*78
$GPGSV,3,3,12,29,06,094,23,15,04,070,26,05,02,026,,34,,,*4C
$BDGSV,1,1,00*68
$GNRMC,212306.000,A,4900.5228,N,00825.4589,E,0.480,22.43,070122,,,A*76
$GNVTG,22.43,T,,M,0.480,N,0.890,K,A*19
+GPSRD:$GNGGA,212316.000,4900.5244,N,00825.4564,E,1,4,3.78,135.7,M,47.9,M,,*43
$GPGSA,A,3,18,23,10,15,,,,,,,,,3.90,3.78,0.94*04
$BDGSA,A,3,,,,,,,,,,,,,3.90,3.78,0.94*18
$GPGSV,3,1,12,16,70,269,,18,53,059,34,26,53,182,16,27,46,289,*7B
$GPGSV,3,2,12,23,43,122,30,10,26,157,24,08,14,284,,07,07,333,*7F
$GPGSV,3,3,12,29,06,094,23,15,04,070,25,05,02,026,,36,,,*4D
$BDGSV,1,1,00*68
$GNRMC,212316.000,A,4900.5244,N,00825.4564,E,0.907,132.63,070122,,,A*4E
$GNVTG,132.63,T,,M,0.907,N,1.681,K,A*26
+GPSRD:$GNGGA,212326.000,4900.5247,N,00825.4535,E,1,4,3.79,134.1,M,47.9,M,,*41
$GPGSA,A,3,18,23,10,15,,,,,,,,,3.90,3.79,0.94*05
$BDGSA,A,3,,,,,,,,,,,,,3.90,3.79,0.94*19
$GPGSV,3,1,12,16,70,269,,18,53,059,35,26,53,182,16,27,46,289,*7A
$GPGSV,3,2,12,23,43,122,30,10,26,157,24,08,14,284,,07,07,333,*7F
$GPGSV,3,3,12,29,06,094,24,15,04,070,27,05,02,026,,38,,,*46
$BDGSV,1,1,00*68
$GNRMC,212326.000,A,4900.5247,N,00825.4535,E,0.758,231.55,070122,,,A*4B
$GNVTG,231.55,T,,M,0.758,N,1.405,K,A*29
+GPSRD:$GNGGA,212336.000,4900.5238,N,00825.4521,E,1,4,2.88,133.8,M,47.9,M,,*4C
$GPGSA,A,3,18,23,10,29,,,,,,,,,3.03,2.88,0.96*0D
$BDGSA,A,3,,,,,,,,,,,,,3.03,2.88,0.96*1E
$GPGSV,3,1,12,16,70,269,,18,53,059,35,26,53,182,15,27,46,289,*79
$GPGSV,3,2,12,23,43,122,30,10,26,157,24,08,14,284,,07,07,333,*7F
$GPGSV,3,3,12,29,06,094,24,15,04,070,26,05,02,026,,43,,,*4B
$BDGSV,1,1,00*68
$GNRMC,212336.000,A,4900.5238,N,00825.4521,E,0.357,178.13,070122,,,A*40
$GNVTG,178.13,T,,M,0.357,N,0.662,K,A*2C
+GPSRD:$GNGGA,212346.000,4900.5235,N,00825.4529,E,1,4,2.88,132.4,M,47.9,M,,*43
$GPGSA,A,3,18,23,10,29,,,,,,,,,3.04,2.88,0.96*0A
$BDGSA,A,3,,,,,,,,,,,,,3.04,2.88,0.96*19
$GPGSV,3,1,12,16,70,269,,18,53,059,35,26,53,182,14,27,46,289,*78
$GPGSV,3,2,12,23,43,122,31,10,26,157,23,08,15,284,,07,07,333,*78
$GPGSV,3,3,12,29,06,094,24,15,04,070,27,05,01,026,,46,,,*4C
$BDGSV,1,1,00*68
$GNRMC,212346.000,A,4900.5235,N,00825.4529,E,0.678,120.06,070122,,,A*43
$GNVTG,120.06,T,,M,0.678,N,1.256,K,A*2F
+GPSRD:$GNGGA,212356.000,4900.5251,N,00825.4476,E,1,4,2.88,130.2,M,47.9,M,,*4F
$GPGSA,A,3,18,23,10,29,,,,,,,,,3.04,2.88,0.96*0A
$BDGSA,A,3,,,,,,,,,,,,,3.04,2.88,0.96*19
$GPGSV,3,1,12,16,70,268,,18,53,059,34,26,53,182,13,27,46,289,*7F
$GPGSV,3,2,12,23,43,122,30,10,27,157,24,08,15,284,,07,07,333,*7F
$GPGSV,3,3,12,29,06,094,25,15,04,069,27,05,01,026,,47,,,*44
$BDGSV,1,1,00*68
$GNRMC,212356.000,A,4900.5251,N,00825.4476,E,0.746,290.20,070122,,,A*4B
$GNVTG,290.20,T,,M,0.746,N,1.382,K,A*27
+GPSRD:$GNGGA,212406.000,4900.5261,N,00825.4494,E,1,4,2.88,129.5,M,47.9,M,,*4D
$GPGSA,A,3,18,23,10,29,,,,,,,,,3.04,2.88,0.96*0A
$BDGSA,A,3,,,,,,,,,,,,,3.04,2.88,0.96*19
$GPGSV,3,1,11,16,70,268,,18,53,059,35,26,53,182,,27,46,290,*77
$GPGSV,3,2,11,23,44,121,29,10,27,157,26,08,15,284,,07,07,333,*72
$GPGSV,3,3,11,29,06,094,25,15,04,069,27,05,01,026,*44
$BDGSV,1,1,00*68
$GNRMC,212406.000,A,4900.5261,N,00825.4494,E,0.523,316.57,070122,,,A*48
$GNVTG,316.57,T,,M,0.523,N,0.969,K,A*27
+GPSRD:$GNGGA,212416.000,4900.5252,N,00825.4550,E,1,4,2.89,130.3,M,47.9,M,,*4A
$GPGSA,A,3,18,23,10,29,,,,,,,,,3.04,2.89,0.96*0B
$BDGSA,A,3,,,,,,,,,,,,,3.04,2.89,0.96*18
$GPGSV,3,1,11,16,70,268,,18,53,059,35,26,53,182,,27,46,290,*77
$GPGSV,3,2,11,23,44,121,29,10,27,157,26,08,15,284,,07,07,333,*72
$GPGSV,3,3,11,29,06,094,25,15,04,069,27,05,01,026,*44
$BDGSV,1,1,00*68
$GNRMC,212416.000,A,4900.5252,N,00825.4550,E,0.600,124.72,070122,,,A*46
$GNVTG,124.72,T,,M,0.600,N,1.112,K,A*24
+GPSRD:$GNGGA,212426.000,4900.5242,N,00825.4579,E,1,4,2.89,131.8,M,47.9,M,,*49
$GPGSA,A,3,18,23,10,29,,,,,,,,,3.04,2.89,0.96*0B
$BDGSA,A,3,,,,,,,,,,,,,3.04,2.89,0.96*18
$GPGSV,3,1,11,16,70,268,,18,53,059,35,26,53,182,,27,46,290,*77
$GPGSV,3,2,11,23,44,121,29,10,27,157,25,08,15,284,,07,07,333,*71
$GPGSV,3,3,11,29,06,094,25,15,04,069,26,05,01,026,*45
$BDGSV,1,1,00*68
$GNRMC,212426.000,A,4900.5242,N,00825.4579,E,0.553,113.84,070122,,,A*47
$GNVTG,113.84,T,,M,0.553,N,1.025,K,A*29
+GPSRD:$GNGGA,212436.000,4900.5220,N,00825.4566,E,1,4,2.89,132.4,M,47.9,M,,*4D
$GPGSA,A,3,18,23,10,29,,,,,,,,,3.04,2.89,0.96*0B
$BDGSA,A,3,,,,,,,,,,,,,3.04,2.89,0.96*18
$GPGSV,3,1,11,16,70,268,,18,53,059,35,26,53,182,,27,46,290,*77
$GPGSV,3,2,11,23,44,121,28,10,27,157,22,08,15,284,,07,07,333,*77
$GPGSV,3,3,11,29,06,094,24,15,04,069,26,05,01,026,*44
$BDGSV,1,1,00*68
$GNRMC,212436.000,A,4900.5220,N,00825.4566,E,0.441,223.32,070122,,,A*43
$GNVTG,223.32,T,,M,0.441,N,0.818,K,A*21
+GPSRD:$GNGGA,212446.000,4900.5209,N,00825.4552,E,1,4,2.89,132.9,M,47.9,M,,*4B
$GPGSA,A,3,18,23,10,29,,,,,,,,,3.05,2.89,0.96*0A
$BDGSA,A,3,,,,,,,,,,,,,3.05,2.89,0.96*19
$GPGSV,3,1,11,16,70,268,,18,53,059,36,26,53,182,,27,46,290,*74
$GPGSV,3,2,11,23,44,121,29,10,27,157,22,08,15,284,,07,07,333,*76
$GPGSV,3,3,11,29,06,094,23,15,04,069,27,05,01,026,*42
$BDGSV,1,1,00*68
$GNRMC,212446.000,A,4900.5209,N,00825.4552,E,0.489,279.93,070122,,,A*48
$GNVTG,279.93,T,,M,0.489,N,0.906,K,A*2F
+GPSRD:$GNGGA,212456.000,4900.5218,N,00825.4525,E,1,4,2.89,132.9,M,47.9,M,,*4A
$GPGSA,A,3,18,23,10,29,,,,,,,,,3.05,2.89,0.96*0A
$BDGSA,A,3,,,,,,,,,,,,,3.05,2.89,0.96*19
$GPGSV,3,1,11,16,70,268,,18,53,059,36,26,53,182,,27,46,290,*74
$GPGSV,3,2,11,23,44,121,29,10,27,157,25,08,15,284,,07,07,333,*71
$GPGSV,3,3,11,29,06,094,23,15,04,069,26,05,01,026,*43
$BDGSV,1,1,00*68
$GNRMC,212456.000,A,4900.5218,N,00825.4525,E,1.173,259.04,070122,,,A*44
$GNVTG,259.04,T,,M,1.173,N,2.173,K,A*2A
+GPSRD:$GNGGA,212506.000,4900.5222,N,00825.4536,E,1,4,2.89,133.2,M,47.9,M,,*4F
$GPGSA,A,3,18,23,10,29,,,,,,,,,3.05,2.89,0.96*0A
$BDGSA,A,3,,,,,,,,,,,,,3.05,2.89,0.96*19
$GPGSV,3,1,11,16,70,268,,18,53,059,35,26,53,182,,27,46,290,*77
$GPGSV,3,2,11,23,44,121,29,10,27,157,26,08,15,285,,07,08,332,*7D
$GPGSV,3,3,11,29,06,094,23,15,04,069,26,05,01,026,*43
$BDGSV,1,1,00*68
$GNRMC,212506.000,A,4900.5222,N,00825.4536,E,0.319,277.15,070122,,,A*48
$GNVTG,277.15,T,,M,0.319,N,0.592,K,A*20
+GPSRD:$GNGGA,212516.000,4900.5224,N,00825.4547,E,1,5,2.81,132.4,M,47.9,M,,*40
$GPGSA,A,3,18,23,10,15,29,,,,,,,,2.97,2.81,0.94*0E
$BDGSA,A,3,,,,,,,,,,,,,2.97,2.81,0.94*19
$GPGSV,3,1,11,16,70,266,,26,53,182,,18,52,059,35,27,46,290,*78
$GPGSV,3,2,11,23,44,121,29,10,27,157,26,08,15,285,,07,08,332,*7D
$GPGSV,3,3,11,29,06,094,24,15,05,069,26,05,01,026,*45
$BDGSV,1,1,00*68
$GNRMC,212516.000,A,4900.5224,N,00825.4547,E,0.618,103.18,070122,,,A*40
$GNVTG,103.18,T,,M,0.618,N,1.146,K,A*25
+GPSRD:$GNGGA,212526.000,4900.5231,N,00825.4581,E,1,5,2.81,132.3,M,47.9,M,,*4A
$GPGSA,A,3,18,23,10,15,29,,,,,,,,2.97,2.81,0.94*0E
$BDGSA,A,3,,,,,,,,,,,,,2.97,2.81,0.94*19
$GPGSV,3,1,11,16,70,266,,18,52,059,35,26,52,182,,27,47,290,*78
$GPGSV,3,2,11,23,44,120,30,10,27,157,24,08,15,285,,07,08,332,*76
$GPGSV,3,3,11,15,05,069,25,29,05,095,24,05,01,026,*44
$BDGSV,1,1,00*68
$GNRMC,212526.000,A,4900.5231,N,00825.4581,E,0.442,325.77,070122,,,A*4F
$GNVTG,325.77,T,,M,0.442,N,0.819,K,A*25
+GPSRD:$GNGGA,212536.000,4900.5220,N,00825.4556,E,1,5,2.82,132.3,M,47.9,M,,*42
$GPGSA,A,3,18,23,10,15,29,,,,,,,,2.97,2.82,0.94*0D
$BDGSA,A,3,,,,,,,,,,,,,2.97,2.82,0.94*1A
$GPGSV,3,1,11,16,70,266,,18,52,059,35,26,52,182,,27,47,290,*78
$GPGSV,3,2,11,23,44,120,30,10,27,157,20,08,15,285,,07,08,332,*72
$GPGSV,3,3,11,15,05,069,25,29,05,095,24,05,01,026,*44
$BDGSV,1,1,00*68
$GNRMC,212536.000,A,4900.5220,N,00825.4556,E,0.461,250.15,070122,,,A*42
$GNVTG,250.15,T,,M,0.461,N,0.855,K,A*2B
+GPSRD:$GNGGA,212546.000,4900.5223,N,00825.4536,E,1,5,2.82,131.0,M,47.9,M,,*40
$GPGSA,A,3,18,23,10,15,29,,,,,,,,2.97,2.82,0.94*0D
$BDGSA,A,3,,,,,,,,,,,,,2.97,2.82,0.94*1A
$GPGSV,3,1,11,16,70,266,,18,52,059,35,26,52,182,,27,47,290,*78
$GPGSV,3,2,11,23,44,120,31,10,27,157,20,08,15,285,,07,08,332,*73
$GPGSV,3,3,11,15,05,069,25,29,05,095,24,05,01,026,*44
$BDGSV,1,1,00*68
$GNRMC,212546.000,A,4900.5223,N,00825.4536,E,0.283,142.33,070122,,,A*4E
$GNVTG,142.33,T,,M,0.283,N,0.525,K,A*2F
+GPSRD:$GNGGA,212556.000,4900.5215,N,00825.4487,E,1,5,2.82,130.2,M,47.9,M,,*4C
$GPGSA,A,3,18,23,10,15,29,,,,,,,,2.97,2.82,0.94*0D
$BDGSA,A,3,,,,,,,,,,,,,2.97,2.82,0.94*1A
$GPGSV,3,1,11,16,70,266,,18,52,059,35,26,52,182,,27,47,290,*78
$GPGSV,3,2,11,23,44,120,31,10,27,157,22,08,15,285,,07,08,332,*71
$GPGSV,3,3,11,15,05,069,26,29,05,095,23,05,01,026,*40
$BDGSV,1,1,00*68
$GNRMC,212556.000,A,4900.5215,N,00825.4487,E,0.417,335.22,070122,,,A*48
$GNVTG,335.22,T,,M,0.417,N,0.773,K,A*27
+GPSRD:$GNGGA,212606.000,4900.5219,N,00825.4506,E,1,5,2.82,129.5,M,47.9,M,,*41
$GPGSA,A,3,18,23,10,15,29,,,,,,,,2.97,2.82,0.94*0D
$BDGSA,A,3,,,,,,,,,,,,,2.97,2.82,0.94*1A
$GPGSV,3,1,11,16,70,266,,18,52,059,35,26,52,182,,27,47,290,*78
$GPGSV,3,2,11,23,44,120,31,10,27,157,24,08,15,285,,07,08,332,*77
$GPGSV,3,3,11,15,05,069,26,29,05,095,23,05,01,026,*40
$BDGSV,1,1,00*68
$GNRMC,212606.000,A,4900.5219,N,00825.4506,E,0.656,144.26,070122,,,A*4D
$GNVTG,144.26,T,,M,0.656,N,1.216,K,A*27
+GPSRD:$GNGGA,212616.000,4900.5226,N,00825.4498,E,1,5,2.82,128.2,M,47.9,M,,*4C
$GPGSA,A,3,18,23,10,15,29,,,,,,,,2.98,2.82,0.94*02
$BDGSA,A,3,,,,,,,,,,,,,2.98,2.82,0.94*15
$GPGSV,3,1,11,16,70,266,,18,52,059,35,26,52,182,,27,47,290,*78
$GPGSV,3,2,11,23,44,120,31,10,27,157,23,08,15,285,,07,08,332,*70
$GPGSV,3,3,11,15,05,069,26,29,05,095,23,05,01,026,*40
$BDGSV,1,1,00*68
$GNRMC,212616.000,A,4900.5226,N,00825.4498,E,0.340,131.00,070122,,,A*42
$GNVTG,131.00,T,,M,0.340,N,0.629,K,A*2A
+GPSRD:$GNGGA,212626.000,4900.5222,N,00825.4505,E,1,5,2.82,127.6,M,47.9,M,,*45
$GPGSA,A,3,18,23,10,15,29,,,,,,,,2.98,2.82,0.94*02
$BDGSA,A,3,,,,,,,,,,,,,2.98,2.82,0.94*15
$GPGSV,3,1,12,16,70,266,,18,52,059,35,26,52,182,,27,47,290,15*7F
$GPGSV,3,2,12,23,44,120,31,37,32,162,,10,28,156,22,08,16,285,*72
$GPGSV,3,3,12,07,08,332,,15,05,069,26,29,05,095,23,05,01,026,*7E
$BDGSV,1,1,00*68
$GNRMC,212626.000,A,4900.5222,N,00825.4505,E,0.530,117.01,070122,,,A*44
$GNVTG,117.01,T,,M,0.530,N,0.982,K,A*20
+GPSRD:$GNGGA,212636.000,4900.5223,N,00825.4481,E,1,5,2.83,128.6,M,47.9,M,,*46
$GPGSA,A,3,18,23,10,15,29,,,,,,,,2.98,2.83,0.94*03
$BDGSA,A,3,,,,,,,,,,,,,2.98,2.83,0.94*14
$GPGSV,3,1,12,16,70,264,,18,52,058,35,26,52,182,,27,47,290,16*7F
$GPGSV,3,2,12,23,45,120,31,39,31,158,,10,28,156,21,08,16,285,*74
$GPGSV,3,3,12,07,08,332,,15,05,068,25,29,05,095,23,05,01,026,*7C
$BDGSV,1,1,00*68
$GNRMC,212636.000,A,4900.5223,N,00825.4481,E,0.716,278.82,070122,,,A*4E
$GNVTG,278.82,T,,M,0.716,N,1.327,K,A*23
+GPSRD:$GNGGA,212646.000,4900.5208,N,00825.4514,E,1,5,2.83,128.5,M,47.9,M,,*46
$GPGSA,A,3,18,23,10,15,29,,,,,,,,2.98,2.83,0.94*03
$BDGSA,A,3,,,,,,,,,,,,,2.98,2.83,0.94*14
$GPGSV,3,1,12,16,70,264,,18,52,058,36,26,52,182,,27,47,290,17*7D
$GPGSV,3,2,12,23,45,120,31,33,29,210,,10,28,156,20,08,16,285,*79
$GPGSV,3,3,12,07,08,332,,15,05,068,26,29,05,095,24,05,01,026,*78
$BDGSV,1,1,00*68
$GNRMC,212646.000,A,4900.5208,N,00825.4514,E,0.751,95.36,070122,,,A*70
$GNVTG,95.36,T,,M,0.751,N,1.392,K,A*10
+GPSRD:$GNGGA,212656.000,4900.5197,N,00825.4514,E,1,5,4.30,129.4,M,47.9,M,,*4C
$GPGSA,A,3,18,23,10,15,29,,,,,,,,5.11,4.30,2.75*06
$BDGSA,A,3,,,,,,,,,,,,,5.11,4.30,2.75*11
$GPGSV,3,1,12,16,70,264,,18,52,058,36,26,52,182,,27,47,290,18*72
$GPGSV,3,2,12,23,45,120,30,10,28,156,20,08,16,285,,40,13,117,*71
$GPGSV,3,3,12,07,08,332,,15,05,068,27,29,05,095,24,05,01,026,*79
$BDGSV,1,1,00*68
$GNRMC,212656.000,A,4900.5197,N,00825.4514,E,0.234,297.05,070122,,,A*42
$GNVTG,297.05,T,,M,0.234,N,0.433,K,A*2B
+GPSRD:$GNGGA,212706.000,4900.5202,N,00825.4499,E,1,5,2.83,128.9,M,47.9,M,,*41
$GPGSA,A,3,18,23,10,15,29,,,,,,,,2.99,2.83,0.94*02
$BDGSA,A,3,,,,,,,,,,,,,2.99,2.83,0.94*15
$GPGSV,3,1,12,16,70,264,,18,52,058,36,26,52,182,,27,47,290,18*72
$GPGSV,3,2,12,23,45,120,32,10,28,156,22,08,16,285,,44,12,116,*75
$GPGSV,3,3,12,07,08,332,,15,05,068,26,29,05,095,25,05,01,026,*79
$BDGSV,1,1,00*68
$GNRMC,212706.000,A,4900.5202,N,00825.4499,E,0.761,321.33,070122,,,A*41
$GNVTG,321.33,T,,M,0.761,N,1.410,K,A*27
+GPSRD:$GNGGA,212716.000,4900.5220,N,00825.4504,E,1,5,2.84,128.3,M,47.9,M,,*48
$GPGSA,A,3,18,23,10,15,29,,,,,,,,2.99,2.84,0.94*05
$BDGSA,A,3,,,,,,,,,,,,,2.99,2.84,0.94*12
$GPGSV,3,1,12,16,70,264,,18,52,058,36,26,52,182,,27,47,290,13*79
$GPGSV,3,2,12,23,45,120,31,10,28,156,21,08,16,285,,07,08,332,*7D
$GPGSV,3,3,12,15,05,068,26,29,05,095,24,05,01,026,,34,,,*42
$BDGSV,1,1,00*68
$GNRMC,212716.000,A,4900.5220,N,00825.4504,E,0.491,294.87,070122,,,A*49
$GNVTG,294.87,T,,M,0.491,N,0.910,K,A*27
+GPSRD:$GNGGA,212726.000,4900.5231,N,00825.4525,E,1,5,2.84,128.4,M,47.9,M,,*4F
$GPGSA,A,3,18,23,10,15,29,,,,,,,,2.99,2.84,0.94*05
$BDGSA,A,3,,,,,,,,,,,,,2.99,2.84,0.94*12
$GPGSV,3,1,12,16,70,264,,18,52,058,36,26,52,182,,27,47,290,15*7F
$GPGSV,3,2,12,23,45,120,31,10,28,156,21,08,16,285,,07,08,332,*7D
$GPGSV,3,3,12,15,05,068,27,29,05,095,24,05,01,026,,36,,,*41
$BDGSV,1,1,00*68
$GNRMC,212726.000,A,4900.5231,N,00825.4525,E,0.892,103.96,070122,,,A*4B
$GNVTG,103.96,T,,M,0.892,N,1.652,K,A*2D
+GPSRD:$GNGGA,212736.000,4900.5221,N,00825.4514,E,1,5,2.84,128.8,M,47.9,M,,*41
$GPGSA,A,3,18,23,10,15,29,,,,,,,,2.99,2.84,0.94*05
$BDGSA,A,3,,,,,,,,,,,,,2.99,2.84,0.94*12
$GPGSV,3,1,11,16,70,264,,18,52,058,36,26,52,182,,27,47,290,12*7B
$GPGSV,3,2,11,23,45,120,31,10,28,156,22,08,16,285,,07,08,331,*7E
$GPGSV,3,3,11,15,05,068,25,29,05,095,24,41,,,*70
$BDGSV,1,1,00*68
$GNRMC,212736.000,A,4900.5221,N,00825.4514,E,0.411,306.37,070122,,,A*42
$GNVTG,306.37,T,,M,0.411,N,0.761,K,A*26
+GPSRD:$GNGGA,212746.000,4900.5222,N,00825.4515,E,1,5,2.84,128.3,M,47.9,M,,*4F
$GPGSA,A,3,18,23,10,15,29,,,,,,,,2.99,2.84,0.94*05
$BDGSA,A,3,,,,,,,,,,,,,2.99,2.84,0.94*12
$GPGSV,3,1,11,16,70,262,,18,52,058,36,26,52,182,,27,47,290,16*79
$GPGSV,3,2,11,23,45,120,31,10,29,156,22,08,16,285,,07,08,331,*7F
$GPGSV,3,3,11,15,05,068,25,29,05,095,25,43,,,*73
$BDGSV,1,1,00*68
$GNRMC,212746.000,A,4900.5222,N,00825.4515,E,0.564,185.16,070122,,,A*4E
$GNVTG,185.16,T,,M,0.564,N,1.046,K,A*2C
+GPSRD:$GNGGA,212756.000,4900.5227,N,00825.4512,E,1,5,2.84,129.0,M,47.9,M,,*4E
$GPGSA,A,3,18,23,10,15,29,,,,,,,,2.99,2.84,0.94*05
$BDGSA,A,3,,,,,,,,,,,,,2.99,2.84,0.94*12
$GPGSV,3,1,11,16,70,262,,18,51,058,36,26,51,181,,27,48,291,14*76
$GPGSV,3,2,11,23,45,119,30,10,29,156,23,08,16,285,,07,08,331,*75
$GPGSV,3,3,11,15,05,068,25,29,05,095,26,46,,,*75
$BDGSV,1,1,00*68
$GNRMC,212756.000,A,4900.5227,N,00825.4512,E,0.329,95.56,070122,,,A*76
$GNVTG,95.56,T,,M,0.329,N,0.611,K,A*12
+GPSRD:$GNGGA,212806.000,4900.5214,N,00825.4576,E,1,4,4.10,130.6,M,47.9,M,,*42
$GPGSA,A,3,18,23,10,15,,,,,,,,,4.20,4.10,0.94*01
$BDGSA,A,3,,,,,,,,,,,,,4.20,4.10,0.94*1D
$GPGSV,3,1,11,16,70,262,,18,51,058,36,26,51,181,,27,48,291,12*70
$GPGSV,3,2,11,23,45,119,30,10,29,156,22,08,16,285,,07,08,331,*74
$GPGSV,3,3,11,15,05,068,26,29,04,096,26,47,,,*75
$BDGSV,1,1,00*68
$GNRMC,212806.000,A,4900.5214,N,00825.4576,E,0.491,79.22,070122,,,A*7B
$GNVTG,79.22,T,,M,0.491,N,0.910,K,A*19
+GPSRD:$GNGGA,212816.000,4900.5227,N,00825.4559,E,1,4,4.11,131.1,M,47.9,M,,*49
$GPGSA,A,3,18,23,10,15,,,,,,,,,4.21,4.11,0.94*01
$BDGSA,A,3,,,,,,,,,,,,,4.21,4.11,0.94*1D
$GPGSV,3,1,11,16,70,262,,18,51,058,36,26,51,181,,27,48,291,*73
$GPGSV,3,2,11,23,45,119,31,10,29,156,22,08,16,285,,07,08,331,*75
$GPGSV,3,3,11,15,05,068,26,29,04,096,25,51,,,*71
$BDGSV,1,1,00*68
$GNRMC,212816.000,A,4900.5227,N,00825.4559,E,0.601,82.97,070122,,,A*76
$GNVTG,82.97,T,,M,0.601,N,1.113,K,A*12
+GPSRD:$GNGGA,212826.000,4900.5215,N,00825.4569,E,1,4,4.12,131.9,M,47.9,M,,*43
$GPGSA,A,3,18,23,10,15,,,,,,,,,4.23,4.12,0.94*00
$BDGSA,A,3,,,,,,,,,,,,,4.23,4.12,0.94*1C
$GPGSV,3,1,11,16,70,262,,18,51,058,36,26,51,181,,27,48,291,*73
$GPGSV,3,2,11,23,45,119,31,10,29,156,20,08,16,285,,07,08,331,*77
$GPGSV,3,3,11,15,05,068,26,29,04,096,27,50,,,*72
$BDGSV,1,1,00*68
$GNRMC,212826.000,A,4900.5215,N,00825.4569,E,0.595,14.55,070122,,,A*78
$GNVTG,14.55,T,,M,0.595,N,1.102,K,A*1D
+GPSRD:$GNGGA,212836.000,4900.5221,N,00825.4545,E,1,4,4.13,131.6,M,47.9,M,,*45
$GPGSA,A,3,18,23,10,15,,,,,,,,,4.24,4.13,0.94*06
$BDGSA,A,3,,,,,,,,,,,,,4.24,4.13,0.94*1A
$GPGSV,3,1,11,16,70,262,,18,51,058,36,26,51,181,,27,48,291,*73
$GPGSV,3,2,11,23,45,119,32,10,29,156,20,08,16,285,,07,08,331,*74
$GPGSV,3,3,11,15,05,068,26,29,04,096,27,48,,,*7B
$BDGSV,1,1,00*68
$GNRMC,212836.000,A,4900.5221,N,00825.4545,E,0.484,10.67,070122,,,A*74
$GNVTG,10.67,T,,M,0.484,N,0.896,K,A*1C
+GPSRD:$GNGGA,212846.000,4900.5222,N,00825.4513,E,1,4,4.14,130.9,M,47.9,M,,*4B
$GPGSA,A,3,18,23,10,15,,,,,,,,,4.25,4.14,0.94*00
$BDGSA,A,3,,,,,,,,,,,,,4.25,4.14,0.94*1C
$GPGSV,3,1,11,16,70,262,,18,51,058,36,26,51,181,,27,48,291,*73
$GPGSV,3,2,11,23,45,119,33,37,32,162,,10,29,156,22,08,16,285,*79
$GPGSV,3,3,11,07,08,331,,15,05,068,25,29,04,096,26*4B
$BDGSV,1,1,00*68
$GNRMC,212846.000,A,4900.5222,N,00825.4513,E,1.094,207.45,070122,,,A*43
$GNVTG,207.45,T,,M,1.094,N,2.027,K,A*2C
+GPSRD:$GNGGA,212856.000,4900.5221,N,00825.4503,E,1,4,4.16,131.3,M,47.9,M,,*41
$GPGSA,A,3,18,23,10,15,,,,,,,,,4.27,4.16,0.94*00
$BDGSA,A,3,,,,,,,,,,,,,4.27,4.16,0.94*1C
$GPGSV,3,1,11,16,70,262,,18,51,058,36,26,51,181,,27,48,291,*73
$GPGSV,3,2,11,23,45,119,33,10,29,156,24,33,29,210,,08,17,285,*76
$GPGSV,3,3,11,07,08,331,,15,05,068,26,29,04,096,26*48
$BDGSV,1,1,00*68
$GNRMC,212856.000,A,4900.5221,N,00825.4503,E,1.613,291.87,070122,,,A*48
$GNVTG,291.87,T,,M,1.613,N,2.989,K,A*29
+GPSRD:$GNGGA,212906.000,4900.5240,N,00825.4503,E,1,4,4.17,130.5,M,47.9,M,,*44
$GPGSA,A,3,18,23,10,15,,,,,,,,,4.28,4.17,0.94*0E
$BDGSA,A,3,,,,,,,,,,,,,4.28,4.17,0.94*12
$GPGSV,3,1,11,16,70,261,,26,51,181,,18,50,058,36,27,48,291,*71
$GPGSV,3,2,11,23,45,119,33,10,29,156,25,08,17,285,,40,13,117,*7E
$GPGSV,3,3,11,07,08,331,,15,05,067,27,29,04,096,26*46
$BDGSV,1,1,00*68
$GNRMC,212906.000,A,4900.5240,N,00825.4503,E,1.130,65.63,070122,,,A*7E
$GNVTG,65.63,T,,M,1.130,N,2.093,K,A*1E
+GPSRD:$GNGGA,212916.000,4900.5249,N,00825.4499,E,1,4,4.18,131.6,M,47.9,M,,*43
$GPGSA,A,3,18,23,10,15,,,,,,,,,4.29,4.18,0.94*00
$BDGSA,A,3,,,,,,,,,,,,,4.29,4.18,0.94*1C
$GPGSV,3,1,11,16,70,261,,18,50,058,36,26,50,181,,27,49,291,*71
$GPGSV,3,2,11,23,45,118,32,10,29,156,24,08,17,285,,44,12,116,*7B
$GPGSV,3,3,11,07,08,331,,15,05,067,26,29,04,096,26*47
$BDGSV,1,1,00*68
$GNRMC,212916.000,A,4900.5249,N,00825.4499,E,0.980,282.42,070122,,,A*4E
$GNVTG,282.42,T,,M,0.980,N,1.816,K,A*22
+GPSRD:$GNGGA,212926.000,4900.5223,N,00825.4588,E,1,4,4.20,133.4,M,47.9,M,,*46
$GPGSA,A,3,18,23,10,15,,,,,,,,,4.30,4.20,0.94*03
$BDGSA,A,3,,,,,,,,,,,,,4.30,4.20,0.94*1F
$GPGSV,3,1,11,16,70,261,,18,50,058,36,26,50,181,,27,49,291,*71
$GPGSV,3,2,11,23,45,118,31,37,32,162,,10,29,156,21,08,17,285,*78
$GPGSV,3,3,11,07,08,331,,15,05,067,25,29,04,096,26*44
$BDGSV,1,1,00*68
$GNRMC,212926.000,A,4900.5223,N,00825.4588,E,0.568,74.88,070122,,,A*77
$GNVTG,74.88,T,,M,0.568,N,1.052,K,A*1D
+GPSRD:$GNGGA,212936.000,4900.5230,N,00825.4555,E,1,4,4.21,133.3,M,47.9,M,,*43
$GPGSA,A,3,18,23,10,15,,,,,,,,,4.32,4.21,0.94*00
$BDGSA,A,3,,,,,,,,,,,,,4.32,4.21,0.94*1C
$GPGSV,3,1,11,16,70,261,,18,50,058,35,26,50,181,,27,49,291,*72
$GPGSV,3,2,11,23,45,118,31,39,31,158,,10,29,156,22,08,17,285,*7F
$GPGSV,3,3,11,07,08,331,,15,05,067,24,29,04,096,25*46
$BDGSV,1,1,00*68
$GNRMC,212936.000,A,4900.5230,N,00825.4555,E,1.914,289.54,070122,,,A*43
$GNVTG,289.54,T,,M,1.914,N,3.546,K,A*28
+GPSRD:$GNGGA,212946.000,4900.5233,N,00825.4558,E,1,4,5.61,132.5,M,47.9,M,,*48
$GPGSA,A,3,18,23,10,15,,,,,,,,,6.27,5.61,2.80*04
$BDGSA,A,3,,,,,,,,,,,,,6.27,5.61,2.80*18
$GPGSV,3,1,11,16,70,261,,18,50,058,35,26,50,181,,27,49,291,*72
$GPGSV,3,2,11,23,45,118,30,10,29,156,22,33,29,210,,08,17,285,*72
$GPGSV,3,3,11,07,08,331,,15,05,067,24,29,04,096,25*46
$BDGSV,1,1,00*68
$GNRMC,212946.000,A,4900.5233,N,00825.4558,E,0.559,103.25,070122,,,A*49
$GNVTG,103.25,T,,M,0.559,N,1.037,K,A*2A
+GPSRD:$GNGGA,212956.000,4900.5212,N,00825.4574,E,1,4,4.24,132.3,M,47.9,M,,*42
$GPGSA,A,3,18,23,10,15,,,,,,,,,4.35,4.24,0.94*02
$BDGSA,A,3,,,,,,,,,,,,,4.35,4.24,0.94*1E
$GPGSV,3,1,11,16,70,261,,18,50,058,36,26,50,181,,27,49,291,*71
$GPGSV,3,2,11,23,45,118,30,10,29,156,22,08,17,285,,40,13,117,*7B
$GPGSV,3,3,11,07,08,331,,15,05,067,24,29,04,096,24*47
$BDGSV,1,1,00*68
$GNRMC,212956.000,A,4900.5212,N,00825.4574,E,0.155,54.54,070122,,,A*78
$GNVTG,54.54,T,,M,0.155,N,0.288,K,A*10
+GPSRD:$GNGGA,213006.000,4900.5198,N,00825.4626,E,1,4,4.25,132.0,M,47.9,M,,*48
$GPGSA,A,3,18,23,10,15,,,,,,,,,4.35,4.25,0.94*03
$BDGSA,A,3,,,,,,,,,,,,,4.35,4.25,0.94*1F
$GPGSV,3,1,11,16,70,261,,18,50,058,35,26,50,181,,27,49,291,*72
$GPGSV,3,2,11,23,45,118,30,10,29,156,21,08,17,285,,44,12,116,*7C
$GPGSV,3,3,11,07,08,331,,15,05,067,26,29,04,096,22*43
$BDGSV,1,1,00*68
$GNRMC,213006.000,A,4900.5198,N,00825.4626,E,1.865,119.78,070122,,,A*4D
$GNVTG,119.78,T,,M,1.865,N,3.457,K,A*2A
+GPSRD:$GNGGA,213016.000,4900.5212,N,00825.4561,E,1,4,4.26,131.5,M,47.9,M,,*4D
$GPGSA,A,3,18,23,10,15,,,,,,,,,4.36,4.26,0.94*03
$BDGSA,A,3,,,,,,,,,,,,,4.36,4.26,0.94*1F
$GPGSV,3,1,12,16,70,261,,18,50,058,35,26,50,181,,27,49,291,*71
$GPGSV,3,2,12,23,45,118,31,10,30,156,20,08,17,286,,07,08,331,*7F
$GPGSV,3,3,12,15,05,067,25,29,04,096,21,13,01,039,,35,,,*41
$BDGSV,1,1,00*68
$GNRMC,213016.000,A,4900.5212,N,00825.4561,E,0.959,211.58,070122,,,A*4B
$GNVTG,211.58,T,,M,0.959,N,1.777,K,A*2F
+GPSRD:$GNGGA,213026.000,4900.5222,N,00825.4550,E,1,4,4.28,130.4,M,47.9,M,,*41
$GPGSA,A,3,18,23,10,15,,,,,,,,,4.38,4.28,0.94*03
$BDGSA,A,3,,,,,,,,,,,,,4.38,4.28,0.94*1F
$GPGSV,3,1,11,16,71,259,,18,50,058,36,26,50,181,,27,49,291,*7B
$GPGSV,3,2,11,23,46,117,31,10,30,156,19,08,17,286,,07,08,331,*7A
$GPGSV,3,3,11,15,06,067,25,29,04,096,21,13,01,039,*47
$BDGSV,1,1,00*68
$GNRMC,213026.000,A,4900.5222,N,00825.4550,E,0.963,292.75,070122,,,A*44
$GNVTG,292.75,T,,M,0.963,N,1.785,K,A*2F
+GPSRD:$GNGGA,213036.000,4900.5226,N,00825.4549,E,1,4,4.29,129.8,M,47.9,M,,*49
$GPGSA,A,3,18,23,10,15,,,,,,,,,4.40,4.29,0.94*0D
$BDGSA,A,3,,,,,,,,,,,,,4.40,4.29,0.94*11
$GPGSV,3,1,11,16,71,259,,18,50,058,35,26,50,181,,27,49,291,*78
$GPGSV,3,2,11,23,46,117,31,10,30,156,22,08,17,286,,07,08,331,*72
$GPGSV,3,3,11,15,06,067,24,29,03,096,20,13,01,039,*40
$BDGSV,1,1,00*68
$GNRMC,213036.000,A,4900.5226,N,00825.4549,E,0.601,22.28,070122,,,A*73
$GNVTG,22.28,T,,M,0.601,N,1.114,K,A*1B
+GPSRD:$GNGGA,213046.000,4900.5228,N,00825.4549,E,1,4,4.31,129.9,M,47.9,M,,*48
$GPGSA,A,3,18,23,10,15,,,,,,,,,4.41,4.31,0.94*05
$BDGSA,A,3,,,,,,,,,,,,,4.41,4.31,0.94*19
$GPGSV,3,1,11,16,71,259,,18,50,058,35,26,50,181,,27,49,291,*78
$GPGSV,3,2,11,23,46,117,30,10,30,156,23,08,17,286,,07,08,331,*72
$GPGSV,3,3,11,15,06,067,24,29,03,096,19,13,01,039,*4A
$BDGSV,1,1,00*68
$GNRMC,213046.000,A,4900.5228,N,00825.4549,E,0.869,298.26,070122,,,A*47
$GNVTG,298.26,T,,M,0.869,N,1.611,K,A*24
+GPSRD:$GNGGA,213056.000,4900.5214,N,00825.4563,E,1,4,4.32,129.8,M,47.9,M,,*4C
$GPGSA,A,3,18,23,10,15,,,,,,,,,4.43,4.32,0.94*04
$BDGSA,A,3,,,,,,,,,,,,,4.43,4.32,0.94*18
$GPGSV,3,1,11,16,71,259,,18,50,058,35,26,50,181,,27,49,291,*78
$GPGSV,3,2,11,23,46,117,30,10,30,156,23,08,17,286,,07,08,331,*72
$GPGSV,3,3,11,15,06,067,25,29,03,096,20,13,01,039,*41
$BDGSV,1,1,00*68
$GNRMC,213056.000,A,4900.5214,N,00825.4563,E,0.823,182.94,070122,,,A*4E
$GNVTG,182.94,T,,M,0.823,N,1.526,K,A*2C
+GPSRD:$GNGGA,213106.000,4900.5202,N,00825.4633,E,1,4,4.34,130.3,M,47.9,M,,*4C
$GPGSA,A,3,18,23,10,15,,,,,,,,,4.44,4.34,0.94*05
$BDGSA,A,3,,,,,,,,,,,,,4.44,4.34,0.94*19
$GPGSV,3,1,11,16,71,259,,18,50,058,35,26,50,181,,27,49,291,*78
$GPGSV,3,2,11,23,46,117,30,10,30,156,24,08,17,286,,07,08,331,*75
$GPGSV,3,3,11,15,06,067,25,29,03,096,20,13,01,039,*41
$BDGSV,1,1,00*68
$GNRMC,213106.000,A,4900.5202,N,00825.4633,E,0.441,94.26,070122,,,A*7C
$GNVTG,94.26,T,,M,0.441,N,0.817,K,A*15
+GPSRD:$GNGGA,213116.000,4900.5218,N,00825.4605,E,1,4,4.35,130.7,M,47.9,M,,*46
$GPGSA,A,3,18,23,10,15,,,,,,,,,4.45,4.35,0.94*05
$BDGSA,A,3,,,,,,,,,,,,,4.45,4.35,0.94*19
$GPGSV,3,1,11,16,71,259,,18,50,058,35,26,50,181,,27,49,291,*78
$GPGSV,3,2,11,23,46,117,30,10,30,156,23,08,17,286,,07,08,331,*72
$GPGSV,3,3,11,15,06,067,24,29,03,096,21,13,01,039,*41
$BDGSV,1,1,00*68
$GNRMC,213116.000,A,4900.5218,N,00825.4605,E,0.268,250.71,070122,,,A*46
$GNVTG,250.71,T,,M,0.268,N,0.497,K,A*24
+GPSRD:$GNGGA,213126.000,4900.5214,N,00825.4661,E,1,4,4.37,130.3,M,47.9,M,,*4D
$GPGSA,A,3,18,23,10,15,,,,,,,,,4.47,4.37,0.94*05
$BDGSA,A,3,,,,,,,,,,,,,4.47,4.37,0.94*19
$GPGSV,3,1,11,16,71,259,,18,50,058,35,26,50,181,,27,49,291,*78
$GPGSV,3,2,11,23,46,117,31,10,30,156,21,08,17,286,,07,08,331,*71
$GPGSV,3,3,11,15,06,067,23,29,03,096,20,13,01,039,*47
$BDGSV,1,1,00*68
$GNRMC,213126.000,A,4900.5214,N,00825.4661,E,0.639,115.07,070122,,,A*48
$GNVTG,115.07,T,,M,0.639,N,1.183,K,A*26
+GPSRD:$GNGGA,213136.000,4900.5225,N,00825.4628,E,1,4,4.38,129.6,M,47.9,M,,*41
$GPGSA,A,3,18,23,10,15,,,,,,,,,4.48,4.38,0.94*05
$BDGSA,A,3,,,,,,,,,,,,,4.48,4.38,0.94*19
$GPGSV,3,1,11,16,71,257,,18,50,058,35,26,50,181,,27,49,291,*76
$GPGSV,3,2,11,23,46,117,32,10,30,156,21,08,18,286,,07,09,330,*7D
$GPGSV,3,3,11,15,06,066,24,29,03,096,20,13,01,039,*41
$BDGSV,1,1,00*68
$GNRMC,213136.000,A,4900.5225,N,00825.4628,E,0.715,300.85,070122,,,A*45
$GNVTG,300.85,T,,M,0.715,N,1.325,K,A*2B
+GPSRD:$GNGGA,213146.000,4900.5243,N,00825.4606,E,1,4,5.77,128.7,M,47.9,M,,*40
$GPGSA,A,3,18,23,10,15,,,,,,,,,6.42,5.77,2.82*02
$BDGSA,A,3,,,,,,,,,,,,,6.42,5.77,2.82*1E
$GPGSV,3,1,11,16,71,257,,18,49,058,35,27,49,291,,26,49,181,*76
$GPGSV,3,2,11,23,46,117,33,10,30,156,20,08,18,286,,07,09,330,*7D
$GPGSV,3,3,11,15,06,066,23,29,03,096,21,13,01,039,*47
$BDGSV,1,1,00*68
$GNRMC,213146.000,A,4900.5243,N,00825.4606,E,0.825,347.36,070122,,,A*49
$GNVTG,347.36,T,,M,0.825,N,1.529,K,A*26
+GPSRD:$GNGGA,213156.000,4900.5255,N,00825.4616,E,1,4,4.41,127.0,M,47.9,M,,*4B
$GPGSA,A,3,18,23,10,15,,,,,,,,,4.51,4.41,0.94*03
$BDGSA,A,3,,,,,,,,,,,,,4.51,4.41,0.94*1F
$GPGSV,3,1,11,16,71,257,,27,50,292,,18,49,058,35,26,49,181,*7D
$GPGSV,3,2,11,23,46,117,33,10,30,156,19,08,18,286,,07,09,330,*77
$GPGSV,3,3,11,15,06,066,23,29,03,097,22,13,01,039,*45
$BDGSV,1,1,00*68
$GNRMC,213156.000,A,4900.5255,N,00825.4616,E,0.521,17.45,070122,,,A*75
$GNVTG,17.45,T,,M,0.521,N,0.966,K,A*1B
+GPSRD:$GNGGA,213206.000,4900.5255,N,00825.4608,E,1,4,5.80,125.8,M,47.9,M,,*44
$GPGSA,A,3,18,23,10,15,,,,,,,,,6.45,5.80,2.82*0D
$BDGSA,A,3,,,,,,,,,,,,,6.45,5.80,2.82*11
$GPGSV,3,1,11,16,71,257,,27,50,292,,18,49,058,35,26,49,181,*7D
$GPGSV,3,2,11,23,46,117,33,10,30,156,19,08,18,286,,07,09,330,*77
$GPGSV,3,3,11,15,06,066,23,29,03,097,21,13,01,039,*46
$BDGSV,1,1,00*68
$GNRMC,213206.000,A,4900.5255,N,00825.4608,E,0.365,77.90,070122,,,A*74
$GNVTG,77.90,T,,M,0.365,N,0.676,K,A*1D
+GPSRD:$GNGGA,213216.000,4900.5235,N,00825.4633,E,1,4,4.44,124.4,M,47.9,M,,*4F
$GPGSA,A,3,18,23,10,15,,,,,,,,,4.54,4.44,0.94*03
$BDGSA,A,3,,,,,,,,,,,,,4.54,4.44,0.94*1F
$GPGSV,3,1,11,16,71,257,,27,50,292,,18,49,058,35,26,49,181,*7D
$GPGSV,3,2,11,23,46,117,32,10,30,156,19,08,18,286,,07,09,330,*76
$GPGSV,3,3,11,15,06,066,23,29,03,097,20,13,01,039,*47
$BDGSV,1,1,00*68
$GNRMC,213216.000,A,4900.5235,N,00825.4633,E,0.618,46.43,070122,,,A*78
$GNVTG,46.43,T,,M,0.618,N,1.145,K,A*18
+GPSRD:$GNGGA,213226.000,4900.5211,N,00825.4573,E,1,4,4.46,124.6,M,47.9,M,,*4D
$GPGSA,A,3,18,23,10,15,,,,,,,,,4.56,4.46,0.94*03
$BDGSA,A,3,,,,,,,,,,,,,4.56,4.46,0.94*1F
$GPGSV,3,1,11,16,71,257,,27,50,292,,18,49,058,35,26,49,181,*7D
$GPGSV,3,2,11,23,46,117,31,10,30,156,23,08,18,286,,07,09,330,*7C
$GPGSV,3,3,11,15,06,066,24,29,03,097,20,13,01,039,*40
$BDGSV,1,1,00*68
$GNRMC,213226.000,A,4900.5211,N,00825.4573,E,0.838,187.51,070122,,,A*49
$GNVTG,187.51,T,,M,0.838,N,1.552,K,A*29
+GPSRD:$GNGGA,213236.000,4900.5213,N,00825.4512,E,1,4,4.48,124.9,M,47.9,M,,*48
$GPGSA,A,3,18,23,10,15,,,,,,,,,4.57,4.48,0.94*0C
$BDGSA,A,3,,,,,,,,,,,,,4.57,4.48,0.94*10
$GPGSV,3,1,11,16,71,257,,27,50,292,,18,49,058,34,26,49,181,*7C
$GPGSV,3,2,11,23,46,117,31,10,30,156,21,08,18,286,,07,09,330,*7E
$GPGSV,3,3,11,15,06,066,23,29,03,097,21,13,01,039,*46
$BDGSV,1,1,00*68
$GNRMC,213236.000,A,4900.5213,N,00825.4512,E,0.510,333.92,070122,,,A*48
$GNVTG,333.92,T,,M,0.510,N,0.946,K,A*24
+GPSRD:$GNGGA,213246.000,4900.5209,N,00825.4562,E,1,4,4.50,124.6,M,47.9,M,,*45
$GPGSA,A,3,18,23,10,15,,,,,,,,,4.59,4.50,0.94*0B
$BDGSA,A,3,,,,,,,,,,,,,4.59,4.50,0.94*17
$GPGSV,3,1,11,16,71,257,,27,50,292,,18,49,058,35,26,49,181,*7D
$GPGSV,3,2,11,23,46,117,32,10,30,156,21,08,18,286,,07,09,330,*7D
$GPGSV,3,3,11,15,06,066,23,29,03,097,21,13,01,039,*46
$BDGSV,1,1,00*68
$GNRMC,213246.000,A,4900.5209,N,00825.4562,E,0.512,66.42,070122,,,A*7F
$GNVTG,66.42,T,,M,0.512,N,0.949,K,A*17
+GPSRD:$GNGGA,213256.000,4900.5204,N,00825.4539,E,1,4,4.51,125.2,M,47.9,M,,*43
$GPGSA,A,3,18,23,10,15,,,,,,,,,4.61,4.51,0.94*01
$BDGSA,A,3,,,,,,,,,,,,,4.61,4.51,0.94*1D
$GPGSV,3,1,11,16,71,255,,27,50,292,,18,49,058,36,26,49,181,*7C
$GPGSV,3,2,11,23,46,117,32,10,31,155,19,08,18,286,,07,09,330,*74
$GPGSV,3,3,11,15,06,066,24,29,03,097,20,13,01,038,*41
$BDGSV,1,1,00*68
$GNRMC,213256.000,A,4900.5204,N,00825.4539,E,0.245,326.83,070122,,,A*42
$GNVTG,326.83,T,,M,0.245,N,0.454,K,A*29
+GPSRD:$GNGGA,213306.000,4900.5207,N,00825.4542,E,1,4,4.52,125.3,M,47.9,M,,*4A
$GPGSA,A,3,18,23,10,15,,,,,,,,,4.62,4.52,0.94*01
$BDGSA,A,3,,,,,,,,,,,,,4.62,4.52,0.94*1D
$GPGSV,3,1,11,16,71,255,,27,50,292,,18,49,058,36,26,49,181,*7C
$GPGSV,3,2,11,23,46,116,33,10,31,155,19,08,18,286,,07,09,330,*74
$GPGSV,3,3,11,15,06,066,24,29,02,097,20,13,01,038,*40
$BDGSV,1,1,00*68
$GNRMC,213306.000,A,4900.5207,N,00825.4542,E,0.392,341.80,070122,,,A*40
$GNVTG,341.80,T,,M,0.392,N,0.727,K,A*27
+GPSRD:$GNGGA,213316.000,4900.5215,N,00825.4540,E,1,4,4.54,124.3,M,47.9,M,,*4D
$GPGSA,A,3,18,23,10,15,,,,,,,,,4.64,4.54,0.94*01
$BDGSA,A,3,,,,,,,,,,,,,4.64,4.54,0.94*1D
$GPGSV,3,1,12,16,71,255,,27,50,292,,18,49,058,36,26,49,181,13*7D
$GPGSV,3,2,12,23,46,116,32,10,31,155,17,08,18,286,,07,09,330,*78
$GPGSV,3,3,12,15,06,066,23,29,02,097,20,13,01,038,,38,,,*4F
$BDGSV,1,1,00*68
$GNRMC,213316.000,A,4900.5215,N,00825.4540,E,0.514,211.77,070122,,,A*44
$GNVTG,211.77,T,,M,0.514,N,0.953,K,A*2E
+GPSRD:$GNGGA,213326.000,4900.5229,N,00825.4547,E,1,4,4.55,124.0,M,47.9,M,,*44
$GPGSA,A,3,18,23,10,15,,,,,,,,,4.65,4.55,0.94*01
$BDGSA,A,3,,,,,,,,,,,,,4.65,4.55,0.94*1D
$GPGSV,3,1,12,16,71,255,,27,50,292,,18,49,058,36,26,49,181,14*7A
$GPGSV,3,2,12,23,46,116,33,10,31,155,19,08,18,286,,07,09,330,*77
$GPGSV,3,3,12,15,06,066,23,29,02,097,21,13,01,038,,41,,,*40
$BDGSV,1,1,00*68
$GNRMC,213326.000,A,4900.5229,N,00825.4547,E,0.111,63.43,070122,,,A*7E
$GNVTG,63.43,T,,M,0.111,N,0.206,K,A*14
+GPSRD:$GNGGA,213336.000,4900.5239,N,00825.4536,E,1,4,4.57,123.5,M,47.9,M,,*42
$GPGSA,A,3,18,23,10,15,,,,,,,,,4.67,4.57,0.94*01
$BDGSA,A,3,,,,,,,,,,,,,4.67,4.57,0.94*1D
$GPGSV,3,1,12,16,71,255,,27,50,292,,18,49,058,36,26,49,181,15*7B
$GPGSV,3,2,12,23,46,116,32,10,31,155,21,08,18,286,,07,09,330,*7D
$GPGSV,3,3,12,15,06,066,23,29,02,097,20,13,01,038,,45,,,*45
$BDGSV,1,1,00*68
$GNRMC,213336.000,A,4900.5239,N,00825.4536,E,0.728,314.31,070122,,,A*42
$GNVTG,314.31,T,,M,0.728,N,1.349,K,A*25
+GPSRD:$GNGGA,213346.000,4900.5233,N,00825.4499,E,1,4,4.59,122.7,M,47.9,M,,*46
$GPGSA,A,3,18,23,10,15,,,,,,,,,4.69,4.59,0.94*01
$BDGSA,A,3,,,,,,,,,,,,,4.69,4.59,0.94*1D
$GPGSV,3,1,12,16,71,255,,27,50,292,,18,49,058,36,26,49,181,15*7B
$GPGSV,3,2,12,23,46,116,33,10,31,155,24,08,18,286,,07,09,330,*79
$GPGSV,3,3,12,15,06,066,24,29,02,097,20,13,01,038,,47,,,*40
$BDGSV,1,1,00*68
$GNRMC,213346.000,A,4900.5233,N,00825.4499,E,0.727,276.58,070122,,,A*4E
$GNVTG,276.58,T,,M,0.727,N,1.348,K,A*21
AT+LOCATION=2

49.008723,8.424162

OK
+GPSRD:$GNGGA,213356.000,4900.5234,N,00825.4495,E,1,4,4.61,122.8,M,47.9,M,,*48
$GPGSA,A,3,18,23,10,15,,,,,,,,,4.70,4.61,0.94*02
$BDGSA,A,3,,,,,,,,,,,,,4.70,4.61,0.94*1E
$GPGSV,3,1,12,16,71,255,,27,50,292,,18,49,058,36,26,49,181,16*78
$GPGSV,3,2,12,23,46,116,33,10,31,155,24,08,18,286,,07,09,330,*79
$GPGSV,3,3,12,15,06,066,25,29,02,097,20,13,01,038,,49,,,*4F
$BDGSV,1,1,00*68
$GNRMC,213356.000,A,4900.5234,N,00825.4495,E,0.124,55.97,070122,,,A*71
$GNVTG,55.97,T,,M,0.124,N,0.230,K,A*1B
+GPSRD:$GNGGA,213406.000,4900.5226,N,00825.4541,E,1,4,4.62,123.9,M,47.9,M,,*42
$GPGSA,A,3,18,23,10,15,,,,,,,,,4.72,4.62,0.94*03
$BDGSA,A,3,,,,,,,,,,,,,4.72,4.62,0.94*1F
$GPGSV,3,1,12,16,71,255,,27,50,292,,18,49,058,36,26,49,181,17*79
$GPGSV,3,2,12,23,46,116,33,37,32,162,,10,31,155,23,08,19,287,*70
$GPGSV,3,3,12,07,09,329,,15,06,066,24,29,02,097,20,13,01,038,*75
$BDGSV,1,1,00*68
$GNRMC,213406.000,A,4900.5226,N,00825.4541,E,0.381,357.50,070122,,,A*4F
$GNVTG,357.50,T,,M,0.381,N,0.706,K,A*2C
+GPSRD:$GNGGA,213416.000,4900.5226,N,00825.4517,E,1,4,4.64,123.7,M,47.9,M,,*48
$GPGSA,A,3,18,23,10,15,,,,,,,,,4.73,4.64,0.94*04
$BDGSA,A,3,,,,,,,,,,,,,4.73,4.64,0.94*18
$GPGSV,3,1,12,16,71,253,,27,50,292,,26,49,181,15,18,48,058,36*7C
$GPGSV,3,2,12,23,46,116,34,10,31,155,20,33,29,210,,08,19,287,*7C
$GPGSV,3,3,12,07,09,329,,15,06,065,23,29,02,097,21,13,01,038,*70
$BDGSV,1,1,00*68
$GNRMC,213416.000,A,4900.5226,N,00825.4517,E,1.137,324.73,070122,,,A*46
$GNVTG,324.73,T,,M,1.137,N,2.106,K,A*23
+GPSRD:$GNGGA,213426.000,4900.5240,N,00825.4498,E,1,4,4.66,122.7,M,47.9,M,,*4E
$GPGSA,A,3,18,23,10,15,,,,,,,,,4.75,4.66,0.94*00
$BDGSA,A,3,,,,,,,,,,,,,4.75,4.66,0.94*1C
$GPGSV,3,1,12,16,71,253,,27,51,292,,18,48,058,36,26,48,181,13*7A
$GPGSV,3,2,12,23,47,115,33,10,31,155,21,08,19,287,,40,13,117,*71
$GPGSV,3,3,12,07,09,329,,15,06,065,24,29,02,097,21,13,01,038,*77
$BDGSV,1,1,00*68
$GNRMC,213426.000,A,4900.5240,N,00825.4498,E,1.299,140.08,070122,,,A*48
$GNVTG,140.08,T,,M,1.299,N,2.408,K,A*23
+GPSRD:$GNGGA,213436.000,4900.5240,N,00825.4486,E,1,4,4.68,122.6,M,47.9,M,,*4F
$GPGSA,A,3,18,23,10,15,,,,,,,,,4.77,4.68,0.94*0C
$BDGSA,A,3,,,,,,,,,,,,,4.77,4.68,0.94*10
$GPGSV,3,1,12,16,71,253,,27,51,292,,18,48,058,36,26,48,181,13*7A
$GPGSV,3,2,12,23,47,115,33,10,31,155,21,08,19,287,,44,12,116,*75
$GPGSV,3,3,12,07,09,329,,15,06,065,24,29,02,097,21,13,01,038,*77
$BDGSV,1,1,00*68
$GNRMC,213436.000,A,4900.5240,N,00825.4486,E,0.664,41.99,070122,,,A*79
$GNVTG,41.99,T,,M,0.664,N,1.230,K,A*12
+GPSRD:$GNGGA,213446.000,4900.5235,N,00825.4489,E,1,4,4.69,122.6,M,47.9,M,,*44
$GPGSA,A,3,18,23,10,15,,,,,,,,,4.79,4.69,0.94*03
$BDGSA,A,3,,,,,,,,,,,,,4.79,4.69,0.94*1F
$GPGSV,3,1,11,16,71,253,,27,51,292,,18,48,058,35,26,48,181,*78
$GPGSV,3,2,11,23,47,115,33,10,31,155,23,08,19,287,,07,09,329,*77
$GPGSV,3,3,11,15,06,065,24,29,02,097,21,13,01,038,*42
$BDGSV,1,1,00*68
$GNRMC,213446.000,A,4900.5235,N,00825.4489,E,0.750,141.37,070122,,,A*40
$GNVTG,141.37,T,,M,0.750,N,1.390,K,A*2A
+GPSRD:$GNGGA,213456.000,4900.5236,N,00825.4522,E,1,4,4.71,122.6,M,47.9,M,,*4F
$GPGSA,A,3,18,23,10,15,,,,,,,,,4.81,4.71,0.94*0D
$BDGSA,A,3,,,,,,,,,,,,,4.81,4.71,0.94*11
$GPGSV,3,1,11,16,71,253,,27,51,292,,18,48,058,36,26,48,181,*7B
$GPGSV,3,2,11,23,47,115,34,10,31,155,24,08,19,287,,07,09,329,*77
$GPGSV,3,3,11,15,06,065,24,29,02,097,19,13,01,038,*49
$BDGSV,1,1,00*68
$GNRMC,213456.000,A,4900.5236,N,00825.4522,E,0.146,190.82,070122,,,A*41
$GNVTG,190.82,T,,M,0.146,N,0.270,K,A*27
+GPSRD:$GNGGA,213506.000,4900.5225,N,00825.4528,E,1,4,4.73,123.6,M,47.9,M,,*40
$GPGSA,A,3,18,23,10,15,,,,,,,,,4.83,4.73,0.94*0D
$BDGSA,A,3,,,,,,,,,,,,,4.83,4.73,0.94*11
$GPGSV,3,1,11,16,71,253,,27,51,292,,18,48,058,36,26,48,181,*7B
$GPGSV,3,2,11,23,47,115,33,10,31,155,23,08,19,287,,07,09,329,*77
$GPGSV,3,3,11,15,06,065,24,29,02,097,19,13,01,038,*49
$BDGSV,1,1,00*68
$GNRMC,213506.000,A,4900.5225,N,00825.4528,E,0.370,276.67,070122,,,A*4A
$GNVTG,276.67,T,,M,0.370,N,0.685,K,A*2E
