created_at,entry_id,field1,field2,field3,field4,field5,field6,field7,field8,latitude,longitude,elevation,status
2022-05-19T20:31:13+02:00,179,29.78,41.92,1006.47,5.1,9.6,0,0,"$GNGGA,183108.309,4901.0661,N,00825.3105,E,0,0,,117.7,M,47.9,M,,*5B",,,,
2022-05-19T20:31:33+02:00,180,29.67,41.46,1006.47,5.4,10.8,0,0,"$GNGGA,183128.300,4900.8509,N,00825.7930,E,0,1,,117.7,M,47.9,M,,*5F",,,,
2022-05-19T20:31:53+02:00,181,29.68,40.77,1006.49,5,8.1,0,0,"$GNGGA,183148.078,4901.0661,N,00825.3105,E,0,1,,117.7,M,47.9,M,,*5B",,,,
2022-05-19T20:32:14+02:00,182,29.77,40.01,1006.49,5,7.6,0,0,"$GNGGA,183209.090,4900.4781,N,00825.3497,E,0,2,,117.6,M,47.9,M,,*5D",,,,
2022-05-19T20:32:34+02:00,183,29.91,39.39,1006.5,5.3,9.3,0,0,"$GNGGA,183229.305,4900.4695,N,00825.3478,E,0,2,,117.6,M,47.9,M,,*55",,,,
2022-05-19T20:32:53+02:00,184,30.09,39.08,1006.5,5,8.8,0,0,"$GNGGA,183248.303,4900.4628,N,00825.3458,E,0,2,,117.6,M,47.9,M,,*50",,,,
2022-05-19T20:33:13+02:00,185,30.29,38.62,1006.51,5.5,9.3,0,0,"$GNGGA,183308.303,4900.4600,N,00825.3436,E,0,2,,117.6,M,47.9,M,,*57",,,,
2022-05-19T20:33:33+02:00,186,30.51,38.4,1006.52,5.1,6.9,0,0,"$GNGGA,183328.303,4900.4494,N,00825.4632,E,0,3,,117.6,M,47.9,M,,*5A",,,,
2022-05-19T20:33:54+02:00,187,30.73,38.15,1006.52,5.1,6.2,0,0,"$GNGGA,183349.000,4900.4571,N,00825.4557,E,1,4,2.27,77.3,M,47.9,M,,*7A",,,,
2022-05-19T20:34:15+02:00,188,30.97,37.73,1006.54,5,7.7,0,0,"$GNGGA,183410.000,4900.4471,N,00825.4619,E,1,5,1.52,102.4,M,47.9,M,,*4D",,,,
2022-05-19T20:34:35+02:00,189,31.19,37.21,1006.55,5,6.4,0,0,"$GNGGA,183430.000,4900.4414,N,00825.4667,E,1,6,1.38,103.9,M,47.9,M,,*46",,,,
2022-05-19T20:34:55+02:00,190,31.41,36.6,1006.56,4.8,9.3,0,0,"$GNGGA,183450.000,4900.4266,N,00825.4572,E,1,6,1.38,109.2,M,47.9,M,,*45",,,,
2022-05-19T20:35:16+02:00,191,31.62,36.1,1006.57,4.7,7.5,0,0,"$GNGGA,183511.000,4900.4127,N,00825.4538,E,1,6,1.38,113.7,M,47.9,M,,*47",,,,
2022-05-19T20:35:36+02:00,192,31.83,35.68,1006.58,4.7,7.6,0,0,"$GNGGA,183531.000,4900.4023,N,00825.4559,E,1,6,1.38,109.7,M,47.9,M,,*4C",,,,
2022-05-19T20:35:57+02:00,193,32.04,35.41,1006.59,4.8,7.7,0,0,"$GNGGA,183552.000,4900.3885,N,00825.4525,E,1,5,1.52,116.2,M,47.9,M,,*45",,,,
2022-05-19T20:36:18+02:00,194,32.23,34.99,1006.61,5,8.4,0,0,"$GNGGA,183613.000,4900.3759,N,00825.4543,E,1,5,1.53,124.0,M,47.9,M,,*4F",,,,
2022-05-19T20:36:38+02:00,195,32.4,34.64,1006.62,4.8,10.5,0,0,"$GNGGA,183633.000,4900.3645,N,00825.4511,E,1,5,1.53,129.6,M,47.9,M,,*4D",,,,
2022-05-19T20:36:59+02:00,196,32.57,34.41,1006.64,4.6,7.2,0,0,"$GNGGA,183654.000,4900.3542,N,00825.4558,E,1,5,1.53,132.7,M,47.9,M,,*4E",,,,
2022-05-19T20:37:19+02:00,197,32.74,34.42,1006.66,4.3,6.8,0,0,"$GNGGA,183714.000,4900.3443,N,00825.4573,E,2,5,1.53,132.0,M,47.9,M,,*46",,,,
2022-05-19T20:37:39+02:00,198,32.9,34.1,1006.68,4.5,7.6,0,0,"$GNGGA,183734.000,4900.3387,N,00825.4624,E,2,5,1.53,112.6,M,47.9,M,,*4E",,,,
2022-05-19T20:38:00+02:00,199,33.06,34.09,1006.68,4.6,6.6,0,0,"$GNGGA,183755.000,4900.3308,N,00825.4654,E,2,7,1.16,105.8,M,47.9,M,,*42",,,,
2022-05-19T20:38:20+02:00,200,33.21,33.59,1006.7,4.7,9.9,0,0,"$GNGGA,183815.000,4900.3204,N,00825.4646,E,2,7,1.16,104.5,M,47.9,M,,*4B",,,,
2022-05-19T20:38:40+02:00,201,33.35,33.24,1006.7,4.8,10.1,0,0,"$GNGGA,183835.000,4900.3107,N,00825.4628,E,2,7,1.16,104.5,M,47.9,M,,*41",,,,
2022-05-19T20:39:01+02:00,202,33.49,33.18,1006.69,4.8,8.4,0,0,"$GNGGA,183856.000,4900.2998,N,00825.4645,E,2,7,1.16,105.0,M,47.9,M,,*44",,,,
2022-05-19T20:39:21+02:00,203,33.63,32.95,1006.68,5,9.9,0,0,"$GNGGA,183916.000,4900.2909,N,00825.4638,E,2,7,1.16,104.8,M,47.9,M,,*4A",,,,
2022-05-19T20:39:41+02:00,204,33.76,32.72,1006.67,4.6,7.9,0,0,"$GNGGA,183936.000,4900.2817,N,00825.4653,E,2,7,1.16,104.3,M,47.9,M,,*40",,,,
2022-05-19T20:40:07+02:00,205,33.88,32.7,1006.64,4.5,7.4,0,0,"$GNGGA,183957.000,4900.2759,N,00825.4696,E,2,7,1.16,105.0,M,47.9,M,,*49",,,,
2022-05-19T20:40:27+02:00,206,34,32.63,1006.63,4.4,9,0,0,"$GNGGA,184022.000,4900.2765,N,00825.4877,E,2,8,1.02,108.2,M,47.9,M,,*4E",,,,
2022-05-19T20:40:48+02:00,207,34.12,32.5,1006.61,4.5,8.5,0,0,"$GNGGA,184043.000,4900.2687,N,00825.4987,E,2,8,1.02,104.6,M,47.9,M,,*42",,,,
2022-05-19T20:41:10+02:00,208,34.22,32.18,1006.6,4.6,7.4,0,0,"$GNGGA,184105.000,4900.2652,N,00825.5101,E,2,8,1.02,104.8,M,47.9,M,,*40",,,,
2022-05-19T20:41:34+02:00,209,34.33,32.57,1006.61,4.1,7.3,0,0,"$GNGGA,184129.000,4900.2663,N,00825.5109,E,2,9,1.07,104.8,M,47.9,M,,*40",,,,
2022-05-19T20:41:56+02:00,210,34.45,32.53,1006.61,3.6,6.4,0,0,"$GNGGA,184150.000,4900.2671,N,00825.5156,E,2,9,0.95,105.1,M,47.9,M,,*45",,,,
2022-05-19T20:42:17+02:00,211,34.55,32.27,1006.62,4.6,9.9,0,0,"$GNGGA,184212.000,4900.2673,N,00825.5310,E,2,9,0.95,104.8,M,47.9,M,,*4A",,,,
2022-05-19T20:42:37+02:00,212,34.64,31.41,1006.62,4.4,9.7,0,0,"$GNGGA,184232.000,4900.2616,N,00825.5417,E,2,9,0.95,103.6,M,47.9,M,,*42",,,,
2022-05-19T20:42:58+02:00,213,34.73,31.45,1006.62,4.1,8.3,0,0,"$GNGGA,184253.000,4900.2617,N,00825.5548,E,2,8,1.02,103.2,M,47.9,M,,*45",,,,
2022-05-19T20:43:20+02:00,214,34.83,31.55,1006.63,3.8,7.7,0,0,"$GNGGA,184314.000,4900.2606,N,00825.5700,E,2,8,1.02,103.3,M,47.9,M,,*48",,,,
2022-05-19T20:43:40+02:00,215,34.92,31.54,1006.63,4,14.6,0,0,"$GNGGA,184335.000,4900.2613,N,00825.5843,E,2,8,1.14,102.8,M,47.9,M,,*4A",,,,
2022-05-19T20:44:01+02:00,216,35,31.53,1006.64,4.4,14.7,0,0,"$GNGGA,184356.000,4900.2636,N,00825.6034,E,2,7,1.12,103.8,M,47.9,M,,*4B",,,,
2022-05-19T20:44:22+02:00,217,35.07,31.49,1006.65,4.4,15.6,0,0,"$GNGGA,184417.000,4900.2512,N,00825.6072,E,2,8,1.02,106.1,M,47.9,M,,*4C",,,,
2022-05-19T20:44:43+02:00,218,35.12,31.38,1006.65,5,27.5,0,0,"$GNGGA,184438.000,4900.2493,N,00825.6224,E,2,8,1.02,105.3,M,47.9,M,,*49",,,,
2022-05-19T20:45:06+02:00,219,35.14,31.22,1006.66,5,29.2,0,0,"$GNGGA,184500.000,4900.2522,N,00825.6375,E,2,8,1.02,107.8,M,47.9,M,,*44",,,,
2022-05-19T20:45:27+02:00,220,35.15,31.2,1006.67,4,12.3,0,0,"$GNGGA,184522.000,4900.2570,N,00825.6437,E,2,8,1.02,108.7,M,47.9,M,,*42",,,,
2022-05-19T20:45:49+02:00,221,35.14,31.57,1006.66,4.4,11.2,0,0,"$GNGGA,184543.000,4900.2687,N,00825.6410,E,2,8,1.02,107.9,M,47.9,M,,*4A",,,,
2022-05-19T20:46:10+02:00,222,35.14,31.76,1006.67,4.5,16.1,0,0,"$GNGGA,184605.000,4900.2792,N,00825.6446,E,2,8,1.02,114.3,M,47.9,M,,*45",,,,
2022-05-19T20:46:31+02:00,223,35.13,31.56,1006.68,4.9,22.3,0,0,"$GNGGA,184626.000,4900.2898,N,00825.6452,E,2,8,1.02,113.3,M,47.9,M,,*43",,,,
2022-05-19T20:46:53+02:00,224,35.12,30.98,1006.7,4.3,11.9,0,0,"$GNGGA,184647.000,4900.3000,N,00825.6422,E,2,8,1.02,110.8,M,47.9,M,,*43",,,,
2022-05-19T20:47:15+02:00,225,35.1,30.8,1006.71,4.4,10.8,0,0,"$GNGGA,184710.000,4900.2995,N,00825.6244,E,2,8,1.13,108.1,M,47.9,M,,*42",,,,
2022-05-19T20:47:36+02:00,226,35.08,30.84,1006.72,4.3,7.5,0,0,"$GNGGA,184731.000,4900.3072,N,00825.6145,E,2,9,0.90,107.5,M,47.9,M,,*42",,,,
2022-05-19T20:47:58+02:00,227,35.08,30.99,1006.74,5,26,0,0,"$GNGGA,184753.000,4900.3182,N,00825.6144,E,2,9,0.91,109.1,M,47.9,M,,*42",,,,
2022-05-19T20:48:21+02:00,228,35.08,31.12,1006.76,6,38.7,0,0,"$GNGGA,184815.000,4900.3214,N,00825.6294,E,2,9,0.90,107.8,M,47.9,M,,*4B",,,,
2022-05-19T20:48:42+02:00,229,35.09,31.13,1006.77,5.6,32.6,0,0,"$GNGGA,184836.000,4900.3214,N,00825.6476,E,2,8,1.13,108.7,M,47.9,M,,*4B",,,,
2022-05-19T20:49:04+02:00,230,35.1,31.16,1006.78,8.3,84.1,0,0,"$GNGGA,184858.000,4900.3316,N,00825.6513,E,2,9,0.90,107.0,M,47.9,M,,*41",,,,
2022-05-19T20:49:25+02:00,231,35.11,31.54,1006.79,15.5,222.9,0,0,"$GNGGA,184920.000,4900.3420,N,00825.6553,E,2,8,1.13,108.2,M,47.9,M,,*4F",,,,
2022-05-19T20:49:47+02:00,232,35.11,31.1,1006.8,12.5,141.3,0,0,"$GNGGA,184941.000,4900.3529,N,00825.6597,E,2,9,0.91,107.2,M,47.9,M,,*4D",,,,
2022-05-19T20:50:09+02:00,233,35.11,30.65,1006.81,6.6,38.5,0,0,"$GNGGA,185003.000,4900.3628,N,00825.6650,E,2,9,0.90,105.8,M,47.9,M,,*40",,,,
2022-05-19T20:50:30+02:00,234,35.11,30.79,1006.81,7.4,62.4,0,0,"$GNGGA,185024.000,4900.3752,N,00825.6698,E,2,9,0.90,106.3,M,47.9,M,,*45",,,,
2022-05-19T20:50:51+02:00,235,35.11,30.79,1006.82,6.7,58.2,0,0,"$GNGGA,185046.000,4900.3878,N,00825.6759,E,2,9,0.90,108.0,M,47.9,M,,*47",,,,
2022-05-19T20:51:14+02:00,236,35.11,31.22,1006.83,14,118.5,0,0,"$GNGGA,185109.000,4900.3993,N,00825.6775,E,2,9,0.90,106.4,M,47.9,M,,*4D",,,,
2022-05-19T20:51:35+02:00,237,35.12,31.09,1006.84,11.3,76,0,0,"$GNGGA,185130.000,4900.4045,N,00825.6616,E,2,9,0.90,106.9,M,47.9,M,,*4B",,,,
2022-05-19T20:51:56+02:00,238,35.15,31.11,1006.85,7,49.4,0,0,"$GNGGA,185151.000,4900.4074,N,00825.6438,E,2,9,0.90,108.9,M,47.9,M,,*4E",,,,
2022-05-19T20:52:18+02:00,239,35.18,30.99,1006.86,6.3,53.1,0,0,"$GNGGA,185213.000,4900.4105,N,00825.6269,E,2,9,0.90,109.4,M,47.9,M,,*42",,,,
2022-05-19T20:52:39+02:00,240,35.2,30.72,1006.88,6,35.4,0,0,"$GNGGA,185234.000,4900.4158,N,00825.6152,E,2,9,0.90,108.8,M,47.9,M,,*49",,,,
2022-05-19T20:53:00+02:00,241,35.22,30.68,1006.91,6.3,33.1,0,0,"$GNGGA,185255.000,4900.4221,N,00825.6014,E,2,9,0.90,108.2,M,47.9,M,,*4A",,,,
2022-05-19T20:53:20+02:00,242,35.24,30.35,1006.92,5.5,23.8,0,0,"$GNGGA,185315.000,4900.4269,N,00825.5854,E,2,9,0.90,109.5,M,47.9,M,,*4A",,,,
2022-05-19T20:53:40+02:00,243,35.28,30.36,1006.94,4.8,14.9,0,0,"$GNGGA,185335.000,4900.4295,N,00825.5702,E,2,9,0.90,107.2,M,47.9,M,,*4E",,,,
2022-05-19T20:54:02+02:00,244,35.32,30.35,1006.95,4.8,12.1,0,0,"$GNGGA,185356.000,4900.4324,N,00825.5536,E,2,9,0.90,108.8,M,47.9,M,,*40",,,,
2022-05-19T20:54:22+02:00,245,35.37,30.27,1006.95,5.2,9.8,0,0,"$GNGGA,185417.000,4900.4359,N,00825.5353,E,2,9,0.90,109.3,M,47.9,M,,*47",,,,
2022-05-19T20:54:43+02:00,246,35.44,30.39,1006.97,5.6,9.5,0,0,"$GNGGA,185438.000,4900.4391,N,00825.5207,E,1,9,0.90,111.0,M,47.9,M,,*47",,,,
2022-05-19T20:55:04+02:00,247,35.51,30.33,1006.98,4.9,12,0,0,"$GNGGA,185459.000,4900.4438,N,00825.5068,E,1,9,0.90,113.4,M,47.9,M,,*49",,,,
2022-05-19T20:55:24+02:00,248,35.58,30.17,1006.99,5.1,10.7,0,0,"$GNGGA,185519.000,4900.4456,N,00825.4906,E,1,9,0.90,113.9,M,47.9,M,,*49",,,,
2022-05-19T20:55:44+02:00,249,35.65,29.84,1007.01,10,12,0,0,"$GNGGA,185539.000,4900.4461,N,00825.4735,E,1,8,1.01,107.8,M,47.9,M,,*4D",,,,
2022-05-19T20:56:05+02:00,250,35.73,29.67,1007.03,5.9,9.2,0,0,"$GNGGA,185600.000,4900.4571,N,00825.4575,E,1,10,0.82,118.4,M,47.9,M,,*73",,,,
2022-05-19T20:56:30+02:00,251,35.81,29.77,1007.04,4.1,6.4,0,0,"$GNGGA,185622.000,4900.4570,N,00825.4507,E,1,10,0.82,119.8,M,47.9,M,,*7A",,,,
2022-05-19T20:56:50+02:00,252,35.88,30.18,1007.06,3.3,4.7,0,0,"$GNGGA,185645.000,4900.4585,N,00825.4491,E,1,10,0.82,121.3,M,47.9,M,,*7F",,,,
2022-05-19T20:57:11+02:00,253,35.94,29.49,1007.06,3.4,4.5,0,0,"$GNGGA,185706.000,4900.4613,N,00825.4523,E,1,10,0.82,119.3,M,47.9,M,,*76",,,,
2022-05-19T20:57:32+02:00,254,35.99,29.32,1007.07,4,6.1,0,0,"$GNGGA,185727.000,4900.4659,N,00825.4507,E,1,10,0.82,121.4,M,47.9,M,,*71",,,,
2022-05-19T20:57:52+02:00,255,36.04,29.08,1007.06,4.1,8.4,0,0,"$GNGGA,185747.000,4900.4671,N,00825.4280,E,1,10,0.82,124.1,M,47.9,M,,*75",,,,
2022-05-19T20:58:13+02:00,256,36.09,29.55,1007.06,3.9,7.4,0,0,"$GNGGA,185808.000,4900.4763,N,00825.4243,E,1,10,0.82,130.3,M,47.9,M,,*7B",,,,
2022-05-19T20:58:33+02:00,257,36.13,29.68,1007.07,4,6.6,0,0,"$GNGGA,185828.000,4900.4887,N,00825.4238,E,1,9,0.84,129.9,M,47.9,M,,*4C",,,,
2022-05-19T20:58:53+02:00,258,36.15,29.84,1007.06,4.1,6.2,0,0,"$GNGGA,185848.000,4900.4946,N,00825.4202,E,1,10,0.82,135.3,M,47.9,M,,*76",,,,
2022-05-19T20:59:14+02:00,259,36.18,29.59,1007.06,4,5.6,0,0,"$GNGGA,185909.000,4900.4954,N,00825.4149,E,1,9,0.93,137.8,M,47.9,M,,*4C",,,,
2022-05-19T20:59:34+02:00,260,36.21,29.28,1007.05,4.5,9.5,0,0,"$GNGGA,185929.000,4900.4961,N,00825.4186,E,1,9,0.93,125.9,M,47.9,M,,*49",,,,
2022-05-19T20:59:54+02:00,261,36.26,29.43,1007.04,3.6,6.6,0,0,"$GNGGA,185949.000,4900.5004,N,00825.4262,E,1,9,0.93,126.3,M,47.9,M,,*44",,,,
2022-05-19T21:00:15+02:00,262,36.32,29.62,1007.05,3.4,5.3,0,0,"$GNGGA,190010.000,4900.5014,N,00825.4286,E,1,9,0.93,127.1,M,47.9,M,,*4D",,,,
2022-05-19T21:00:35+02:00,263,36.37,29.76,1007.06,2.7,3.1,0,0,"$GNGGA,190030.000,4900.5008,N,00825.4284,E,1,9,0.93,127.0,M,47.9,M,,*41",,,,
2022-05-19T21:00:55+02:00,264,36.43,29.77,1007.06,2.6,2.9,0,0,"$GNGGA,190050.000,4900.4995,N,00825.4250,E,1,8,1.14,126.3,M,47.9,M,,*4F",,,,
2022-05-19T21:01:16+02:00,265,36.48,29.8,1007.06,2.6,3,0,0,"$GNGGA,190111.000,4900.4990,N,00825.4246,E,2,9,0.93,125.0,M,47.9,M,,*45",,,,
2022-05-19T21:01:36+02:00,266,36.54,29.84,1007.07,2.5,3.9,0,0,"$GNGGA,190131.000,4900.4989,N,00825.4246,E,2,7,1.18,123.0,M,47.9,M,,*45",,,,
2022-05-19T21:01:57+02:00,267,36.59,29.87,1007.08,2.4,3.2,0,0,"$GNGGA,190152.000,4900.4983,N,00825.4217,E,2,7,1.07,121.7,M,47.9,M,,*45",,,,
2022-05-19T21:02:19+02:00,268,36.64,29.92,1007.08,2.5,4.1,0,0,"$GNGGA,190214.000,4900.4985,N,00825.4193,E,2,9,0.93,118.4,M,47.9,M,,*46",,,,
2022-05-19T21:02:39+02:00,269,36.7,29.75,1007.07,2.6,3.5,0,0,"$GNGGA,190234.000,4900.4993,N,00825.4257,E,2,8,0.99,119.6,M,47.9,M,,*40",,,,
2022-05-19T21:03:00+02:00,270,36.75,29.61,1007.07,2.8,3.3,0,0,"$GNGGA,190255.000,4900.5011,N,00825.4255,E,2,8,0.99,120.1,M,47.9,M,,*4A",,,,
2022-05-19T21:03:20+02:00,271,36.81,29.59,1007.08,2.7,3.7,0,0,"$GNGGA,190315.000,4900.5000,N,00825.4243,E,2,9,0.93,120.7,M,47.9,M,,*45",,,,
2022-05-19T21:03:40+02:00,272,36.86,29.56,1007.07,2.5,2.8,0,0,"$GNGGA,190335.000,4900.4997,N,00825.4281,E,2,9,0.90,126.1,M,47.9,M,,*4C",,,,
2022-05-19T21:04:01+02:00,273,36.91,29.64,1007.07,2.6,3.7,0,0,"$GNGGA,190356.000,4900.4977,N,00825.4220,E,2,10,0.82,128.3,M,47.9,M,,*7B",,,,
2022-05-19T21:04:21+02:00,274,36.96,29.7,1007.08,2.8,3.1,0,0,"$GNGGA,190416.000,4900.4968,N,00825.4208,E,2,8,1.02,126.0,M,47.9,M,,*41",,,,
2022-05-19T21:04:41+02:00,275,37.02,29.68,1007.08,2.6,3.8,0,0,"$GNGGA,190436.000,4900.4963,N,00825.4201,E,2,8,1.02,125.1,M,47.9,M,,*43",,,,
2022-05-19T21:05:02+02:00,276,37.07,29.71,1007.09,2.7,4.7,0,0,"$GNGGA,190457.000,4900.5003,N,00825.4233,E,2,9,0.91,127.3,M,47.9,M,,*41",,,,
2022-05-19T21:05:22+02:00,277,37.13,29.72,1007.08,2.6,3,0,0,"$GNGGA,190517.000,4900.5001,N,00825.4258,E,2,9,0.92,126.3,M,47.9,M,,*49",,,,
2022-05-19T21:05:43+02:00,278,37.18,29.68,1007.1,2.4,2.8,0,0,"$GNGGA,190538.000,4900.4964,N,00825.4236,E,2,9,0.92,132.7,M,47.9,M,,*46",,,,
2022-05-19T21:06:03+02:00,279,37.23,29.63,1007.1,2.5,2.8,0,0,"$GNGGA,190558.000,4900.4943,N,00825.4241,E,2,8,1.07,138.5,M,47.9,M,,*41",,,,
2022-05-19T21:06:24+02:00,280,37.29,29.49,1007.11,2.4,3.2,0,0,"$GNGGA,190619.000,4900.4958,N,00825.4244,E,2,9,0.92,140.1,M,47.9,M,,*4F",,,,
2022-05-19T21:06:45+02:00,281,37.34,29.13,1007.12,2.9,3.2,0,0,"$GNGGA,190640.000,4900.4957,N,00825.4210,E,2,10,0.82,144.6,M,47.9,M,,*77",,,,
2022-05-19T21:07:05+02:00,282,37.4,28.74,1007.13,3.3,3.7,0,0,"$GNGGA,190700.000,4900.4973,N,00825.4206,E,2,10,0.82,142.9,M,47.9,M,,*7A",,,,
2022-05-19T21:07:25+02:00,283,37.46,28.68,1007.12,3.1,3.4,0,0,"$GNGGA,190720.000,4900.5000,N,00825.4238,E,2,9,0.92,135.3,M,47.9,M,,*4A",,,,
2022-05-19T21:07:46+02:00,284,37.51,28.5,1007.13,3.3,4,0,0,"$GNGGA,190741.000,4900.4989,N,00825.4236,E,2,9,0.92,133.8,M,47.9,M,,*47",,,,
2022-05-19T21:08:06+02:00,285,37.57,28.16,1007.13,3.6,4,0,0,"$GNGGA,190801.000,4900.4994,N,00825.4258,E,2,8,1.27,132.3,M,47.9,M,,*4C",,,,
2022-05-19T21:08:26+02:00,286,37.62,28,1007.13,3.6,4.1,0,0,"$GNGGA,190821.000,4900.4990,N,00825.4183,E,2,10,0.82,137.2,M,47.9,M,,*7C",,,,
2022-05-19T21:08:47+02:00,287,37.68,28.16,1007.14,3.4,4.6,0,0,"$GNGGA,190842.000,4900.4984,N,00825.4147,E,2,10,0.82,140.2,M,47.9,M,,*74",,,,
2022-05-19T21:09:07+02:00,288,37.73,28.25,1007.14,3,4.1,0,0,"$GNGGA,190902.000,4900.4929,N,00825.4157,E,2,10,0.82,141.7,M,47.9,M,,*73",,,,
2022-05-19T21:09:27+02:00,289,37.78,28.13,1007.15,3,3.5,0,0,"$GNGGA,190922.000,4900.4927,N,00825.4169,E,2,9,0.92,144.5,M,47.9,M,,*4C",,,,
2022-05-19T21:09:48+02:00,290,37.82,28.25,1007.16,2.6,2.9,0,0,"$GNGGA,190943.000,4900.4948,N,00825.4162,E,2,9,0.92,145.4,M,47.9,M,,*49",,,,
2022-05-19T21:10:08+02:00,291,37.87,28.15,1007.16,2.6,3.5,0,0,"$GNGGA,191003.000,4900.4973,N,00825.4184,E,2,8,1.26,146.0,M,47.9,M,,*4D",,,,
2022-05-19T21:10:29+02:00,292,37.92,28.03,1007.16,2.7,3.3,0,0,"$GNGGA,191024.000,4900.4965,N,00825.4191,E,2,8,1.05,141.2,M,47.9,M,,*4F",,,,
2022-05-19T21:10:49+02:00,293,37.97,28.03,1007.17,2.8,3.1,0,0,"$GNGGA,191044.000,4900.4958,N,00825.4220,E,2,9,0.91,141.1,M,47.9,M,,*40",,,,
2022-05-19T21:11:09+02:00,294,38,28.08,1007.18,2.6,3.3,0,0,"$GNGGA,191104.000,4900.4959,N,00825.4217,E,2,9,0.92,141.2,M,47.9,M,,*40",,,,
2022-05-19T21:11:30+02:00,295,38.04,28.07,1007.19,2.5,2.8,0,0,"$GNGGA,191125.000,4900.4960,N,00825.4177,E,2,10,0.82,140.4,M,47.9,M,,*72",,,,
2022-05-19T21:11:50+02:00,296,38.08,28.07,1007.2,2.3,2.5,0,0,"$GNGGA,191145.000,4900.4972,N,00825.4183,E,2,9,0.90,139.4,M,47.9,M,,*49",,,,
2022-05-19T21:12:10+02:00,297,38.12,28.07,1007.22,2.2,2.8,0,0,"$GNGGA,191205.000,4900.4975,N,00825.4202,E,2,10,0.82,139.9,M,47.9,M,,*75",,,,
2022-05-19T21:12:31+02:00,298,38.16,28.12,1007.22,2.3,2.8,0,0,"$GNGGA,191226.000,4900.4971,N,00825.4192,E,2,10,0.85,140.1,M,47.9,M,,*7B",,,,
2022-05-19T21:12:51+02:00,299,38.2,28.18,1007.22,2.1,2.7,0,0,"$GNGGA,191246.000,4900.4957,N,00825.4170,E,2,10,0.82,140.9,M,47.9,M,,*7A",,,,
2022-05-19T21:13:11+02:00,300,38.24,28.16,1007.23,2.1,2.8,0,0,"$GNGGA,191306.000,4900.4956,N,00825.4154,E,2,9,0.92,144.6,M,47.9,M,,*4A",,,,
2022-05-19T21:13:32+02:00,301,38.27,28.19,1007.24,2.2,2.9,0,0,"$GNGGA,191327.000,4900.4951,N,00825.4151,E,2,8,0.96,145.9,M,47.9,M,,*40",,,,
2022-05-19T21:13:52+02:00,302,38.31,28.16,1007.25,2.4,2.8,0,0,"$GNGGA,191347.000,4900.4972,N,00825.4183,E,2,8,1.04,145.0,M,47.9,M,,*4B",,,,
2022-05-19T21:14:13+02:00,303,38.34,28.1,1007.26,2.5,3.1,0,0,"$GNGGA,191408.000,4900.4993,N,00825.4213,E,2,9,0.92,142.3,M,47.9,M,,*49",,,,
2022-05-19T21:14:33+02:00,304,38.38,28,1007.26,2.3,3.2,0,0,"$GNGGA,191428.000,4900.4988,N,00825.4225,E,2,9,0.92,141.7,M,47.9,M,,*43",,,,
2022-05-19T21:14:54+02:00,305,38.42,28.01,1007.26,2.3,2.7,0,0,"$GNGGA,191449.000,4900.4982,N,00825.4216,E,2,9,0.92,140.4,M,47.9,M,,*4C",,,,
2022-05-19T21:15:15+02:00,306,38.45,27.72,1007.28,2.5,4,0,0,"$GNGGA,191510.000,4900.4980,N,00825.4216,E,2,9,0.92,141.2,M,47.9,M,,*44",,,,
2022-05-19T21:15:35+02:00,307,38.48,27.4,1007.3,3.4,7.1,0,0,"$GNGGA,191530.000,4900.4972,N,00825.4219,E,2,9,0.92,141.7,M,47.9,M,,*41",,,,
2022-05-19T21:15:55+02:00,308,38.5,27.59,1007.31,3.4,5,0,0,"$GNGGA,191550.000,4900.4968,N,00825.4223,E,2,8,1.26,141.9,M,47.9,M,,*44",,,,
2022-05-19T21:16:16+02:00,309,38.53,27.29,1007.32,3.3,4.4,0,0,"$GNGGA,191611.000,4900.4968,N,00825.4215,E,2,9,0.92,142.1,M,47.9,M,,*43",,,,
2022-05-19T21:16:36+02:00,310,38.57,27.44,1007.32,3.3,4.7,0,0,"$GNGGA,191631.000,4900.4984,N,00825.4192,E,2,9,0.92,139.4,M,47.9,M,,*46",,,,
2022-05-19T21:16:56+02:00,311,38.6,27.35,1007.33,3.5,4.1,0,0,"$GNGGA,191651.000,4900.4965,N,00825.4174,E,2,9,0.92,137.6,M,47.9,M,,*4B",,,,
2022-05-19T21:17:17+02:00,312,38.63,27.41,1007.33,3.5,4.3,0,0,"$GNGGA,191712.000,4900.4962,N,00825.4188,E,2,9,0.92,137.4,M,47.9,M,,*4B",,,,
2022-05-19T21:17:37+02:00,313,38.66,27.42,1007.34,3.2,4.3,0,0,"$GNGGA,191732.000,4900.4965,N,00825.4171,E,2,9,0.92,137.3,M,47.9,M,,*4F",,,,
2022-05-19T21:17:58+02:00,314,38.69,27.32,1007.34,3.1,4,0,0,"$GNGGA,191753.000,4900.4975,N,00825.4175,E,2,9,0.92,137.7,M,47.9,M,,*49",,,,
2022-05-19T21:18:19+02:00,315,38.71,27.28,1007.35,3.4,5.3,0,0,"$GNGGA,191814.000,4900.4998,N,00825.4208,E,2,9,0.92,135.9,M,47.9,M,,*43",,,,
2022-05-19T21:18:39+02:00,316,38.73,27.36,1007.35,3.4,4.7,0,0,"$GNGGA,191834.000,4900.5002,N,00825.4244,E,2,9,0.92,134.6,M,47.9,M,,*4C",,,,
2022-05-19T21:18:59+02:00,317,38.76,27.3,1007.35,3.2,3.5,0,0,"$GNGGA,191854.000,4900.5006,N,00825.4254,E,2,9,0.92,134.5,M,47.9,M,,*4C",,,,
2022-05-19T21:19:20+02:00,318,38.78,27.32,1007.35,3.2,3.9,0,0,"$GNGGA,191915.000,4900.4997,N,00825.4262,E,2,9,0.92,135.7,M,47.9,M,,*4E",,,,
2022-05-19T21:19:40+02:00,319,38.8,27.24,1007.37,3.2,5,0,0,"$GNGGA,191935.000,4900.4991,N,00825.4253,E,2,9,0.92,136.9,M,47.9,M,,*45",,,,
2022-05-19T21:20:00+02:00,320,38.82,27.27,1007.37,3.1,4.8,0,0,"$GNGGA,191955.000,4900.4991,N,00825.4252,E,2,9,0.92,138.7,M,47.9,M,,*42",,,,
2022-05-19T21:20:21+02:00,321,38.84,27.31,1007.38,2.8,3.5,0,0,"$GNGGA,192016.000,4900.5001,N,00825.4257,E,2,9,0.92,139.5,M,47.9,M,,*48",,,,
2022-05-19T21:20:41+02:00,322,38.86,27.01,1007.39,3,4.9,0,0,"$GNGGA,192036.000,4900.5016,N,00825.4223,E,2,8,1.27,137.6,M,47.9,M,,*4C",,,,
2022-05-19T21:21:01+02:00,323,38.88,26.97,1007.39,2.8,3.7,0,0,"$GNGGA,192056.000,4900.5007,N,00825.4179,E,2,9,0.92,132.5,M,47.9,M,,*4E",,,,
2022-05-19T21:21:22+02:00,324,38.89,26.66,1007.4,3.1,4.7,0,0,"$GNGGA,192117.000,4900.4997,N,00825.4197,E,2,9,0.92,129.3,M,47.9,M,,*47",,,,
2022-05-19T21:21:42+02:00,325,38.91,26.74,1007.41,3.2,6.1,0,0,"$GNGGA,192137.000,4900.5018,N,00825.4257,E,2,8,1.05,127.6,M,47.9,M,,*40",,,,
2022-05-19T21:22:02+02:00,326,38.92,26.88,1007.42,2.8,4.6,0,0,"$GNGGA,192157.000,4900.5024,N,00825.4266,E,2,8,1.05,125.9,M,47.9,M,,*46",,,,
2022-05-19T21:22:23+02:00,327,38.93,26.94,1007.43,2.7,4.1,0,0,"$GNGGA,192218.000,4900.5052,N,00825.4300,E,2,8,1.05,124.6,M,47.9,M,,*40",,,,
2022-05-19T21:22:43+02:00,328,38.94,26.96,1007.44,2.3,2.9,0,0,"$GNGGA,192238.000,4900.5039,N,00825.4282,E,2,7,1.47,125.1,M,47.9,M,,*4B",,,,
2022-05-19T21:23:03+02:00,329,38.94,26.96,1007.45,2.3,2.5,0,0,"$GNGGA,192258.000,4900.5038,N,00825.4276,E,2,8,1.05,125.2,M,47.9,M,,*4D",,,,
2022-05-19T21:23:24+02:00,330,38.95,26.89,1007.46,2.5,3,0,0,"$GNGGA,192319.000,4900.5055,N,00825.4282,E,2,8,1.05,125.2,M,47.9,M,,*49",,,,
2022-05-19T21:23:44+02:00,331,38.95,26.83,1007.47,2.6,3.5,0,0,"$GNGGA,192339.000,4900.5022,N,00825.4255,E,2,8,1.01,126.9,M,47.9,M,,*4D",,,,
2022-05-19T21:24:04+02:00,332,38.96,26.49,1007.48,2.8,4.3,0,0,"$GNGGA,192359.000,4900.4996,N,00825.4233,E,2,8,1.05,130.2,M,47.9,M,,*44",,,,
2022-05-19T21:24:25+02:00,333,38.96,26.44,1007.49,3,4.6,0,0,"$GNGGA,192420.000,4900.5016,N,00825.4226,E,2,9,0.92,133.4,M,47.9,M,,*42",,,,
2022-05-19T21:24:45+02:00,334,38.95,26.18,1007.52,3.3,4.3,0,0,"$GNGGA,192440.000,4900.5032,N,00825.4276,E,2,8,1.24,136.6,M,47.9,M,,*4D",,,,
2022-05-19T21:25:05+02:00,335,38.94,26.04,1007.54,3.8,5.3,0,0,"$GNGGA,192500.000,4900.5017,N,00825.4346,E,2,9,0.91,136.7,M,47.9,M,,*42",,,,
2022-05-19T21:25:26+02:00,336,38.91,26.49,1007.55,3.7,6,0,0,"$GNGGA,192521.000,4900.4956,N,00825.4255,E,2,9,0.91,145.7,M,47.9,M,,*4B",,,,
2022-05-19T21:25:46+02:00,337,38.87,26.09,1007.56,3.8,8.3,0,0,"$GNGGA,192541.000,4900.4951,N,00825.4096,E,2,9,0.91,147.6,M,47.9,M,,*44",,,,
2022-05-19T21:26:06+02:00,338,38.85,26.32,1007.56,3.6,5.7,0,0,"$GNGGA,192601.000,4900.4958,N,00825.4165,E,2,9,0.91,153.0,M,47.9,M,,*44",,,,
2022-05-19T21:26:27+02:00,339,38.83,26.6,1007.57,3.2,5.5,0,0,"$GNGGA,192622.000,4900.4946,N,00825.4185,E,2,9,0.91,152.9,M,47.9,M,,*4C",,,,
