created_at,entry_id,field1,field2,field3,field4,field5,field6,field7,field8,latitude,longitude,elevation,status
2022-03-16T14:38:15+01:00,1,23.69,42.17,1008.46,274.30,288.10,0,-127.00,"$GNGGA,133810.090,4901.1089,N,00825.2985,E,0,0,,126.1,M,47.9,M,,*57",,,,
2022-03-16T14:38:35+01:00,2,24.08,40.22,1008.48,247.20,259.60,0,-127.00,"$GNGGA,133830.307,4901.6790,N,00827.5570,E,0,2,,126.2,M,47.9,M,,*52",,,,
2022-03-16T14:38:55+01:00,3,24.75,37.73,1008.45,220.70,231.80,0,-127.00,"$GNGGA,133850.307,4900.5186,N,00825.4394,E,0,3,,126.1,M,47.9,M,,*5A",,,,
2022-03-16T14:39:16+01:00,4,25.57,35.50,1008.49,203.20,213.40,0,-127.00,"$GNGGA,133911.307,4900.5167,N,00825.4416,E,0,3,,126.1,M,47.9,M,,*5C",,,,
2022-03-16T14:39:36+01:00,5,26.44,33.96,1008.51,200.00,210.10,0,-127.00,"$GNGGA,133931.307,4900.5206,N,00825.4482,E,0,3,,126.1,M,47.9,M,,*57",,,,
2022-03-16T14:39:56+01:00,6,27.32,32.69,1008.52,202.80,213.00,0,-127.00,"$GNGGA,133951.307,4900.5184,N,00825.4309,E,0,3,,126.1,M,47.9,M,,*5C",,,,
2022-03-16T14:40:17+01:00,7,28.18,31.57,1008.54,206.50,216.90,0,-127.00,"$GNGGA,134012.307,4900.5178,N,00825.4392,E,0,3,,126.1,M,47.9,M,,*54",,,,
2022-03-16T14:40:37+01:00,8,28.99,30.71,1008.54,207.40,217.80,0,-127.00,"$GNGGA,134032.307,4900.5190,N,00825.4360,E,0,3,,126.1,M,47.9,M,,*5D",,,,
2022-03-16T14:40:57+01:00,9,29.76,29.99,1008.55,205.90,216.20,0,-127.00,"$GNGGA,134052.307,4900.5169,N,00825.4421,E,0,3,,126.1,M,47.9,M,,*5F",,,,
2022-03-16T14:41:18+01:00,10,30.48,29.32,1008.55,205.50,215.80,0,-127.00,"$GNGGA,134113.307,4900.5177,N,00825.4299,E,0,3,,126.1,M,47.9,M,,*51",,,,
2022-03-16T14:41:39+01:00,11,31.14,28.74,1008.55,208.10,218.60,0,-127.00,"$GNGGA,134134.000,4900.5215,N,00825.4567,E,0,4,,136.2,M,47.9,M,,*54",,,,
2022-03-16T14:41:59+01:00,12,31.77,28.23,1008.55,210.80,221.40,0,-127.00,"$GNGGA,134154.000,4900.5200,N,00825.4454,E,1,4,7.48,130.8,M,47.9,M,,*4F",,,,
2022-03-16T14:42:20+01:00,13,32.36,27.72,1008.53,210.90,221.50,0,-127.00,"$GNGGA,134215.000,4900.5190,N,00825.4373,E,1,4,7.48,133.0,M,47.9,M,,*4A",,,,
2022-03-16T14:42:40+01:00,14,32.91,27.32,1008.52,214.00,224.80,0,-127.00,"$GNGGA,134235.000,4900.5201,N,00825.4272,E,1,4,7.48,123.2,M,47.9,M,,*40",,,,
2022-03-16T14:43:00+01:00,15,33.42,26.91,1008.51,211.30,221.90,0,-127.00,"$GNGGA,134255.000,4900.5196,N,00825.4143,E,1,4,7.47,112.2,M,47.9,M,,*47",,,,
2022-03-16T14:43:21+01:00,16,33.90,26.52,1008.51,203.70,213.90,0,-127.00,"$GNGGA,134316.000,4900.5206,N,00825.4132,E,1,4,7.47,113.3,M,47.9,M,,*4D",,,,
2022-03-16T14:43:41+01:00,17,34.35,26.18,1008.49,198.80,208.80,0,-127.00,"$GNGGA,134336.000,4900.5227,N,00825.4280,E,1,4,7.46,111.1,M,47.9,M,,*47",,,,
2022-03-16T14:44:01+01:00,18,34.77,25.86,1008.48,200.30,210.40,0,-127.00,"$GNGGA,134356.000,4900.5253,N,00825.4441,E,1,4,7.45,112.5,M,47.9,M,,*4D",,,,
2022-03-16T14:44:22+01:00,19,35.17,25.56,1008.46,206.60,217.00,0,-127.00,"$GNGGA,134417.000,4900.5238,N,00825.4381,E,1,4,7.45,110.3,M,47.9,M,,*4D",,,,
2022-03-16T14:44:42+01:00,20,35.54,25.29,1008.44,209.90,220.40,0,-127.00,"$GNGGA,134437.000,4900.5230,N,00825.4334,E,1,4,7.44,109.2,M,47.9,M,,*41",,,,
2022-03-16T14:45:03+01:00,21,35.90,25.00,1008.43,215.10,225.90,0,-127.00,"$GNGGA,134458.000,4900.5215,N,00825.4317,E,1,4,7.44,108.0,M,47.9,M,,*4D",,,,
2022-03-16T14:45:24+01:00,22,36.23,24.72,1008.42,212.10,222.80,0,-127.00,"$GNGGA,134519.000,4900.5220,N,00825.4308,E,1,4,7.43,104.1,M,47.9,M,,*4B",,,,
2022-03-16T14:45:45+01:00,23,36.57,24.47,1008.42,203.10,213.30,0,-127.00,"$GNGGA,134540.000,4900.5227,N,00825.4265,E,1,4,7.43,103.2,M,47.9,M,,*4E",,,,
2022-03-16T14:46:06+01:00,24,36.91,24.12,1008.41,206.80,217.20,0,-127.00,"$GNGGA,134601.000,4900.5223,N,00825.4265,E,1,4,7.42,102.4,M,47.9,M,,*4A",,,,
2022-03-16T14:46:27+01:00,25,37.23,23.88,1008.39,210.30,220.90,0,-127.00,"$GNGGA,134622.000,4900.5216,N,00825.4344,E,1,4,7.42,107.6,M,47.9,M,,*48",,,,
2022-03-16T14:46:47+01:00,26,37.52,23.68,1008.39,218.30,229.30,0,-127.00,"$GNGGA,134642.000,4900.5214,N,00825.4344,E,1,4,7.41,107.7,M,47.9,M,,*4E",,,,
2022-03-16T14:47:07+01:00,27,37.80,23.47,1008.37,212.30,223.00,0,-127.00,"$GNGGA,134702.000,4900.5224,N,00825.4384,E,1,4,7.41,101.7,M,47.9,M,,*42",,,,
2022-03-16T14:47:28+01:00,28,38.07,23.23,1008.37,212.80,223.50,0,-127.00,"$GNGGA,134723.000,4900.5229,N,00825.4301,E,1,4,15.90,96.5,M,47.9,M,,*43",,,,
2022-03-16T14:47:48+01:00,29,38.32,23.09,1008.37,212.60,223.30,0,-127.00,"$GNGGA,134743.000,4900.5210,N,00825.4248,E,1,4,7.40,96.4,M,47.9,M,,*7C",,,,
2022-03-16T14:48:08+01:00,30,38.56,22.87,1008.37,205.90,216.20,0,-127.00,"$GNGGA,134803.000,4900.5189,N,00825.4205,E,1,4,7.40,97.6,M,47.9,M,,*7E",,,,
2022-03-16T14:48:29+01:00,31,38.79,22.69,1008.37,204.60,214.90,0,-127.00,"$GNGGA,134824.000,4900.5211,N,00825.4306,E,1,4,7.39,102.4,M,47.9,M,,*4A",,,,
2022-03-16T14:48:49+01:00,32,39.02,22.52,1008.36,204.70,215.00,0,-127.00,"$GNGGA,134844.000,4900.5191,N,00825.4302,E,1,4,15.69,105.4,M,47.9,M,,*72",,,,
2022-03-16T14:49:10+01:00,33,39.24,22.35,1008.35,205.40,215.70,0,-127.00,"$GNGGA,134905.000,4900.5180,N,00825.4293,E,1,4,7.38,106.5,M,47.9,M,,*4A",,,,
2022-03-16T14:49:31+01:00,34,39.45,22.18,1008.35,204.80,215.10,0,-127.00,"$GNGGA,134926.000,4900.5184,N,00825.4286,E,1,4,7.38,106.5,M,47.9,M,,*4B",,,,
2022-03-16T14:49:51+01:00,35,39.64,22.06,1008.35,210.30,220.90,0,-127.00,"$GNGGA,134946.000,4900.5200,N,00825.4317,E,1,4,7.38,105.3,M,47.9,M,,*4E",,,,
2022-03-16T14:50:11+01:00,36,39.84,21.91,1008.34,212.80,223.50,0,-127.00,"$GNGGA,135006.000,4900.5198,N,00825.4337,E,1,4,7.37,106.9,M,47.9,M,,*44",,,,
2022-03-16T14:50:32+01:00,37,40.02,21.76,1008.34,216.80,227.70,0,-127.00,"$GNGGA,135027.000,4900.5194,N,00825.4344,E,1,4,14.98,109.1,M,47.9,M,,*7F",,,,
2022-03-16T14:50:52+01:00,38,40.20,21.63,1008.34,213.90,224.60,0,-127.00,"$GNGGA,135047.000,4900.5199,N,00825.4345,E,1,4,7.37,110.7,M,47.9,M,,*4C",,,,
2022-03-16T14:51:13+01:00,39,40.37,21.51,1008.32,214.80,225.60,0,-127.00,"$GNGGA,135108.000,4900.5185,N,00825.4306,E,1,4,7.36,112.9,M,47.9,M,,*41",,,,
2022-03-16T14:51:34+01:00,40,40.54,21.36,1008.32,213.50,224.20,0,-127.00,"$GNGGA,135129.000,4900.5190,N,00825.4329,E,1,4,7.36,115.4,M,47.9,M,,*41",,,,
2022-03-16T14:51:54+01:00,41,40.70,21.22,1008.32,211.10,221.70,0,-127.00,"$GNGGA,135149.000,4900.5190,N,00825.4353,E,1,4,7.35,117.6,M,47.9,M,,*49",,,,
2022-03-16T14:52:15+01:00,42,40.87,21.05,1008.33,207.80,218.20,0,-127.00,"$GNGGA,135210.000,4900.5185,N,00825.4365,E,1,4,13.90,119.1,M,47.9,M,,*74",,,,
2022-03-16T14:52:36+01:00,43,41.03,20.93,1008.34,206.50,216.90,0,-127.00,"$GNGGA,135231.000,4900.5169,N,00825.4281,E,1,4,7.35,119.7,M,47.9,M,,*42",,,,
2022-03-16T14:52:56+01:00,44,41.18,20.80,1008.35,208.00,218.50,0,-127.00,"$GNGGA,135251.000,4900.5184,N,00825.4350,E,1,4,7.34,120.6,M,47.9,M,,*40",,,,
2022-03-16T14:53:16+01:00,45,41.33,20.68,1008.35,211.70,222.30,0,-127.00,"$GNGGA,135311.000,4900.5189,N,00825.4365,E,1,3,8.96,121.2,M,47.9,M,,*4B",,,,
2022-03-16T14:53:37+01:00,46,41.48,20.58,1008.36,215.40,226.20,0,-127.00,"$GNGGA,135332.000,4900.5173,N,00825.4275,E,1,4,7.34,122.4,M,47.9,M,,*4A",,,,
2022-03-16T14:53:57+01:00,47,41.62,20.46,1008.36,215.70,226.50,0,-127.00,"$GNGGA,135352.000,4900.5181,N,00825.4317,E,1,4,7.33,124.5,M,47.9,M,,*44",,,,
2022-03-16T14:54:17+01:00,48,41.76,20.37,1008.36,214.20,225.00,0,-127.00,"$GNGGA,135412.000,4900.5164,N,00825.4296,E,1,4,7.33,125.9,M,47.9,M,,*49",,,,
2022-03-16T14:54:38+01:00,49,41.90,20.23,1008.37,214.50,225.30,0,-127.00,"$GNGGA,135433.000,4900.5150,N,00825.4289,E,1,4,7.33,127.3,M,47.9,M,,*4B",,,,
2022-03-16T14:54:58+01:00,50,42.03,20.12,1008.38,215.20,226.00,0,-127.00,"$GNGGA,135453.000,4900.5142,N,00825.4267,E,1,3,9.14,127.9,M,47.9,M,,*48",,,,
2022-03-16T14:55:18+01:00,51,42.16,19.99,1008.37,215.50,226.30,0,-127.00,"$GNGGA,135513.000,4900.5162,N,00825.4333,E,1,3,9.18,128.0,M,47.9,M,,*45",,,,
2022-03-16T14:55:39+01:00,52,42.28,19.88,1008.38,214.20,225.00,0,-127.00,"$GNGGA,135534.000,4900.5184,N,00825.4352,E,1,3,9.20,128.2,M,47.9,M,,*46",,,,
2022-03-16T14:55:59+01:00,53,42.40,19.80,1008.37,213.90,224.60,0,-127.00,"$GNGGA,135554.000,4900.5240,N,00825.4516,E,1,3,9.24,128.2,M,47.9,M,,*49",,,,
2022-03-16T14:56:20+01:00,54,42.52,19.71,1008.37,209.40,219.90,0,-127.00,"$GNGGA,135615.000,4900.5191,N,00825.4402,E,1,3,9.29,128.2,M,47.9,M,,*49",,,,
2022-03-16T14:56:40+01:00,55,42.64,19.60,1008.38,205.80,216.10,0,-127.00,"$GNGGA,135635.000,4900.5151,N,00825.4358,E,1,4,7.31,128.3,M,47.9,M,,*4E",,,,
2022-03-16T14:57:00+01:00,56,42.76,19.55,1008.38,202.50,212.70,0,-127.00,"$GNGGA,135655.000,4900.5166,N,00825.4337,E,1,4,23.80,127.9,M,47.9,M,,*7C",,,,
2022-03-16T14:57:21+01:00,57,42.87,19.48,1008.38,205.20,215.50,0,-127.00,"$GNGGA,135716.000,4900.5175,N,00825.4300,E,1,4,7.31,127.7,M,47.9,M,,*4E",,,,
2022-03-16T14:57:41+01:00,58,42.97,19.35,1008.39,212.30,223.00,0,-127.00,"$GNGGA,135736.000,4900.5177,N,00825.4316,E,1,4,28.26,127.7,M,47.9,M,,*72",,,,
2022-03-16T14:58:01+01:00,59,43.08,19.20,1008.39,216.30,227.20,0,-127.00,"$GNGGA,135756.000,4900.5166,N,00825.4313,E,1,4,7.30,127.9,M,47.9,M,,*45",,,,
2022-03-16T14:58:22+01:00,60,43.18,19.03,1008.39,215.80,226.60,0,-127.00,"$GNGGA,135817.000,4900.5151,N,00825.4287,E,1,4,33.04,127.7,M,47.9,M,,*79",,,,
2022-03-16T14:58:42+01:00,61,43.28,19.00,1008.38,211.10,221.70,0,-127.00,"$GNGGA,135837.000,4900.5151,N,00825.4367,E,1,4,7.30,127.2,M,47.9,M,,*41",,,,
2022-03-16T14:59:03+01:00,62,43.38,18.96,1008.37,209.80,220.30,0,-127.00,"$GNGGA,135858.000,4900.5213,N,00825.4539,E,1,4,7.29,127.0,M,47.9,M,,*4A",,,,
2022-03-16T14:59:24+01:00,63,43.48,18.84,1008.37,207.60,218.00,0,-127.00,"$GNGGA,135919.000,4900.5196,N,00825.4424,E,1,4,7.29,126.6,M,47.9,M,,*4A",,,,
2022-03-16T14:59:44+01:00,64,43.59,18.70,1008.38,205.30,215.60,0,-127.00,"$GNGGA,135939.000,4900.5194,N,00825.4485,E,1,4,7.29,126.3,M,47.9,M,,*44",,,,
2022-03-16T15:00:07+01:00,65,43.70,18.61,1008.37,203.00,213.20,0,-127.00,"$GNGGA,140002.000,4900.5180,N,00825.4462,E,1,4,7.29,126.1,M,47.9,M,,*49",,,,
2022-03-16T15:00:28+01:00,66,43.79,18.63,1008.38,205.90,216.20,0,-127.00,"$GNGGA,140023.000,4900.5153,N,00825.4428,E,1,4,7.29,125.9,M,47.9,M,,*41",,,,
2022-03-16T15:00:48+01:00,67,43.88,18.57,1008.38,207.20,217.60,0,-127.00,"$GNGGA,140043.000,4900.5158,N,00825.4438,E,1,4,7.29,125.5,M,47.9,M,,*41",,,,
2022-03-16T15:01:08+01:00,68,43.97,18.39,1008.38,209.80,220.30,0,-127.00,"$GNGGA,140103.000,4900.5183,N,00825.4467,E,1,4,7.29,125.2,M,47.9,M,,*4F",,,,
2022-03-16T15:01:30+01:00,69,44.06,18.28,1008.39,206.30,216.70,0,-127.00,"$GNGGA,140124.000,4900.5204,N,00825.4563,E,1,4,7.29,125.0,M,47.9,M,,*41",,,,
2022-03-16T15:01:50+01:00,70,44.15,18.29,1008.39,203.60,213.80,0,-127.00,"$GNGGA,140145.000,4900.5196,N,00825.4444,E,1,4,7.29,124.7,M,47.9,M,,*4C",,,,
2022-03-16T15:02:11+01:00,71,44.23,18.36,1008.39,211.90,222.50,0,-127.00,"$GNGGA,140206.000,4900.5223,N,00825.4569,E,1,4,7.29,124.7,M,47.9,M,,*4B",,,,
2022-03-16T15:02:32+01:00,72,44.31,18.23,1008.39,215.10,225.90,0,-127.00,"$GNGGA,140227.000,4900.5212,N,00825.4550,E,1,4,7.28,124.7,M,47.9,M,,*41",,,,
2022-03-16T15:02:53+01:00,73,44.40,18.08,1008.39,215.70,226.50,0,-127.00,"$GNGGA,140248.000,4900.5216,N,00825.4572,E,1,5,3.78,124.3,M,47.9,M,,*48",,,,
2022-03-16T15:03:14+01:00,74,44.51,17.91,1008.39,212.80,223.50,0,-127.00,"$GNGGA,140309.000,4900.5212,N,00825.4539,E,1,5,3.79,124.6,M,47.9,M,,*43",,,,
2022-03-16T15:03:34+01:00,75,44.61,17.80,1008.40,219.20,230.20,0,-127.00,"$GNGGA,140329.000,4900.5213,N,00825.4545,E,1,5,3.80,122.8,M,47.9,M,,*45",,,,
2022-03-16T15:03:54+01:00,76,44.72,17.72,1008.41,222.10,233.30,0,-127.00,"$GNGGA,140349.000,4900.5224,N,00825.4482,E,1,5,3.81,121.4,M,47.9,M,,*43",,,,
2022-03-16T15:04:15+01:00,77,44.80,17.63,1008.40,217.20,228.10,0,-127.00,"$GNGGA,140410.000,4900.5208,N,00825.4476,E,1,5,3.82,119.1,M,47.9,M,,*40",,,,
2022-03-16T15:04:35+01:00,78,44.88,17.62,1008.41,213.60,224.30,0,-127.00,"$GNGGA,140430.000,4900.5233,N,00825.4564,E,1,5,3.83,115.9,M,47.9,M,,*4D",,,,
2022-03-16T15:04:56+01:00,79,44.96,17.54,1008.40,218.50,229.50,0,-127.00,"$GNGGA,140451.000,4900.5204,N,00825.4476,E,1,5,3.84,112.3,M,47.9,M,,*46",,,,
2022-03-16T15:05:17+01:00,80,45.03,17.44,1008.39,222.40,233.60,0,-127.00,"$GNGGA,140512.000,4900.5239,N,00825.4575,E,1,5,3.85,111.9,M,47.9,M,,*44",,,,
2022-03-16T15:05:37+01:00,81,45.09,17.50,1008.39,223.20,234.40,0,-127.00,"$GNGGA,140532.000,4900.5260,N,00825.4655,E,1,5,3.86,110.7,M,47.9,M,,*47",,,,
2022-03-16T15:05:57+01:00,82,45.16,17.47,1008.39,216.80,227.70,0,-127.00,"$GNGGA,140552.000,4900.5238,N,00825.4545,E,1,5,3.87,111.0,M,47.9,M,,*49",,,,
2022-03-16T15:06:18+01:00,83,45.21,17.32,1008.39,214.10,224.90,0,-127.00,"$GNGGA,140613.000,4900.5235,N,00825.4560,E,1,5,3.88,111.5,M,47.9,M,,*4F",,,,
2022-03-16T15:06:38+01:00,84,45.26,17.36,1008.39,216.00,226.90,0,-127.00,"$GNGGA,140633.000,4900.5234,N,00825.4522,E,1,5,3.89,111.9,M,47.9,M,,*47",,,,
2022-03-16T15:06:58+01:00,85,45.32,17.26,1008.39,216.60,227.50,0,-127.00,"$GNGGA,140653.000,4900.5247,N,00825.4644,E,1,5,3.90,112.1,M,47.9,M,,*45",,,,
2022-03-16T15:07:19+01:00,86,45.38,17.16,1008.39,216.20,227.10,0,-127.00,"$GNGGA,140714.000,4900.5244,N,00825.4558,E,1,5,3.91,111.3,M,47.9,M,,*4A",,,,
2022-03-16T15:07:39+01:00,87,45.43,17.18,1008.38,209.60,220.10,0,-127.00,"$GNGGA,140734.000,4900.5231,N,00825.4503,E,1,5,3.92,110.6,M,47.9,M,,*43",,,,
2022-03-16T15:08:00+01:00,88,45.48,17.06,1008.37,210.50,221.10,0,-127.00,"$GNGGA,140755.000,4900.5201,N,00825.4396,E,1,5,3.93,111.2,M,47.9,M,,*49",,,,
2022-03-16T15:08:20+01:00,89,45.54,16.96,1008.36,215.70,226.50,0,-127.00,"$GNGGA,140815.000,4900.5186,N,00825.4454,E,1,5,3.94,113.4,M,47.9,M,,*44",,,,
2022-03-16T15:08:40+01:00,90,45.59,16.95,1008.34,223.40,234.60,0,-127.00,"$GNGGA,140835.000,4900.5192,N,00825.4353,E,1,5,3.95,113.9,M,47.9,M,,*4F",,,,
2022-03-16T15:09:01+01:00,91,45.65,16.91,1008.33,219.80,230.80,0,-127.00,"$GNGGA,140856.000,4900.5236,N,00825.4458,E,1,5,3.96,113.3,M,47.9,M,,*42",,,,
2022-03-16T15:09:21+01:00,92,45.69,16.84,1008.31,211.30,221.90,0,-127.00,"$GNGGA,140916.000,4900.5284,N,00825.4626,E,1,5,3.97,113.0,M,47.9,M,,*47",,,,
2022-03-16T15:09:42+01:00,93,45.75,16.82,1008.30,209.40,219.90,0,-127.00,"$GNGGA,140937.000,4900.5275,N,00825.4641,E,1,5,3.98,113.1,M,47.9,M,,*45",,,,
2022-03-16T15:10:03+01:00,94,45.79,16.72,1008.29,207.70,218.10,0,-127.00,"$GNGGA,140958.000,4900.5228,N,00825.4486,E,1,5,3.99,114.6,M,47.9,M,,*4C",,,,
2022-03-16T15:10:23+01:00,95,45.83,16.70,1008.29,207.30,217.70,0,-127.00,"$GNGGA,141018.000,4900.5152,N,00825.4208,E,1,5,4.00,115.0,M,47.9,M,,*4E",,,,
2022-03-16T15:10:43+01:00,96,45.87,16.70,1008.28,203.40,213.60,0,-127.00,"$GNGGA,141038.000,4900.5180,N,00825.4362,E,1,5,4.01,115.4,M,47.9,M,,*4B",,,,
2022-03-16T15:11:04+01:00,97,45.92,16.72,1008.27,205.60,215.90,0,-127.00,"$GNGGA,141059.000,4900.5131,N,00825.4301,E,1,5,4.02,118.1,M,47.9,M,,*48",,,,
2022-03-16T15:11:24+01:00,98,45.96,16.74,1008.28,206.60,217.00,0,-127.00,"$GNGGA,141119.000,4900.5237,N,00825.4588,E,1,5,4.03,118.2,M,47.9,M,,*4D",,,,
2022-03-16T15:11:45+01:00,99,46.01,16.60,1008.27,202.10,212.30,0,-127.00,"$GNGGA,141140.000,4900.5221,N,00825.4464,E,1,4,4.26,116.5,M,47.9,M,,*4A",,,,
2022-03-16T15:12:05+01:00,100,46.06,16.50,1008.27,203.50,213.70,0,-127.00,"$GNGGA,141200.000,4900.5227,N,00825.4518,E,1,4,4.27,116.5,M,47.9,M,,*40",,,,
2022-03-16T15:12:26+01:00,101,46.11,16.49,1008.26,210.30,220.90,0,-127.00,"$GNGGA,141221.000,4900.5254,N,00825.4600,E,1,4,4.29,115.6,M,47.9,M,,*43",,,,
2022-03-16T15:12:47+01:00,102,46.15,16.50,1008.25,216.10,227.00,0,-127.00,"$GNGGA,141242.000,4900.5265,N,00825.4554,E,1,4,4.30,116.6,M,47.9,M,,*4D",,,,
2022-03-16T15:13:07+01:00,103,46.19,16.40,1008.25,216.40,227.30,0,-127.00,"$GNGGA,141302.000,4900.5267,N,00825.4607,E,1,4,4.31,115.4,M,47.9,M,,*4F",,,,
2022-03-16T15:13:28+01:00,104,46.24,16.34,1008.25,212.00,222.70,0,-127.00,"$GNGGA,141323.000,4900.5250,N,00825.4536,E,1,4,4.33,114.5,M,47.9,M,,*4B",,,,
2022-03-16T15:13:49+01:00,105,46.28,16.29,1008.23,213.00,223.70,0,-127.00,"$GNGGA,141344.000,4900.5259,N,00825.4578,E,1,4,4.34,114.0,M,47.9,M,,*4B",,,,
2022-03-16T15:14:10+01:00,106,46.32,16.25,1008.22,218.10,229.10,0,-127.00,"$GNGGA,141405.000,4900.5251,N,00825.4536,E,1,4,4.35,115.1,M,47.9,M,,*4A",,,,
2022-03-16T15:14:30+01:00,107,46.37,16.22,1008.22,212.70,223.40,0,-127.00,"$GNGGA,141425.000,4900.5236,N,00825.4503,E,1,4,4.37,117.1,M,47.9,M,,*4F",,,,
2022-03-16T15:14:51+01:00,108,46.41,16.28,1008.21,205.30,215.60,0,-127.00,"$GNGGA,141446.000,4900.5254,N,00825.4600,E,1,4,4.38,118.1,M,47.9,M,,*4E",,,,
2022-03-16T15:15:11+01:00,109,46.44,16.28,1008.21,204.50,214.80,0,-127.00,"$GNGGA,141506.000,4900.5271,N,00825.4669,E,1,4,4.39,118.7,M,47.9,M,,*44",,,,
2022-03-16T15:15:32+01:00,110,46.50,16.13,1008.20,211.70,222.30,0,-127.00,"$GNGGA,141527.000,4900.5265,N,00825.4667,E,1,4,4.41,118.3,M,47.9,M,,*47",,,,
2022-03-16T15:15:53+01:00,111,46.55,16.03,1008.19,214.70,225.50,0,-127.00,"$GNGGA,141548.000,4900.5259,N,00825.4580,E,1,4,4.42,118.2,M,47.9,M,,*49",,,,
2022-03-16T15:16:13+01:00,112,46.59,16.02,1008.18,207.30,217.70,0,-127.00,"$GNGGA,141608.000,4900.5156,N,00825.4291,E,1,4,4.43,120.0,M,47.9,M,,*4D",,,,
2022-03-16T15:16:34+01:00,113,46.62,15.98,1008.19,198.70,208.70,0,-127.00,"$GNGGA,141629.000,4900.5258,N,00825.4743,E,1,4,4.45,120.0,M,47.9,M,,*4F",,,,
2022-03-16T15:16:55+01:00,114,46.65,16.00,1008.18,199.70,209.70,0,-127.00,"$GNGGA,141650.000,4900.5249,N,00825.4553,E,1,4,4.46,120.0,M,47.9,M,,*41",,,,
2022-03-16T15:17:15+01:00,115,46.68,16.02,1008.18,205.60,215.90,0,-127.00,"$GNGGA,141710.000,4900.5290,N,00825.4583,E,1,4,4.48,121.7,M,47.9,M,,*45",,,,
2022-03-16T15:17:35+01:00,116,46.71,16.04,1008.17,214.20,225.00,0,-127.00,"$GNGGA,141730.000,4900.5253,N,00825.4479,E,1,4,7.37,121.0,M,47.9,M,,*40",,,,
2022-03-16T15:17:56+01:00,117,46.73,16.02,1008.16,214.10,224.90,0,-127.00,"$GNGGA,141751.000,4900.5214,N,00825.4296,E,1,4,4.51,123.9,M,47.9,M,,*4B",,,,
2022-03-16T15:18:16+01:00,118,46.75,16.00,1008.15,209.30,219.80,0,-127.00,"$GNGGA,141811.000,4900.5308,N,00825.4519,E,1,4,4.52,124.5,M,47.9,M,,*44",,,,
2022-03-16T15:18:37+01:00,119,46.78,15.92,1008.14,204.50,214.80,0,-127.00,"$GNGGA,141832.000,4900.5328,N,00825.4573,E,1,4,7.94,124.3,M,47.9,M,,*44",,,,
2022-03-16T15:18:58+01:00,120,46.81,15.81,1008.13,201.10,211.20,0,-127.00,"$GNGGA,141853.000,4900.5299,N,00825.4583,E,1,4,4.55,124.4,M,47.9,M,,*4E",,,,
2022-03-16T15:19:18+01:00,121,46.83,15.79,1008.13,205.00,215.30,0,-127.00,"$GNGGA,141913.000,4900.5222,N,00825.4320,E,1,4,4.57,124.8,M,47.9,M,,*4A",,,,
2022-03-16T15:19:38+01:00,122,46.86,15.77,1008.12,201.00,211.10,0,-127.00,"$GNGGA,141933.000,4900.5277,N,00825.4533,E,1,4,4.58,123.1,M,47.9,M,,*4D",,,,
2022-03-16T15:19:59+01:00,123,46.88,15.71,1008.11,200.10,210.20,0,-127.00,"$GNGGA,141954.000,4900.5258,N,00825.4550,E,1,4,7.49,121.7,M,47.9,M,,*43",,,,
2022-03-16T15:20:19+01:00,124,46.91,15.70,1008.11,199.10,209.10,0,-127.00,"$GNGGA,142014.000,4900.5254,N,00825.4537,E,1,4,4.61,121.3,M,47.9,M,,*4D",,,,
2022-03-16T15:20:39+01:00,125,46.93,15.69,1008.12,202.80,213.00,0,-127.00,"$GNGGA,142034.000,4900.5273,N,00825.4595,E,1,4,7.29,119.6,M,47.9,M,,*43",,,,
2022-03-16T15:21:00+01:00,126,46.96,15.63,1008.12,204.30,214.60,0,-127.00,"$GNGGA,142055.000,4900.5304,N,00825.4631,E,1,4,4.64,117.6,M,47.9,M,,*4C",,,,
2022-03-16T15:21:21+01:00,127,46.98,15.70,1008.11,201.20,211.30,0,-127.00,"$GNGGA,142116.000,4900.5269,N,00825.4632,E,1,4,4.66,116.0,M,47.9,M,,*46",,,,
2022-03-16T15:21:41+01:00,128,47.01,15.70,1008.11,191.60,201.20,0,-127.00,"$GNGGA,142136.000,4900.5340,N,00825.4847,E,1,4,4.67,112.2,M,47.9,M,,*45",,,,
2022-03-16T15:22:02+01:00,129,47.03,15.67,1008.11,190.50,200.10,0,-127.00,"$GNGGA,142157.000,4900.5245,N,00825.4418,E,1,3,39.91,110.5,M,47.9,M,,*75",,,,
2022-03-16T15:22:22+01:00,130,47.05,15.61,1008.12,196.90,206.80,0,-127.00,"$GNGGA,142217.000,4900.5285,N,00825.4481,E,1,4,4.71,108.9,M,47.9,M,,*4C",,,,
2022-03-16T15:22:43+01:00,131,47.08,15.59,1008.11,206.80,217.20,0,-127.00,"$GNGGA,142238.000,4900.5236,N,00825.4513,E,1,3,41.43,111.4,M,47.9,M,,*71",,,,
2022-03-16T15:23:04+01:00,132,47.11,15.54,1008.11,207.00,217.40,0,-127.00,"$GNGGA,142259.000,4900.4912,N,00825.3685,E,0,3,,113.6,M,47.9,M,,*5C",,,,
2022-03-16T15:23:25+01:00,133,47.14,15.51,1008.11,207.50,217.90,0,-127.00,"$GNGGA,142320.000,4900.4515,N,00825.2836,E,0,3,,115.2,M,47.9,M,,*5D",,,,
2022-03-16T15:23:45+01:00,134,47.18,15.54,1008.10,210.60,221.20,0,-127.00,"$GNGGA,142340.000,4900.4530,N,00825.3008,E,1,4,4.77,114.7,M,47.9,M,,*40",,,,
2022-03-16T15:24:06+01:00,135,47.23,15.40,1008.09,211.10,221.70,0,-127.00,"$GNGGA,142401.000,4900.5312,N,00825.4849,E,1,3,12.60,113.3,M,47.9,M,,*7A",,,,
2022-03-16T15:24:26+01:00,136,47.27,15.38,1008.08,209.80,220.30,0,-127.00,"$GNGGA,142421.000,4900.5292,N,00825.4743,E,1,4,4.81,113.7,M,47.9,M,,*4F",,,,
2022-03-16T15:24:46+01:00,137,47.30,15.33,1008.07,206.70,217.10,0,-127.00,"$GNGGA,142441.000,4900.5234,N,00825.4652,E,1,4,4.82,113.8,M,47.9,M,,*48",,,,
2022-03-16T15:25:07+01:00,138,47.32,15.34,1008.07,204.20,214.50,0,-127.00,"$GNGGA,142502.000,4900.5256,N,00825.4575,E,1,4,4.84,114.0,M,47.9,M,,*45",,,,
2022-03-16T15:25:27+01:00,139,47.33,15.33,1008.06,202.60,212.80,0,-127.00,"$GNGGA,142522.000,4900.5233,N,00825.4434,E,1,4,4.86,114.6,M,47.9,M,,*44",,,,
2022-03-16T15:25:47+01:00,140,47.35,15.28,1008.05,200.70,210.80,0,-127.00,"$GNGGA,142542.000,4900.5142,N,00825.4220,E,1,3,49.82,115.4,M,47.9,M,,*7D",,,,
2022-03-16T15:26:08+01:00,141,47.37,15.26,1008.04,201.10,211.20,0,-127.00,"$GNGGA,142603.000,4900.5327,N,00825.4749,E,0,3,,116.3,M,47.9,M,,*5C",,,,
2022-03-16T15:26:28+01:00,142,47.38,15.28,1008.03,201.10,211.20,0,-127.00,"$GNGGA,142623.000,4900.5295,N,00825.4708,E,0,3,,116.5,M,47.9,M,,*55",,,,
2022-03-16T15:26:48+01:00,143,47.39,15.19,1008.02,201.80,211.90,0,-127.00,"$GNGGA,142643.000,4900.5240,N,00825.4579,E,0,3,,116.4,M,47.9,M,,*5E",,,,
2022-03-16T15:27:09+01:00,144,47.40,15.22,1008.02,203.90,214.10,0,-127.00,"$GNGGA,142704.000,4900.5342,N,00825.4893,E,0,3,,116.4,M,47.9,M,,*56",,,,
2022-03-16T15:27:29+01:00,145,47.41,15.24,1008.00,199.70,209.70,0,-127.00,"$GNGGA,142724.000,4900.5318,N,00825.4910,E,1,4,4.96,122.1,M,47.9,M,,*40",,,,
2022-03-16T15:27:49+01:00,146,47.42,15.25,1007.99,192.90,202.60,0,-127.00,"$GNGGA,142744.000,4900.5286,N,00825.4673,E,1,4,4.98,123.5,M,47.9,M,,*41",,,,
2022-03-16T15:28:10+01:00,147,47.44,15.19,1007.99,185.70,195.00,0,-127.00,"$GNGGA,142805.000,4900.5295,N,00825.4650,E,1,4,5.00,124.7,M,47.9,M,,*4D",,,,
2022-03-16T15:28:30+01:00,148,47.44,15.24,1007.98,189.10,198.60,0,-127.00,"$GNGGA,142825.000,4900.5295,N,00825.4666,E,1,4,5.01,127.1,M,47.9,M,,*4E",,,,
2022-03-16T15:28:51+01:00,149,47.46,15.11,1007.97,193.90,203.60,0,-127.00,"$GNGGA,142846.000,4900.5285,N,00825.4572,E,1,4,5.03,127.9,M,47.9,M,,*46",,,,
2022-03-16T15:29:12+01:00,150,47.47,15.09,1007.95,199.40,209.40,0,-127.00,"$GNGGA,142907.000,4900.5267,N,00825.4569,E,1,4,5.05,127.8,M,47.9,M,,*43",,,,
2022-03-16T15:29:32+01:00,151,47.48,15.08,1007.95,203.80,214.00,0,-127.00,"$GNGGA,142927.000,4900.5251,N,00825.4550,E,1,5,3.14,129.8,M,47.9,M,,*47",,,,
2022-03-16T15:29:52+01:00,152,47.50,15.07,1007.94,202.40,212.60,0,-127.00,"$GNGGA,142947.000,4900.5228,N,00825.4480,E,1,5,3.16,127.9,M,47.9,M,,*4E",,,,
2022-03-16T15:30:13+01:00,153,47.51,15.02,1007.94,199.50,209.50,0,-127.00,"$GNGGA,143008.000,4900.5187,N,00825.4404,E,1,5,3.17,126.5,M,47.9,M,,*4B",,,,
2022-03-16T15:30:33+01:00,154,47.52,14.96,1007.93,201.00,211.10,0,-127.00,"$GNGGA,143028.000,4900.5197,N,00825.4394,E,1,4,3.80,126.3,M,47.9,M,,*4F",,,,
2022-03-16T15:30:53+01:00,155,47.54,14.96,1007.93,207.00,217.40,0,-127.00,"$GNGGA,143048.000,4900.5288,N,00825.4587,E,1,5,3.21,132.8,M,47.9,M,,*44",,,,
2022-03-16T15:31:14+01:00,156,47.55,14.97,1007.93,212.80,223.50,0,-127.00,"$GNGGA,143109.000,4900.5270,N,00825.4642,E,1,5,3.23,136.6,M,47.9,M,,*45",,,,
2022-03-16T15:31:34+01:00,157,47.56,14.91,1007.91,210.30,220.90,0,-127.00,"$GNGGA,143129.000,4900.5240,N,00825.4619,E,1,5,3.24,134.6,M,47.9,M,,*4F",,,,
2022-03-16T15:31:54+01:00,158,47.57,14.86,1007.90,211.80,222.40,0,-127.00,"$GNGGA,143149.000,4900.5234,N,00825.4528,E,1,5,3.26,134.2,M,47.9,M,,*4D",,,,
2022-03-16T15:32:15+01:00,159,47.58,14.84,1007.89,211.70,222.30,0,-127.00,"$GNGGA,143210.000,4900.5240,N,00825.4558,E,1,5,3.28,134.3,M,47.9,M,,*49",,,,
2022-03-16T15:32:35+01:00,160,47.59,14.88,1007.89,209.50,220.00,0,-127.00,"$GNGGA,143230.000,4900.5255,N,00825.4617,E,1,5,3.29,135.7,M,47.9,M,,*43",,,,
2022-03-16T15:32:56+01:00,161,47.60,14.89,1007.88,206.30,216.70,0,-127.00,"$GNGGA,143251.000,4900.5266,N,00825.4698,E,1,5,3.31,133.5,M,47.9,M,,*4E",,,,
2022-03-16T15:33:17+01:00,162,47.60,14.83,1007.87,206.40,216.80,0,-127.00,"$GNGGA,143312.000,4900.5244,N,00825.4575,E,1,5,3.33,132.6,M,47.9,M,,*48",,,,
2022-03-16T15:33:37+01:00,163,47.60,14.87,1007.87,211.50,222.10,0,-127.00,"$GNGGA,143332.000,4900.5198,N,00825.4419,E,1,5,3.35,131.4,M,47.9,M,,*44",,,,
2022-03-16T15:33:57+01:00,164,47.61,14.84,1007.86,207.60,218.00,0,-127.00,"$GNGGA,143352.000,4900.5248,N,00825.4541,E,1,5,3.37,131.5,M,47.9,M,,*43",,,,
2022-03-16T15:34:18+01:00,165,47.62,14.78,1007.85,207.80,218.20,0,-127.00,"$GNGGA,143413.000,4900.5222,N,00825.4532,E,1,5,3.39,130.7,M,47.9,M,,*44",,,,
2022-03-16T15:34:38+01:00,166,47.63,14.78,1007.86,207.20,217.60,0,-127.00,"$GNGGA,143433.000,4900.5251,N,00825.4558,E,1,5,3.41,132.0,M,47.9,M,,*44",,,,
2022-03-16T15:34:59+01:00,167,47.64,14.72,1007.85,206.60,217.00,0,-127.00,"$GNGGA,143454.000,4900.5272,N,00825.4738,E,1,4,3.54,134.6,M,47.9,M,,*45",,,,
2022-03-16T15:35:20+01:00,168,47.65,14.76,1007.85,197.90,207.80,0,-127.00,"$GNGGA,143515.000,4900.5251,N,00825.4650,E,1,4,4.07,133.4,M,47.9,M,,*4B",,,,
2022-03-16T15:35:40+01:00,169,47.65,14.76,1007.85,189.60,199.10,0,-127.00,"$GNGGA,143535.000,4900.5268,N,00825.4605,E,1,4,3.57,132.2,M,47.9,M,,*46",,,,
2022-03-16T15:36:00+01:00,170,47.67,14.69,1007.84,197.70,207.60,0,-127.00,"$GNGGA,143555.000,4900.5270,N,00825.4590,E,1,4,3.60,135.1,M,47.9,M,,*46",,,,
2022-03-16T15:36:21+01:00,171,47.68,14.64,1007.83,199.20,209.20,0,-127.00,"$GNGGA,143616.000,4900.5243,N,00825.4566,E,1,4,3.62,135.2,M,47.9,M,,*4A",,,,
2022-03-16T15:36:41+01:00,172,47.68,14.67,1007.82,202.90,213.10,0,-127.00,"$GNGGA,143636.000,4900.5220,N,00825.4547,E,1,4,3.64,135.7,M,47.9,M,,*4D",,,,
2022-03-16T15:37:01+01:00,173,47.69,14.62,1007.82,204.20,214.50,0,-127.00,"$GNGGA,143656.000,4900.5198,N,00825.4472,E,1,4,6.71,133.4,M,47.9,M,,*48",,,,
2022-03-16T15:37:22+01:00,174,47.70,14.58,1007.81,205.30,215.60,0,-127.00,"$GNGGA,143717.000,4900.5228,N,00825.4583,E,1,4,3.68,133.0,M,47.9,M,,*42",,,,
2022-03-16T15:37:43+01:00,175,47.71,14.63,1007.80,199.00,209.00,0,-127.00,"$GNGGA,143738.000,4900.5240,N,00825.4539,E,1,4,3.70,131.9,M,47.9,M,,*42",,,,
2022-03-16T15:38:03+01:00,176,47.73,14.56,1007.79,197.10,207.00,0,-127.00,"$GNGGA,143758.000,4900.5238,N,00825.4535,E,1,4,3.72,131.4,M,47.9,M,,*48",,,,
2022-03-16T15:38:24+01:00,177,47.74,14.52,1007.78,204.10,214.40,0,-127.00,"$GNGGA,143819.000,4900.5232,N,00825.4487,E,1,4,3.75,134.5,M,47.9,M,,*43",,,,
2022-03-16T15:38:44+01:00,178,47.75,14.52,1007.78,209.60,220.10,0,-127.00,"$GNGGA,143839.000,4900.5302,N,00825.4677,E,1,4,3.77,137.8,M,47.9,M,,*42",,,,
2022-03-16T15:39:04+01:00,179,47.76,14.49,1007.78,201.30,211.40,0,-127.00,"$GNGGA,143859.000,4900.5289,N,00825.4735,E,1,4,3.79,137.9,M,47.9,M,,*4E",,,,
2022-03-16T15:39:25+01:00,180,47.77,14.57,1007.77,199.00,209.00,0,-127.00,"$GNGGA,143920.000,4900.5291,N,00825.4668,E,1,4,3.82,138.3,M,47.9,M,,*40",,,,
2022-03-16T15:39:45+01:00,181,47.77,14.55,1007.78,199.10,209.10,0,-127.00,"$GNGGA,143940.000,4900.5316,N,00825.4726,E,1,4,3.84,139.4,M,47.9,M,,*43",,,,
2022-03-16T15:40:06+01:00,182,47.78,14.59,1007.77,203.30,213.50,0,-127.00,"$GNGGA,144001.000,4900.5331,N,00825.4667,E,1,4,3.87,142.7,M,47.9,M,,*45",,,,
2022-03-16T15:40:26+01:00,183,47.79,14.51,1007.78,201.80,211.90,0,-127.00,"$GNGGA,144021.000,4900.5295,N,00825.4692,E,1,4,4.41,143.0,M,47.9,M,,*49",,,,
2022-03-16T15:40:46+01:00,184,47.80,14.51,1007.77,202.80,213.00,0,-127.00,"$GNGGA,144041.000,4900.5361,N,00825.4846,E,1,4,3.91,144.1,M,47.9,M,,*4E",,,,
2022-03-16T15:41:07+01:00,185,47.81,14.51,1007.76,204.90,215.20,0,-127.00,"$GNGGA,144102.000,4900.5337,N,00825.4786,E,1,4,3.94,147.0,M,47.9,M,,*4F",,,,
2022-03-16T15:41:27+01:00,186,47.82,14.47,1007.75,207.50,217.90,0,-127.00,"$GNGGA,144122.000,4900.5331,N,00825.4846,E,1,4,6.28,149.0,M,47.9,M,,*44",,,,
2022-03-16T15:41:47+01:00,187,47.83,14.42,1007.74,208.10,218.60,0,-127.00,"$GNGGA,144142.000,4900.5326,N,00825.4792,E,1,4,3.99,151.8,M,47.9,M,,*4C",,,,
2022-03-16T15:42:08+01:00,188,47.84,14.37,1007.73,208.20,218.70,0,-127.00,"$GNGGA,144203.000,4900.5274,N,00825.4723,E,1,4,4.02,151.3,M,47.9,M,,*48",,,,
2022-03-16T15:42:28+01:00,189,47.84,14.44,1007.75,211.20,221.80,0,-127.00,"$GNGGA,144223.000,4900.5351,N,00825.4826,E,1,4,4.05,150.1,M,47.9,M,,*42",,,,
2022-03-16T15:42:48+01:00,190,47.85,14.51,1007.74,211.10,221.70,0,-127.00,"$GNGGA,144243.000,4900.5277,N,00825.4598,E,1,4,4.07,148.0,M,47.9,M,,*43",,,,
2022-03-16T15:43:09+01:00,191,47.85,14.54,1007.74,208.40,218.90,0,-127.00,"$GNGGA,144304.000,4900.5308,N,00825.4623,E,1,4,4.10,148.0,M,47.9,M,,*4D",,,,
2022-03-16T15:43:29+01:00,192,47.86,14.53,1007.73,205.50,215.80,0,-127.00,"$GNGGA,144324.000,4900.5303,N,00825.4695,E,1,4,4.13,150.0,M,47.9,M,,*43",,,,
2022-03-16T15:43:49+01:00,193,47.87,14.41,1007.73,204.10,214.40,0,-127.00,"$GNGGA,144344.000,4900.5342,N,00825.4945,E,1,4,4.16,152.9,M,47.9,M,,*4C",,,,
2022-03-16T15:44:10+01:00,194,47.87,14.45,1007.73,205.50,215.80,0,-127.00,"$GNGGA,144405.000,4900.5334,N,00825.4923,E,1,4,6.10,152.6,M,47.9,M,,*44",,,,
2022-03-16T15:44:30+01:00,195,47.88,14.45,1007.73,202.10,212.30,0,-127.00,"$GNGGA,144425.000,4900.5316,N,00825.4877,E,1,4,4.21,151.1,M,47.9,M,,*42",,,,
2022-03-16T15:44:50+01:00,196,47.89,14.43,1007.72,198.40,208.40,0,-127.00,"$GNGGA,144445.000,4900.5331,N,00825.4856,E,1,4,4.24,150.8,M,47.9,M,,*4F",,,,
2022-03-16T15:45:11+01:00,197,47.89,14.36,1007.72,199.90,209.90,0,-127.00,"$GNGGA,144506.000,4900.5339,N,00825.4876,E,1,4,4.27,149.7,M,47.9,M,,*47",,,,
2022-03-16T15:45:31+01:00,198,47.90,14.38,1007.73,201.90,212.00,0,-127.00,"$GNGGA,144526.000,4900.5348,N,00825.4857,E,1,3,5.21,149.2,M,47.9,M,,*45",,,,
2022-03-16T15:45:51+01:00,199,47.91,14.35,1007.72,206.00,216.40,0,-127.00,"$GNGGA,144546.000,4900.5287,N,00825.4758,E,1,4,4.34,147.1,M,47.9,M,,*4E",,,,
2022-03-16T15:46:12+01:00,200,47.92,14.34,1007.72,205.70,216.00,0,-127.00,"$GNGGA,144607.000,4900.5286,N,00825.4832,E,1,4,4.37,143.9,M,47.9,M,,*45",,,,
2022-03-16T15:46:32+01:00,201,47.92,14.35,1007.74,204.80,215.10,0,-127.00,"$GNGGA,144627.000,4900.5274,N,00825.4797,E,1,4,6.00,140.9,M,47.9,M,,*4F",,,,
2022-03-16T15:46:52+01:00,202,47.93,14.38,1007.73,206.00,216.40,0,-127.00,"$GNGGA,144647.000,4900.5279,N,00825.4782,E,1,4,4.43,139.7,M,47.9,M,,*45",,,,
2022-03-16T15:47:13+01:00,203,47.94,14.32,1007.73,206.00,216.40,0,-127.00,"$GNGGA,144708.000,4900.5274,N,00825.4852,E,1,4,4.46,140.7,M,47.9,M,,*4B",,,,
2022-03-16T15:47:33+01:00,204,47.94,14.37,1007.74,203.10,213.30,0,-127.00,"$GNGGA,144728.000,4900.5279,N,00825.4861,E,1,4,4.50,139.6,M,47.9,M,,*4C",,,,
2022-03-16T15:47:53+01:00,205,47.95,14.28,1007.74,198.40,208.40,0,-127.00,"$GNGGA,144748.000,4900.5278,N,00825.4821,E,1,4,4.53,139.6,M,47.9,M,,*4C",,,,
2022-03-16T15:48:14+01:00,206,47.95,14.31,1007.75,199.40,209.40,0,-127.00,"$GNGGA,144809.000,4900.5246,N,00825.4763,E,1,3,6.69,139.5,M,47.9,M,,*4D",,,,
2022-03-16T15:48:34+01:00,207,47.95,14.30,1007.77,204.50,214.80,0,-127.00,"$GNGGA,144829.000,4900.5260,N,00825.4819,E,1,4,4.60,138.5,M,47.9,M,,*44",,,,
2022-03-16T15:48:54+01:00,208,47.97,14.30,1007.78,208.00,218.50,0,-127.00,"$GNGGA,144849.000,4900.5249,N,00825.4782,E,1,4,4.63,136.0,M,47.9,M,,*4C",,,,
2022-03-16T15:49:15+01:00,209,47.97,14.25,1007.78,208.20,218.70,0,-127.00,"$GNGGA,144910.000,4900.5245,N,00825.4715,E,1,4,4.67,134.0,M,47.9,M,,*45",,,,
2022-03-16T15:49:35+01:00,210,47.97,14.22,1007.79,205.90,216.20,0,-127.00,"$GNGGA,144930.000,4900.5262,N,00825.4813,E,1,4,4.70,128.8,M,47.9,M,,*48",,,,
2022-03-16T15:49:55+01:00,211,47.98,14.24,1007.81,203.00,213.20,0,-127.00,"$GNGGA,144950.000,4900.5270,N,00825.4861,E,1,4,4.73,123.9,M,47.9,M,,*41",,,,
2022-03-16T15:50:16+01:00,212,47.99,14.20,1007.82,203.20,213.40,0,-127.00,"$GNGGA,145011.000,4900.5234,N,00825.4734,E,1,4,4.77,123.7,M,47.9,M,,*49",,,,
2022-03-16T15:50:36+01:00,213,47.99,14.26,1007.82,201.10,211.20,0,-127.00,"$GNGGA,145031.000,4900.5237,N,00825.4811,E,1,4,5.91,122.5,M,47.9,M,,*4A",,,,
2022-03-16T15:50:56+01:00,214,48.00,14.21,1007.83,200.00,210.10,0,-127.00,"$GNGGA,145051.000,4900.5205,N,00825.4760,E,1,3,6.71,122.5,M,47.9,M,,*4E",,,,
2022-03-16T15:51:17+01:00,215,48.00,14.22,1007.84,196.00,205.90,0,-127.00,"$GNGGA,145112.000,4900.5234,N,00825.4692,E,1,3,6.72,122.5,M,47.9,M,,*45",,,,
2022-03-16T15:51:37+01:00,216,48.01,14.19,1007.85,196.40,206.30,0,-127.00,"$GNGGA,145132.000,4900.5277,N,00825.4793,E,1,4,4.92,122.5,M,47.9,M,,*4B",,,,
2022-03-16T15:51:57+01:00,217,48.01,14.16,1007.85,201.40,211.50,0,-127.00,"$GNGGA,145152.000,4900.5208,N,00825.4629,E,1,4,4.96,122.7,M,47.9,M,,*43",,,,
2022-03-16T15:52:18+01:00,218,48.02,14.26,1007.87,203.30,213.50,0,-127.00,"$GNGGA,145213.000,4900.5225,N,00825.4612,E,1,4,5.00,119.7,M,47.9,M,,*44",,,,
2022-03-16T15:52:38+01:00,219,48.02,14.20,1007.88,207.30,217.70,0,-127.00,"$GNGGA,145233.000,4900.5242,N,00825.4808,E,1,4,5.03,120.9,M,47.9,M,,*45",,,,
2022-03-16T15:52:59+01:00,220,48.02,14.16,1007.88,207.50,217.90,0,-127.00,"$GNGGA,145254.000,4900.5250,N,00825.4771,E,1,4,5.91,121.9,M,47.9,M,,*4C",,,,
2022-03-16T15:53:20+01:00,221,48.03,14.25,1007.88,211.70,222.30,0,-127.00,"$GNGGA,145315.000,4900.5220,N,00825.4725,E,1,4,5.11,122.2,M,47.9,M,,*4E",,,,
2022-03-16T15:53:40+01:00,222,48.02,14.19,1007.90,211.00,221.60,0,-127.00,"$GNGGA,145335.000,4900.5241,N,00825.4778,E,1,4,5.15,124.6,M,47.9,M,,*45",,,,
2022-03-16T15:54:00+01:00,223,48.03,14.16,1007.90,207.10,217.50,0,-127.00,"$GNGGA,145355.000,4900.5264,N,00825.4724,E,1,4,5.92,127.1,M,47.9,M,,*46",,,,
2022-03-16T15:54:21+01:00,224,48.04,14.11,1007.91,202.90,213.10,0,-127.00,"$GNGGA,145416.000,4900.5240,N,00825.4802,E,1,4,5.23,124.9,M,47.9,M,,*4A",,,,
2022-03-16T15:54:41+01:00,225,48.04,14.11,1007.91,203.10,213.30,0,-127.00,"$GNGGA,145436.000,4900.5259,N,00825.4788,E,1,4,5.27,126.5,M,47.9,M,,*47",,,,
2022-03-16T15:55:01+01:00,226,48.05,14.09,1007.90,202.20,212.40,0,-127.00,"$GNGGA,145456.000,4900.5251,N,00825.4734,E,1,4,5.31,129.2,M,47.9,M,,*41",,,,
2022-03-16T15:55:22+01:00,227,48.05,14.06,1007.91,205.30,215.60,0,-127.00,"$GNGGA,145517.000,4900.5292,N,00825.4774,E,1,4,5.35,128.7,M,47.9,M,,*4E",,,,
2022-03-16T15:55:42+01:00,228,48.05,14.08,1007.90,204.70,215.00,0,-127.00,"$GNGGA,145537.000,4900.5295,N,00825.4823,E,1,4,5.39,129.9,M,47.9,M,,*45",,,,
2022-03-16T15:56:02+01:00,229,48.05,14.04,1007.88,207.10,217.50,0,-127.00,"$GNGGA,145557.000,4900.5284,N,00825.4626,E,1,4,5.43,130.9,M,47.9,M,,*4D",,,,
2022-03-16T15:56:23+01:00,230,48.05,14.04,1007.88,203.50,213.70,0,-127.00,"$GNGGA,145618.000,4900.5220,N,00825.4536,E,1,4,5.47,132.9,M,47.9,M,,*4F",,,,
2022-03-16T15:56:43+01:00,231,48.05,14.07,1007.86,205.80,216.10,0,-127.00,"$GNGGA,145638.000,4900.5307,N,00825.4770,E,1,4,5.51,131.6,M,47.9,M,,*42",,,,
2022-03-16T15:57:03+01:00,232,48.06,14.04,1007.86,207.00,217.40,0,-127.00,"$GNGGA,145658.000,4900.5271,N,00825.4867,E,1,4,5.56,126.0,M,47.9,M,,*4A",,,,
2022-03-16T15:57:24+01:00,233,48.06,14.02,1007.84,209.70,220.20,0,-127.00,"$GNGGA,145719.000,4900.5222,N,00825.4679,E,1,4,5.60,126.3,M,47.9,M,,*4F",,,,
2022-03-16T15:57:44+01:00,234,48.06,14.01,1007.84,208.30,218.80,0,-127.00,"$GNGGA,145739.000,4900.5153,N,00825.4400,E,1,4,5.64,127.4,M,47.9,M,,*46",,,,
2022-03-16T15:58:04+01:00,235,48.06,13.99,1007.83,205.60,215.90,0,-127.00,"$GNGGA,145759.000,4900.5284,N,00825.4611,E,1,4,5.68,129.5,M,47.9,M,,*48",,,,
2022-03-16T15:58:25+01:00,236,48.07,13.99,1007.83,204.20,214.50,0,-127.00,"$GNGGA,145820.000,4900.5305,N,00825.4782,E,1,4,6.04,131.8,M,47.9,M,,*47",,,,
2022-03-16T15:58:45+01:00,237,48.07,13.99,1007.82,205.70,216.00,0,-127.00,"$GNGGA,145840.000,4900.5268,N,00825.4860,E,1,4,5.76,134.1,M,47.9,M,,*42",,,,
2022-03-16T15:59:05+01:00,238,48.07,13.98,1007.82,210.00,220.60,0,-127.00,"$GNGGA,145900.000,4900.5180,N,00825.4646,E,1,4,5.80,137.2,M,47.9,M,,*41",,,,
2022-03-16T15:59:26+01:00,239,48.08,13.98,1007.83,207.30,217.70,0,-127.00,"$GNGGA,145921.000,4900.5292,N,00825.4966,E,1,4,5.85,139.1,M,47.9,M,,*47",,,,
2022-03-16T15:59:46+01:00,240,48.07,14.01,1007.83,204.70,215.00,0,-127.00,"$GNGGA,145941.000,4900.5331,N,00825.5110,E,1,4,5.89,141.2,M,47.9,M,,*41",,,,
2022-03-16T16:00:06+01:00,241,48.08,13.99,1007.82,204.20,214.50,0,-127.00,"$GNGGA,150001.000,4900.5300,N,00825.5164,E,1,4,5.93,141.5,M,47.9,M,,*45",,,,
2022-03-16T16:00:27+01:00,242,48.08,13.96,1007.82,208.30,218.80,0,-127.00,"$GNGGA,150022.000,4900.5305,N,00825.5105,E,1,4,5.97,141.0,M,47.9,M,,*47",,,,
2022-03-16T16:00:47+01:00,243,48.08,13.95,1007.82,208.70,219.20,0,-127.00,"$GNGGA,150042.000,4900.5321,N,00825.5028,E,1,4,6.01,140.0,M,47.9,M,,*44",,,,
2022-03-16T16:01:07+01:00,244,48.08,13.94,1007.82,205.60,215.90,0,-127.00,"$GNGGA,150102.000,4900.5199,N,00825.5182,E,1,4,6.05,136.9,M,47.9,M,,*4D",,,,
2022-03-16T16:01:28+01:00,245,48.08,13.97,1007.82,206.90,217.30,0,-127.00,"$GNGGA,150123.000,4900.5187,N,00825.4820,E,1,4,6.09,132.5,M,47.9,M,,*45",,,,
2022-03-16T16:01:48+01:00,246,48.08,13.95,1007.83,210.30,220.90,0,-127.00,"$GNGGA,150143.000,4900.5187,N,00825.4325,E,1,4,6.13,128.2,M,47.9,M,,*4A",,,,
2022-03-16T16:02:08+01:00,247,48.09,13.97,1007.82,212.90,223.60,0,-127.00,"$GNGGA,150203.000,4900.5195,N,00825.4710,E,1,4,6.16,122.4,M,47.9,M,,*45",,,,
2022-03-16T16:02:29+01:00,248,48.09,13.93,1007.82,213.90,224.60,0,-127.00,"$GNGGA,150224.000,4900.5183,N,00825.4598,E,1,4,6.21,120.5,M,47.9,M,,*42",,,,
2022-03-16T16:02:49+01:00,249,48.08,13.95,1007.83,213.60,224.30,0,-127.00,"$GNGGA,150244.000,4900.5216,N,00825.4567,E,1,4,6.24,123.1,M,47.9,M,,*49",,,,
2022-03-16T16:03:10+01:00,250,48.09,13.91,1007.84,211.90,222.50,0,-127.00,"$GNGGA,150305.000,4900.5219,N,00825.4458,E,1,4,6.28,125.8,M,47.9,M,,*4C",,,,
2022-03-16T16:03:31+01:00,251,48.09,13.90,1007.84,206.80,217.20,0,-127.00,"$GNGGA,150326.000,4900.5258,N,00825.4806,E,1,4,6.32,127.2,M,47.9,M,,*4C",,,,
2022-03-16T16:03:51+01:00,252,48.08,13.93,1007.85,201.30,211.40,0,-127.00,"$GNGGA,150346.000,4900.5243,N,00825.4859,E,1,4,6.36,127.3,M,47.9,M,,*4F",,,,
2022-03-16T16:04:11+01:00,253,48.08,13.92,1007.85,199.80,209.80,0,-127.00,"$GNGGA,150406.000,4900.5265,N,00825.4903,E,1,4,6.40,127.6,M,47.9,M,,*42",,,,
2022-03-16T16:04:32+01:00,254,48.07,13.92,1007.85,205.70,216.00,0,-127.00,"$GNGGA,150427.000,4900.5260,N,00825.4749,E,1,4,6.43,128.7,M,47.9,M,,*49",,,,
2022-03-16T16:04:52+01:00,255,48.06,13.92,1007.86,211.20,221.80,0,-127.00,"$GNGGA,150447.000,4900.5260,N,00825.5094,E,1,4,6.46,126.7,M,47.9,M,,*42",,,,
2022-03-16T16:05:12+01:00,256,48.07,13.89,1007.84,212.70,223.40,0,-127.00,"$GNGGA,150507.000,4900.5290,N,00825.5127,E,1,4,6.49,126.0,M,47.9,M,,*49",,,,
2022-03-16T16:05:33+01:00,257,48.06,13.89,1007.84,212.70,223.40,0,-127.00,"$GNGGA,150528.000,4900.5246,N,00825.4882,E,1,4,6.53,123.7,M,47.9,M,,*41",,,,
2022-03-16T16:05:53+01:00,258,48.06,13.89,1007.84,206.10,216.50,0,-127.00,"$GNGGA,150548.000,4900.5251,N,00825.4421,E,1,4,6.55,122.6,M,47.9,M,,*42",,,,
2022-03-16T16:06:13+01:00,259,48.06,13.87,1007.84,205.70,216.00,0,-127.00,"$GNGGA,150608.000,4900.5226,N,00825.4522,E,1,4,6.58,121.4,M,47.9,M,,*4B",,,,
2022-03-16T16:06:34+01:00,260,48.05,13.87,1007.83,204.90,215.20,0,-127.00,"$GNGGA,150629.000,4900.5231,N,00825.4474,E,1,4,6.61,118.4,M,47.9,M,,*4C",,,,
2022-03-16T16:06:54+01:00,261,48.05,13.89,1007.84,204.20,214.50,0,-127.00,"$GNGGA,150649.000,4900.5247,N,00825.4525,E,1,4,6.64,118.3,M,47.9,M,,*4C",,,,
2022-03-16T16:07:14+01:00,262,48.05,13.88,1007.84,197.40,207.30,0,-127.00,"$GNGGA,150709.000,4900.5202,N,00825.4385,E,1,4,6.66,120.6,M,47.9,M,,*48",,,,
2022-03-16T16:07:35+01:00,263,48.05,13.85,1007.84,192.50,202.20,0,-127.00,"$GNGGA,150730.000,4900.5233,N,00825.4506,E,1,4,6.69,120.6,M,47.9,M,,*42",,,,
2022-03-16T16:07:55+01:00,264,48.04,13.86,1007.85,192.30,202.00,0,-127.00,"$GNGGA,150750.000,4900.5236,N,00825.4646,E,1,4,6.71,118.6,M,47.9,M,,*44",,,,
2022-03-16T16:08:16+01:00,265,48.05,13.84,1007.86,198.10,208.10,0,-127.00,"$GNGGA,150811.000,4900.5186,N,00825.4434,E,1,4,6.74,118.9,M,47.9,M,,*4B",,,,
2022-03-16T16:08:37+01:00,266,48.04,13.83,1007.86,204.60,214.90,0,-127.00,"$GNGGA,150832.000,4900.5142,N,00825.4617,E,1,4,6.76,120.7,M,47.9,M,,*46",,,,
2022-03-16T16:08:58+01:00,267,48.04,13.84,1007.86,214.20,225.00,0,-127.00,"$GNGGA,150853.000,4900.5144,N,00825.4586,E,1,4,6.78,118.5,M,47.9,M,,*4B",,,,
2022-03-16T16:09:18+01:00,268,48.04,13.84,1007.86,215.40,226.20,0,-127.00,"$GNGGA,150913.000,4900.5182,N,00825.4565,E,1,4,6.96,115.7,M,47.9,M,,*46",,,,
2022-03-16T16:09:39+01:00,269,48.04,13.85,1007.87,213.00,223.70,0,-127.00,"$GNGGA,150934.000,4900.5119,N,00825.4397,E,6,3,8.24,115.4,M,47.9,M,,*4E",,,,
2022-03-16T16:09:59+01:00,270,48.03,13.86,1007.86,210.50,221.10,0,-127.00,"$GNGGA,150954.000,4900.5152,N,00825.4582,E,1,3,8.30,115.5,M,47.9,M,,*46",,,,
2022-03-16T16:10:20+01:00,271,48.03,13.82,1007.87,210.20,220.80,0,-127.00,"$GNGGA,151015.000,4900.5232,N,00825.4946,E,1,3,8.37,115.6,M,47.9,M,,*4E",,,,
2022-03-16T16:10:40+01:00,272,48.03,13.82,1007.86,209.60,220.10,0,-127.00,"$GNGGA,151035.000,4900.5286,N,00825.4919,E,1,3,8.43,115.8,M,47.9,M,,*44",,,,
2022-03-16T16:11:01+01:00,273,48.03,13.82,1007.86,209.20,219.70,0,-127.00,"$GNGGA,151056.000,4900.5137,N,00825.4524,E,1,3,8.50,116.1,M,47.9,M,,*42",,,,
2022-03-16T16:11:22+01:00,274,48.03,13.82,1007.85,204.10,214.40,0,-127.00,"$GNGGA,151117.000,4900.5265,N,00825.4620,E,1,4,6.88,118.1,M,47.9,M,,*47",,,,
2022-03-16T16:11:42+01:00,275,48.02,13.80,1007.86,203.70,213.90,0,-127.00,"$GNGGA,151137.000,4900.5334,N,00825.4911,E,1,4,6.88,120.0,M,47.9,M,,*47",,,,
2022-03-16T16:12:03+01:00,276,48.02,13.82,1007.86,202.80,213.00,0,-127.00,"$GNGGA,151158.000,4900.5305,N,00825.4809,E,1,4,6.90,120.1,M,47.9,M,,*4C",,,,
2022-03-16T16:12:24+01:00,277,48.01,13.80,1007.86,204.00,214.30,0,-127.00,"$GNGGA,151219.000,4900.5364,N,00825.5332,E,1,4,6.90,120.5,M,47.9,M,,*4B",,,,
2022-03-16T16:12:44+01:00,278,48.00,13.82,1007.85,203.30,213.50,0,-127.00,"$GNGGA,151239.000,4900.5310,N,00825.5085,E,1,4,6.89,119.0,M,47.9,M,,*42",,,,
2022-03-16T16:13:04+01:00,279,47.99,13.80,1007.85,203.20,213.40,0,-127.00,"$GNGGA,151259.000,4900.5313,N,00825.4958,E,1,4,6.89,111.4,M,47.9,M,,*43",,,,
2022-03-16T16:13:25+01:00,280,47.99,13.80,1007.84,200.00,210.10,0,-127.00,"$GNGGA,151320.000,4900.5302,N,00825.4940,E,0,0,,110.5,M,47.9,M,,*59",,,,
2022-03-16T16:13:45+01:00,281,47.98,13.80,1007.83,199.60,209.60,0,-127.00,"$GNGGA,151340.000,4900.5302,N,00825.4940,E,1,3,9.07,110.5,M,47.9,M,,*4D",,,,
2022-03-16T16:14:06+01:00,282,47.98,13.79,1007.82,204.50,214.80,0,-127.00,"$GNGGA,151401.000,4900.5262,N,00825.4926,E,0,0,,110.5,M,47.9,M,,*5A",,,,
2022-03-16T16:14:27+01:00,283,47.97,13.78,1007.81,215.70,226.50,0,-127.00,"$GNGGA,151422.000,4900.5233,N,00825.4938,E,1,4,7.81,62.6,M,47.9,M,,*72",,,,
2022-03-16T16:14:48+01:00,284,47.97,13.77,1007.81,213.10,223.80,0,-127.00,"$GNGGA,151443.000,4900.5248,N,00825.4939,E,0,0,,64.8,M,47.9,M,,*65",,,,
2022-03-16T16:15:09+01:00,285,47.96,13.78,1007.80,208.40,218.90,0,-127.00,"$GNGGA,151504.000,4900.5248,N,00825.4949,E,6,0,99.99,64.6,M,47.9,M,,*46",,,,
2022-03-16T16:15:29+01:00,286,47.96,13.78,1007.80,206.90,217.30,0,-127.00,"$GNGGA,151524.000,4900.5249,N,00825.4952,E,6,0,99.99,64.6,M,47.9,M,,*4F",,,,
2022-03-16T16:15:49+01:00,287,47.96,13.78,1007.79,204.60,214.90,0,-127.00,"$GNGGA,151544.000,4900.5249,N,00825.4952,E,6,0,99.99,64.6,M,47.9,M,,*49",,,,
2022-03-16T16:16:10+01:00,288,47.95,13.77,1007.78,205.80,216.10,0,-127.00,"$GNGGA,151605.000,4900.5249,N,00825.4952,E,0,1,,64.6,M,47.9,M,,*66",,,,
2022-03-16T16:16:30+01:00,289,47.94,13.79,1007.78,205.50,215.80,0,-127.00,"$GNGGA,151625.000,4900.5208,N,00825.4484,E,0,3,,62.6,M,47.9,M,,*63",,,,
2022-03-16T16:16:50+01:00,290,47.94,13.78,1007.78,208.30,218.80,0,-127.00,"$GNGGA,151645.000,4900.4790,N,00825.4807,E,1,5,1.12,-22.6,M,47.9,M,,*55",,,,
2022-03-16T16:17:11+01:00,291,47.93,13.79,1007.77,202.30,212.50,0,-127.00,"$GNGGA,151706.000,4900.4946,N,00825.4635,E,1,4,6.78,22.6,M,47.9,M,,*7E",,,,
2022-03-16T16:17:31+01:00,292,47.92,13.77,1007.77,194.40,204.20,0,-127.00,"$GNGGA,151726.000,4900.5266,N,00825.5086,E,1,4,6.76,65.8,M,47.9,M,,*78",,,,
2022-03-16T16:17:51+01:00,293,47.92,13.76,1007.77,194.70,204.50,0,-127.00,"$GNGGA,151746.000,4900.5279,N,00825.5218,E,1,4,6.74,68.5,M,47.9,M,,*77",,,,
2022-03-16T16:18:12+01:00,294,47.91,13.76,1007.76,196.60,206.50,0,-127.00,"$GNGGA,151807.000,4900.5291,N,00825.5057,E,1,4,6.72,72.6,M,47.9,M,,*7C",,,,
2022-03-16T16:18:32+01:00,295,47.90,13.76,1007.76,199.20,209.20,0,-127.00,"$GNGGA,151827.000,4900.5292,N,00825.4940,E,1,4,6.70,71.1,M,47.9,M,,*75",,,,
2022-03-16T16:18:53+01:00,296,47.90,13.77,1007.75,199.20,209.20,0,-127.00,"$GNGGA,151848.000,4900.5290,N,00825.5013,E,1,4,6.67,71.6,M,47.9,M,,*71",,,,
2022-03-16T16:19:13+01:00,297,47.89,13.77,1007.75,198.10,208.10,0,-127.00,"$GNGGA,151908.000,4900.5297,N,00825.5214,E,1,4,6.65,69.7,M,47.9,M,,*7C",,,,
2022-03-16T16:19:34+01:00,298,47.89,13.77,1007.75,192.30,202.00,0,-127.00,"$GNGGA,151929.000,4900.5280,N,00825.5187,E,1,4,6.62,69.6,M,47.9,M,,*76",,,,
2022-03-16T16:19:55+01:00,299,47.89,13.74,1007.75,190.60,200.20,0,-127.00,"$GNGGA,151950.000,4900.5289,N,00825.5207,E,1,4,6.59,73.5,M,47.9,M,,*7A",,,,
2022-03-16T16:20:15+01:00,300,47.88,13.75,1007.75,191.10,200.70,0,-127.00,"$GNGGA,152010.000,4900.5299,N,00825.5249,E,1,4,6.57,73.6,M,47.9,M,,*72",,,,
2022-03-16T16:20:35+01:00,301,47.87,13.75,1007.74,194.10,203.90,0,-127.00,"$GNGGA,152030.000,4900.5329,N,00825.5482,E,1,4,6.54,74.6,M,47.9,M,,*7F",,,,
2022-03-16T16:20:56+01:00,302,47.86,13.75,1007.73,195.90,205.70,0,-127.00,"$GNGGA,152051.000,4900.5322,N,00825.5680,E,1,4,6.50,76.4,M,47.9,M,,*77",,,,
2022-03-16T16:21:16+01:00,303,47.85,13.76,1007.73,197.70,207.60,0,-127.00,"$GNGGA,152111.000,4900.5323,N,00825.5596,E,1,4,6.49,77.3,M,47.9,M,,*79",,,,
2022-03-16T16:21:36+01:00,304,47.84,13.74,1007.73,199.70,209.70,0,-127.00,"$GNGGA,152131.000,4900.5305,N,00825.5523,E,1,4,6.45,77.5,M,47.9,M,,*7B",,,,
2022-03-16T16:21:57+01:00,305,47.83,13.76,1007.74,200.60,210.70,0,-127.00,"$GNGGA,152152.000,4900.5279,N,00825.5309,E,1,4,6.42,78.1,M,47.9,M,,*76",,,,
2022-03-16T16:22:17+01:00,306,47.81,13.75,1007.73,201.10,211.20,0,-127.00,"$GNGGA,152212.000,4900.5298,N,00825.5115,E,1,4,6.39,79.9,M,47.9,M,,*74",,,,
2022-03-16T16:22:38+01:00,307,47.80,13.76,1007.74,200.50,210.60,0,-127.00,"$GNGGA,152233.000,4900.5261,N,00825.5037,E,1,4,6.35,81.9,M,47.9,M,,*7B",,,,
2022-03-16T16:22:59+01:00,308,47.78,13.78,1007.75,199.30,209.30,0,-127.00,"$GNGGA,152254.000,4900.5262,N,00825.5188,E,1,4,6.32,83.7,M,47.9,M,,*77",,,,
2022-03-16T16:23:19+01:00,309,47.77,13.79,1007.74,196.30,206.20,0,-127.00,"$GNGGA,152314.000,4900.5281,N,00825.5093,E,1,4,6.28,85.8,M,47.9,M,,*76",,,,
2022-03-16T16:23:40+01:00,310,47.76,13.75,1007.74,198.30,208.30,0,-127.00,"$GNGGA,152335.000,4900.5265,N,00825.4546,E,1,4,6.25,86.8,M,47.9,M,,*7D",,,,
2022-03-16T16:24:00+01:00,311,47.75,13.74,1007.74,202.90,213.10,0,-127.00,"$GNGGA,152355.000,4900.5255,N,00825.4795,E,1,4,6.21,87.9,M,47.9,M,,*70",,,,
2022-03-16T16:24:20+01:00,312,47.75,13.75,1007.74,203.60,213.80,0,-127.00,"$GNGGA,152415.000,4900.5209,N,00825.5038,E,1,4,6.18,88.8,M,47.9,M,,*7F",,,,
2022-03-16T16:24:41+01:00,313,47.74,13.74,1007.74,203.40,213.60,0,-127.00,"$GNGGA,152436.000,4900.5252,N,00825.5071,E,1,4,6.15,89.7,M,47.9,M,,*7E",,,,
2022-03-16T16:25:01+01:00,314,47.73,13.75,1007.73,202.60,212.80,0,-127.00,"$GNGGA,152456.000,4900.5230,N,00825.5161,E,1,4,6.11,90.1,M,47.9,M,,*76",,,,
2022-03-16T16:25:21+01:00,315,47.72,13.75,1007.72,204.90,215.20,0,-127.00,"$GNGGA,152516.000,4900.5226,N,00825.5116,E,1,5,1.09,91.1,M,47.9,M,,*7A",,,,
2022-03-16T16:25:42+01:00,316,47.71,13.76,1007.71,204.60,214.90,0,-127.00,"$GNGGA,152537.000,4900.5235,N,00825.4919,E,1,5,1.10,92.7,M,47.9,M,,*70",,,,
2022-03-16T16:26:02+01:00,317,47.70,13.75,1007.70,200.00,210.10,0,-127.00,"$GNGGA,152557.000,4900.5253,N,00825.4712,E,1,5,1.09,95.3,M,47.9,M,,*78",,,,
2022-03-16T16:26:23+01:00,318,47.70,13.74,1007.70,193.70,203.40,0,-127.00,"$GNGGA,152618.000,4900.5267,N,00825.4920,E,1,5,1.09,97.4,M,47.9,M,,*7D",,,,
2022-03-16T16:26:44+01:00,319,47.69,13.77,1007.70,195.20,205.00,0,-127.00,"$GNGGA,152639.000,4900.5266,N,00825.4985,E,1,5,1.09,99.7,M,47.9,M,,*7D",,,,
2022-03-16T16:27:04+01:00,320,47.68,13.78,1007.70,197.40,207.30,0,-127.00,"$GNGGA,152659.000,4900.5268,N,00825.4950,E,1,5,1.09,100.2,M,47.9,M,,*49",,,,
2022-03-16T16:27:25+01:00,321,47.67,13.77,1007.70,202.10,212.30,0,-127.00,"$GNGGA,152720.000,4900.5307,N,00825.5093,E,1,5,1.08,99.7,M,47.9,M,,*7C",,,,
2022-03-16T16:27:45+01:00,322,47.67,13.76,1007.70,204.20,214.50,0,-127.00,"$GNGGA,152740.000,4900.5327,N,00825.5138,E,1,5,1.08,100.3,M,47.9,M,,*4D",,,,
2022-03-16T16:28:06+01:00,323,47.66,13.74,1007.69,202.90,213.10,0,-127.00,"$GNGGA,152801.000,4900.5326,N,00825.5158,E,1,5,1.08,102.1,M,47.9,M,,*40",,,,
2022-03-16T16:28:27+01:00,324,47.65,13.75,1007.68,202.70,212.90,0,-127.00,"$GNGGA,152822.000,4900.5240,N,00825.4705,E,1,5,1.08,101.8,M,47.9,M,,*45",,,,
2022-03-16T16:28:47+01:00,325,47.64,13.76,1007.67,201.10,211.20,0,-127.00,"$GNGGA,152842.000,4900.5278,N,00825.4791,E,1,5,1.08,101.8,M,47.9,M,,*45",,,,
2022-03-16T16:29:07+01:00,326,47.63,13.75,1007.67,200.90,211.00,0,-127.00,"$GNGGA,152902.000,4900.5257,N,00825.4743,E,1,5,1.08,105.5,M,47.9,M,,*4B",,,,
2022-03-16T16:29:28+01:00,327,47.62,13.74,1007.66,195.00,204.80,0,-127.00,"$GNGGA,152923.000,4900.5293,N,00825.4694,E,1,5,1.08,105.2,M,47.9,M,,*4C",,,,
2022-03-16T16:29:48+01:00,328,47.61,13.77,1007.67,195.40,205.20,0,-127.00,"$GNGGA,152943.000,4900.5280,N,00825.4663,E,1,5,1.08,105.5,M,47.9,M,,*47",,,,
2022-03-16T16:30:08+01:00,329,47.60,13.75,1007.65,195.80,205.60,0,-127.00,"$GNGGA,153003.000,4900.5228,N,00825.4659,E,1,5,1.07,106.2,M,47.9,M,,*4B",,,,
2022-03-16T16:30:29+01:00,330,47.59,13.75,1007.65,197.90,207.80,0,-127.00,"$GNGGA,153024.000,4900.5210,N,00825.4670,E,1,5,1.07,107.2,M,47.9,M,,*4F",,,,
2022-03-16T16:30:49+01:00,331,47.58,13.77,1007.65,197.20,207.10,0,-127.00,"$GNGGA,153044.000,4900.5210,N,00825.4307,E,1,5,1.07,107.5,M,47.9,M,,*4B",,,,
2022-03-16T16:31:10+01:00,332,47.57,13.75,1007.65,195.90,205.70,0,-127.00,"$GNGGA,153105.000,4900.5242,N,00825.4347,E,1,5,1.07,109.9,M,47.9,M,,*4E",,,,
2022-03-16T16:31:30+01:00,333,47.56,13.76,1007.64,196.70,206.60,0,-127.00,"$GNGGA,153125.000,4900.5243,N,00825.4611,E,1,4,5.42,112.8,M,47.9,M,,*44",,,,
2022-03-16T16:31:50+01:00,334,47.56,13.74,1007.62,196.00,205.90,0,-127.00,"$GNGGA,153145.000,4900.5279,N,00825.4816,E,1,4,5.38,114.6,M,47.9,M,,*47",,,,
2022-03-16T16:32:11+01:00,335,47.55,13.74,1007.62,199.20,209.20,0,-127.00,"$GNGGA,153206.000,4900.5228,N,00825.4554,E,1,3,12.88,116.1,M,47.9,M,,*73",,,,
2022-03-16T16:32:31+01:00,336,47.54,13.76,1007.63,203.40,213.60,0,-127.00,"$GNGGA,153226.000,4900.5228,N,00825.4566,E,1,3,12.95,116.1,M,47.9,M,,*7C",,,,
2022-03-16T16:32:51+01:00,337,47.53,13.75,1007.62,204.50,214.80,0,-127.00,"$GNGGA,153246.000,4900.5068,N,00825.4276,E,1,3,13.02,116.1,M,47.9,M,,*75",,,,
2022-03-16T16:33:12+01:00,338,47.52,13.77,1007.61,205.80,216.10,0,-127.00,"$GNGGA,153307.000,4900.5225,N,00825.4510,E,1,4,2.12,115.9,M,47.9,M,,*40",,,,
2022-03-16T16:33:32+01:00,339,47.50,13.79,1007.61,204.70,215.00,0,-127.00,"$GNGGA,153327.000,4900.5294,N,00825.4607,E,1,5,1.07,113.7,M,47.9,M,,*43",,,,
2022-03-16T16:33:52+01:00,340,47.50,13.78,1007.59,204.80,215.10,0,-127.00,"$GNGGA,153347.000,4900.5269,N,00825.4520,E,1,5,1.07,112.8,M,47.9,M,,*4F",,,,
2022-03-16T16:34:13+01:00,341,47.48,13.77,1007.58,205.20,215.50,0,-127.00,"$GNGGA,153408.000,4900.5211,N,00825.4446,E,1,5,1.06,114.2,M,47.9,M,,*40",,,,
2022-03-16T16:34:33+01:00,342,47.47,13.77,1007.57,210.20,220.80,0,-127.00,"$GNGGA,153428.000,4900.5207,N,00825.4412,E,1,4,5.11,117.5,M,47.9,M,,*43",,,,
2022-03-16T16:34:53+01:00,343,47.46,13.77,1007.56,212.20,222.90,0,-127.00,"$GNGGA,153448.000,4900.5229,N,00825.4486,E,1,4,21.74,119.9,M,47.9,M,,*73",,,,
2022-03-16T16:35:14+01:00,344,47.45,13.76,1007.56,212.30,223.00,0,-127.00,"$GNGGA,153509.000,4900.5254,N,00825.4540,E,1,4,22.45,121.8,M,47.9,M,,*7D",,,,
2022-03-16T16:35:35+01:00,345,47.44,13.79,1007.55,210.10,220.70,0,-127.00,"$GNGGA,153530.000,4900.5273,N,00825.4504,E,1,4,5.01,123.9,M,47.9,M,,*44",,,,
2022-03-16T16:35:55+01:00,346,47.43,13.77,1007.54,208.80,219.30,0,-127.00,"$GNGGA,153550.000,4900.5250,N,00825.4327,E,1,4,4.98,124.9,M,47.9,M,,*42",,,,
2022-03-16T16:36:16+01:00,347,47.42,13.76,1007.54,212.70,223.40,0,-127.00,"$GNGGA,153611.000,4900.5114,N,00825.3937,E,1,4,4.95,124.6,M,47.9,M,,*49",,,,
2022-03-16T16:36:36+01:00,348,47.40,13.77,1007.54,212.00,222.70,0,-127.00,"$GNGGA,153631.000,4900.5237,N,00825.4474,E,1,4,4.92,125.8,M,47.9,M,,*4C",,,,
2022-03-16T16:36:56+01:00,349,47.40,13.76,1007.52,214.20,225.00,0,-127.00,"$GNGGA,153651.000,4900.5245,N,00825.4336,E,1,4,4.88,125.3,M,47.9,M,,*4E",,,,
2022-03-16T16:37:17+01:00,350,47.38,13.76,1007.51,208.60,219.10,0,-127.00,"$GNGGA,153712.000,4900.5209,N,00825.4288,E,1,4,4.85,124.8,M,47.9,M,,*43",,,,
2022-03-16T16:37:37+01:00,351,47.37,13.76,1007.50,209.90,220.40,0,-127.00,"$GNGGA,153732.000,4900.5218,N,00825.4489,E,1,4,4.82,125.1,M,47.9,M,,*49",,,,
2022-03-16T16:37:57+01:00,352,47.36,13.78,1007.49,207.30,217.70,0,-127.00,"$GNGGA,153752.000,4900.5222,N,00825.4518,E,1,4,4.79,125.5,M,47.9,M,,*4F",,,,
2022-03-16T16:38:18+01:00,353,47.34,13.79,1007.47,210.40,221.00,0,-127.00,"$GNGGA,153813.000,4900.5274,N,00825.4494,E,1,4,4.76,126.0,M,47.9,M,,*4A",,,,
2022-03-16T16:38:38+01:00,354,47.33,13.80,1007.46,209.10,219.60,0,-127.00,"$GNGGA,153833.000,4900.5225,N,00825.4345,E,1,4,4.73,126.7,M,47.9,M,,*45",,,,
2022-03-16T16:38:59+01:00,355,47.32,13.79,1007.46,208.20,218.70,0,-127.00,"$GNGGA,153854.000,4900.5214,N,00825.4511,E,1,4,4.70,126.7,M,47.9,M,,*42",,,,
2022-03-16T16:39:20+01:00,356,47.31,13.79,1007.43,207.10,217.50,0,-127.00,"$GNGGA,153915.000,4900.5237,N,00825.4574,E,1,4,4.67,126.8,M,47.9,M,,*4D",,,,
2022-03-16T16:39:40+01:00,357,47.29,13.80,1007.42,208.10,218.60,0,-127.00,"$GNGGA,153935.000,4900.5232,N,00825.4313,E,1,4,4.65,125.8,M,47.9,M,,*4C",,,,
2022-03-16T16:40:00+01:00,358,47.28,13.80,1007.42,208.60,219.10,0,-127.00,"$GNGGA,153955.000,4900.5204,N,00825.4121,E,1,4,1.23,125.4,M,47.9,M,,*47",,,,
2022-03-16T16:40:21+01:00,359,47.28,13.80,1007.41,207.60,218.00,0,-127.00,"$GNGGA,154016.000,4900.5238,N,00825.4330,E,1,4,4.59,124.3,M,47.9,M,,*4D",,,,
2022-03-16T16:40:41+01:00,360,47.26,13.80,1007.40,204.40,214.70,0,-127.00,"$GNGGA,154036.000,4900.5223,N,00825.4706,E,1,4,4.56,125.3,M,47.9,M,,*4A",,,,
2022-03-16T16:41:02+01:00,361,47.26,13.81,1007.39,207.20,217.60,0,-127.00,"$GNGGA,154057.000,4900.5215,N,00825.4214,E,1,4,4.54,125.0,M,47.9,M,,*4F",,,,
2022-03-16T16:41:22+01:00,362,47.25,13.81,1007.39,211.10,221.70,0,-127.00,"$GNGGA,154117.000,4900.5213,N,00825.3932,E,1,4,4.51,124.2,M,47.9,M,,*42",,,,
2022-03-16T16:41:42+01:00,363,47.24,13.80,1007.38,212.40,223.10,0,-127.00,"$GNGGA,154137.000,4900.5239,N,00825.4590,E,1,4,4.48,124.7,M,47.9,M,,*46",,,,
2022-03-16T16:42:03+01:00,364,47.23,13.79,1007.37,211.80,222.40,0,-127.00,"$GNGGA,154158.000,4900.5227,N,00825.4428,E,6,3,7.59,124.6,M,47.9,M,,*40",,,,
2022-03-16T16:42:23+01:00,365,47.22,13.80,1007.36,206.80,217.20,0,-127.00,"$GNGGA,154218.000,4900.5235,N,00825.4100,E,1,3,7.48,124.7,M,47.9,M,,*4D",,,,
2022-03-16T16:42:43+01:00,366,47.21,13.80,1007.36,205.60,215.90,0,-127.00,"$GNGGA,154238.000,4900.5233,N,00825.3831,E,1,3,7.37,124.8,M,47.9,M,,*42",,,,
2022-03-16T16:43:04+01:00,367,47.20,13.80,1007.36,201.50,211.60,0,-127.00,"$GNGGA,154259.000,4900.5271,N,00825.4304,E,1,3,7.27,124.7,M,47.9,M,,*47",,,,
2022-03-16T16:43:24+01:00,368,47.18,13.80,1007.36,205.30,215.60,0,-127.00,"$GNGGA,154319.000,4900.5205,N,00825.4248,E,6,3,7.18,124.2,M,47.9,M,,*46",,,,
2022-03-16T16:43:44+01:00,369,47.17,13.81,1007.35,203.40,213.60,0,-127.00,"$GNGGA,154339.000,4900.5228,N,00825.4666,E,1,3,7.08,124.2,M,47.9,M,,*45",,,,
2022-03-16T16:44:05+01:00,370,47.16,13.82,1007.35,203.90,214.10,0,-127.00,"$GNGGA,154400.000,4900.5387,N,00825.5477,E,6,2,99.99,124.2,M,47.9,M,,*76",,,,
2022-03-16T16:44:25+01:00,371,47.15,13.82,1007.35,198.80,208.80,0,-127.00,"$GNGGA,154420.000,4900.5265,N,00825.4667,E,1,3,6.90,124.3,M,47.9,M,,*43",,,,
2022-03-16T16:44:46+01:00,372,47.14,13.82,1007.35,198.90,208.90,0,-127.00,"$GNGGA,154441.000,4900.5199,N,00825.4053,E,0,2,,124.3,M,47.9,M,,*54",,,,
2022-03-16T16:45:07+01:00,373,47.12,13.84,1007.35,198.10,208.10,0,-127.00,"$GNGGA,154502.000,4900.5180,N,00825.4010,E,6,2,99.99,124.2,M,47.9,M,,*74",,,,
2022-03-16T16:45:27+01:00,374,47.11,13.84,1007.36,198.20,208.20,0,-127.00,"$GNGGA,154522.000,4900.5181,N,00825.4010,E,6,2,99.99,124.1,M,47.9,M,,*74",,,,
2022-03-16T16:45:48+01:00,375,47.10,13.84,1007.35,194.70,204.50,0,-127.00,"$GNGGA,154543.000,4900.5179,N,00825.4010,E,0,2,,124.3,M,47.9,M,,*5E",,,,
2022-03-16T16:46:09+01:00,376,47.09,13.82,1007.35,192.60,202.30,0,-127.00,"$GNGGA,154604.000,4900.5178,N,00825.4012,E,6,2,99.99,124.5,M,47.9,M,,*73",,,,
2022-03-16T16:46:29+01:00,377,47.07,13.83,1007.36,191.00,200.60,0,-127.00,"$GNGGA,154624.000,4900.5179,N,00825.4012,E,6,2,99.99,124.4,M,47.9,M,,*71",,,,
2022-03-16T16:46:50+01:00,378,47.06,13.84,1007.36,195.30,205.10,0,-127.00,"$GNGGA,154645.000,4900.5179,N,00825.4012,E,1,3,6.32,124.4,M,47.9,M,,*47",,,,
2022-03-16T16:47:11+01:00,379,47.05,13.84,1007.36,194.40,204.20,0,-127.00,"$GNGGA,154706.000,4900.5180,N,00825.4021,E,1,3,6.25,124.7,M,47.9,M,,*42",,,,
2022-03-16T16:47:31+01:00,380,47.03,13.85,1007.36,194.40,204.20,0,-127.00,"$GNGGA,154726.000,4900.5180,N,00825.4019,E,1,3,6.18,124.5,M,47.9,M,,*47",,,,
2022-03-16T16:47:51+01:00,381,47.02,13.83,1007.36,194.90,204.70,0,-127.00,"$GNGGA,154746.000,4900.5185,N,00825.4017,E,1,3,6.12,124.3,M,47.9,M,,*46",,,,
2022-03-16T16:48:15+01:00,382,47.01,13.86,1007.37,204.00,214.30,0,-127.00,"$GNGGA,154810.000,4900.5162,N,00825.3943,E,1,3,6.03,124.3,M,47.9,M,,*4C",,,,
2022-03-16T16:48:36+01:00,383,47.00,13.88,1007.38,207.20,217.60,0,-127.00,"$GNGGA,154831.000,4900.5130,N,00825.3562,E,0,2,,124.3,M,47.9,M,,*5C",,,,
2022-03-16T16:48:56+01:00,384,46.99,13.87,1007.38,203.80,214.00,0,-127.00,"$GNGGA,154851.000,4900.5127,N,00825.3528,E,0,2,,124.4,M,47.9,M,,*55",,,,
2022-03-16T16:49:17+01:00,385,46.98,13.88,1007.38,197.40,207.30,0,-127.00,"$GNGGA,154912.000,4900.5130,N,00825.3529,E,0,2,,124.4,M,47.9,M,,*54",,,,
2022-03-16T16:49:37+01:00,386,46.96,13.90,1007.38,199.20,209.20,0,-127.00,"$GNGGA,154932.000,4900.5131,N,00825.3529,E,0,2,,124.4,M,47.9,M,,*57",,,,
2022-03-16T16:49:57+01:00,387,46.95,13.95,1007.39,201.80,211.90,0,-127.00,"$GNGGA,154952.000,4900.5129,N,00825.3531,E,6,2,99.99,124.5,M,47.9,M,,*78",,,,
2022-03-16T16:50:18+01:00,388,46.94,13.90,1007.40,204.80,215.10,0,-127.00,"$GNGGA,155013.000,4900.5129,N,00825.3531,E,0,2,,124.5,M,47.9,M,,*5D",,,,
2022-03-16T16:50:38+01:00,389,46.93,13.95,1007.39,203.10,213.30,0,-127.00,"$GNGGA,155033.000,4900.5129,N,00825.3531,E,6,2,99.99,124.5,M,47.9,M,,*77",,,,
2022-03-16T16:50:58+01:00,390,46.92,13.98,1007.39,200.20,210.30,0,-127.00,"$GNGGA,155053.000,4900.5129,N,00825.3531,E,0,2,,124.5,M,47.9,M,,*59",,,,
2022-03-16T16:51:19+01:00,391,46.90,13.93,1007.39,201.20,211.30,0,-127.00,"$GNGGA,155114.000,4900.5128,N,00825.3531,E,0,0,,124.4,M,47.9,M,,*59",,,,
2022-03-16T16:51:39+01:00,392,46.89,13.89,1007.39,204.20,214.50,0,-127.00,"$GNGGA,155134.000,4900.5316,N,00825.3258,E,6,2,99.99,122.9,M,47.9,M,,*7D",,,,
2022-03-16T16:51:59+01:00,393,46.88,13.89,1007.39,204.00,214.30,0,-127.00,"$GNGGA,155154.000,4900.5315,N,00825.3257,E,6,2,99.99,123.1,M,47.9,M,,*7E",,,,
2022-03-16T16:52:20+01:00,394,46.87,13.87,1007.38,198.70,208.70,0,-127.00,"$GNGGA,155215.000,4900.5313,N,00825.3259,E,6,2,99.99,123.3,M,47.9,M,,*72",,,,
2022-03-16T16:52:40+01:00,395,46.85,13.88,1007.37,196.40,206.30,0,-127.00,"$GNGGA,155235.000,4900.5312,N,00825.3260,E,1,3,2.39,123.5,M,47.9,M,,*43",,,,
