created_at,entry_id,field1,field2,field3,field4,field5,field6,field7,field8,latitude,longitude,elevation,status
2022-02-09T18:18:29+01:00,1,18.72,39.40,1011.76,317.90,333.80,0,17.00,"$GNGGA,171824.095,4900.4690,N,00824.7462,E,0,0,,127.7,M,47.9,M,,*5E",,,,
2022-02-09T18:18:49+01:00,2,18.71,39.42,1011.78,184.20,193.50,0,17.50,"$GNGGA,171844.303,4900.5251,N,00825.4790,E,0,5,,164.2,M,47.9,M,,*57",,,,
2022-02-09T18:19:10+01:00,3,18.89,38.74,1011.79,176.00,184.90,0,17.50,"$GNGGA,171905.000,4900.5200,N,00825.5529,E,1,6,1.21,209.3,M,47.9,M,,*41",,,,
2022-02-09T18:19:31+01:00,4,19.16,37.29,1011.80,169.00,177.50,0,17.50,"$GNGGA,171926.000,4900.5159,N,00825.5541,E,1,6,1.21,211.0,M,47.9,M,,*4B",,,,
2022-02-09T18:19:52+01:00,5,19.50,36.60,1011.81,173.50,182.20,0,17.50,"$GNGGA,171947.000,4900.5176,N,00825.5589,E,1,6,1.21,212.7,M,47.9,M,,*41",,,,
2022-02-09T18:20:13+01:00,6,19.88,37.77,1011.81,66.00,69.40,0,19.00,"$GNGGA,172008.000,4900.5131,N,00825.5545,E,0,0,,214.1,M,47.9,M,,*58",,,,
2022-02-09T18:20:34+01:00,7,20.22,35.09,1011.89,37.50,39.40,0,20.50,"$GNGGA,172029.000,4900.5136,N,00825.5554,E,0,0,,214.1,M,47.9,M,,*5C",,,,
2022-02-09T18:20:54+01:00,8,20.50,34.15,1011.96,29.60,31.10,0,19.50,"$GNGGA,172049.000,4900.5136,N,00825.5554,E,0,0,,214.1,M,47.9,M,,*5A",,,,
2022-02-09T18:21:15+01:00,9,20.78,34.06,1012.00,14.90,15.70,0,19.00,"$GNGGA,172110.000,4900.5861,N,00825.4271,E,0,2,,212.4,M,47.9,M,,*5C",,,,
2022-02-09T18:21:36+01:00,10,21.05,34.36,1012.41,16.00,16.90,0,19.00,"$GNGGA,172131.000,4900.5142,N,00825.5562,E,0,0,,214.1,M,47.9,M,,*52",,,,
2022-02-09T18:21:56+01:00,11,21.24,31.59,1012.73,18.50,19.50,0,17.50,"$GNGGA,172151.000,4900.5246,N,00825.4101,E,1,4,1.68,116.5,M,47.9,M,,*42",,,,
2022-02-09T18:22:16+01:00,12,21.31,29.80,1012.97,19.60,20.60,0,16.00,"$GNGGA,172211.000,4900.5184,N,00825.4154,E,1,7,1.06,103.1,M,47.9,M,,*43",,,,
2022-02-09T18:22:37+01:00,13,21.13,29.58,1013.15,19.60,20.60,0,14.50,"$GNGGA,172232.000,4900.5075,N,00825.4201,E,1,7,1.06,115.0,M,47.9,M,,*48",,,,
2022-02-09T18:22:58+01:00,14,20.68,30.43,1013.29,18.90,19.90,0,13.50,"$GNGGA,172253.000,4900.4959,N,00825.4314,E,1,7,1.19,121.2,M,47.9,M,,*47",,,,
2022-02-09T18:23:19+01:00,15,20.27,32.03,1013.37,19.40,20.40,0,14.00,"$GNGGA,172314.000,4900.4945,N,00825.4155,E,1,8,0.99,122.9,M,47.9,M,,*41",,,,
2022-02-09T18:23:40+01:00,16,19.86,33.03,1013.43,20.00,21.10,0,14.00,"$GNGGA,172335.000,4900.4926,N,00825.4122,E,1,7,1.16,114.6,M,47.9,M,,*44",,,,
2022-02-09T18:24:01+01:00,17,19.54,33.25,1013.48,21.00,22.10,0,14.00,"$GNGGA,172356.000,4900.4938,N,00825.4240,E,1,5,1.50,112.9,M,47.9,M,,*40",,,,
2022-02-09T18:24:22+01:00,18,19.21,33.29,1013.52,20.90,22.00,0,14.00,"$GNGGA,172417.000,4900.4928,N,00825.4262,E,1,5,1.40,113.0,M,47.9,M,,*4A",,,,
2022-02-09T18:24:43+01:00,19,18.85,33.72,1013.56,20.10,21.20,0,14.00,"$GNGGA,172438.000,4900.4915,N,00825.4241,E,2,6,1.24,117.9,M,47.9,M,,*47",,,,
2022-02-09T18:25:04+01:00,20,18.50,34.26,1013.58,18.70,19.70,0,13.50,"$GNGGA,172459.000,4900.4944,N,00825.4303,E,2,7,1.06,118.7,M,47.9,M,,*43",,,,
2022-02-09T18:25:25+01:00,21,18.18,35.10,1013.61,18.60,19.60,0,13.50,"$GNGGA,172520.000,4900.4934,N,00825.4211,E,2,3,74.95,128.7,M,47.9,M,,*76",,,,
2022-02-09T18:25:46+01:00,22,17.95,35.40,1013.64,20.30,21.40,0,13.00,"$GNGGA,172541.000,4900.4816,N,00825.4114,E,2,7,1.05,129.7,M,47.9,M,,*48",,,,
2022-02-09T18:26:06+01:00,23,17.66,35.63,1013.64,22.40,23.60,0,13.00,"$GNGGA,172601.000,4900.4931,N,00825.4245,E,2,7,1.05,134.5,M,47.9,M,,*42",,,,
2022-02-09T18:26:27+01:00,24,17.40,36.09,1013.64,25.10,26.40,0,13.50,"$GNGGA,172622.000,4900.4905,N,00825.4372,E,2,9,0.92,142.8,M,47.9,M,,*4C",,,,
2022-02-09T18:26:48+01:00,25,17.17,36.46,1013.64,26.40,27.80,0,13.50,"$GNGGA,172643.000,4900.4896,N,00825.4370,E,2,9,0.90,144.6,M,47.9,M,,*48",,,,
2022-02-09T18:27:09+01:00,26,16.85,37.07,1013.65,26.40,27.80,0,13.00,"$GNGGA,172704.000,4900.4764,N,00825.4329,E,2,9,0.92,147.7,M,47.9,M,,*44",,,,
2022-02-09T18:27:30+01:00,27,16.47,38.05,1013.66,26.50,27.90,0,12.50,"$GNGGA,172725.000,4900.4809,N,00825.3658,E,2,10,0.82,122.2,M,47.9,M,,*78",,,,
2022-02-09T18:27:51+01:00,28,16.06,39.03,1013.67,26.30,27.70,0,12.50,"$GNGGA,172746.000,4900.4946,N,00825.2941,E,2,11,0.83,111.1,M,47.9,M,,*72",,,,
2022-02-09T18:28:12+01:00,29,15.65,39.95,1013.68,26.20,27.60,0,12.50,"$GNGGA,172807.000,4900.5082,N,00825.2307,E,2,11,0.83,110.7,M,47.9,M,,*77",,,,
2022-02-09T18:28:33+01:00,30,15.28,40.71,1013.67,27.00,28.40,0,12.50,"$GNGGA,172828.000,4900.5215,N,00825.1740,E,2,11,0.83,109.8,M,47.9,M,,*75",,,,
2022-02-09T18:28:54+01:00,31,15.00,41.09,1013.66,26.80,28.20,0,12.50,"$GNGGA,172849.000,4900.5205,N,00825.1285,E,2,11,0.81,111.9,M,47.9,M,,*75",,,,
2022-02-09T18:29:15+01:00,32,14.79,41.37,1013.66,26.00,27.40,0,12.50,"$GNGGA,172910.000,4900.5205,N,00825.1289,E,2,11,0.81,113.5,M,47.9,M,,*7A",,,,
2022-02-09T18:29:36+01:00,33,14.58,41.58,1013.66,25.50,26.80,0,12.00,"$GNGGA,172931.000,4900.5160,N,00825.0974,E,2,11,0.83,114.7,M,47.9,M,,*76",,,,
2022-02-09T18:29:57+01:00,34,14.32,42.12,1013.65,26.00,27.40,0,12.00,"$GNGGA,172952.000,4900.5273,N,00825.0382,E,2,11,0.83,111.9,M,47.9,M,,*7A",,,,
2022-02-09T18:30:18+01:00,35,13.98,42.98,1013.67,26.90,28.30,0,11.50,"$GNGGA,173013.000,4900.5349,N,00824.9755,E,2,11,0.83,110.7,M,47.9,M,,*76",,,,
2022-02-09T18:30:39+01:00,36,13.60,44.43,1013.68,28.00,29.50,0,11.50,"$GNGGA,173034.000,4900.5150,N,00824.9244,E,2,9,1.04,120.5,M,47.9,M,,*4A",,,,
2022-02-09T18:31:00+01:00,37,13.24,45.48,1013.68,29.50,31.00,0,11.50,"$GNGGA,173055.000,4900.4902,N,00824.8735,E,2,11,0.83,119.1,M,47.9,M,,*78",,,,
2022-02-09T18:31:21+01:00,38,12.97,46.24,1013.67,31.10,32.70,0,11.50,"$GNGGA,173116.000,4900.4710,N,00824.8288,E,2,10,0.96,118.4,M,47.9,M,,*71",,,,
2022-02-09T18:31:43+01:00,39,12.79,46.35,1013.67,29.20,30.70,0,11.50,"$GNGGA,173137.000,4900.4584,N,00824.7797,E,2,11,0.81,131.8,M,47.9,M,,*79",,,,
2022-02-09T18:32:03+01:00,40,12.59,46.59,1013.66,28.30,29.80,0,11.00,"$GNGGA,173158.000,4900.4738,N,00824.7221,E,2,11,0.81,141.4,M,47.9,M,,*76",,,,
2022-02-09T18:32:24+01:00,41,12.40,47.04,1013.65,26.60,28.00,0,11.50,"$GNGGA,173219.000,4900.4706,N,00824.6670,E,2,11,0.83,134.4,M,47.9,M,,*7C",,,,
2022-02-09T18:32:45+01:00,42,12.30,47.05,1013.64,25.60,26.90,0,11.50,"$GNGGA,173240.000,4900.4677,N,00824.6256,E,2,10,0.91,147.4,M,47.9,M,,*71",,,,
2022-02-09T18:33:06+01:00,43,12.21,46.98,1013.62,24.70,26.00,0,11.50,"$GNGGA,173301.000,4900.4710,N,00824.5779,E,2,11,0.81,134.2,M,47.9,M,,*7C",,,,
2022-02-09T18:33:27+01:00,44,12.10,47.16,1013.61,25.30,26.60,0,11.50,"$GNGGA,173322.000,4900.4627,N,00824.5239,E,2,11,0.83,125.1,M,47.9,M,,*78",,,,
2022-02-09T18:33:48+01:00,45,11.97,47.59,1013.61,26.60,28.00,0,11.00,"$GNGGA,173343.000,4900.4502,N,00824.4594,E,2,10,0.91,128.7,M,47.9,M,,*73",,,,
2022-02-09T18:34:09+01:00,46,11.81,48.19,1013.63,26.20,27.60,0,11.00,"$GNGGA,173404.000,4900.4366,N,00824.3925,E,2,10,0.88,120.2,M,47.9,M,,*77",,,,
2022-02-09T18:34:30+01:00,47,11.71,48.31,1013.65,28.80,30.30,0,11.00,"$GNGGA,173425.000,4900.4287,N,00824.3351,E,2,9,0.97,124.7,M,47.9,M,,*44",,,,
2022-02-09T18:34:51+01:00,48,11.62,48.28,1013.64,30.30,31.90,0,11.00,"$GNGGA,173446.000,4900.4171,N,00824.2692,E,2,10,0.91,126.9,M,47.9,M,,*72",,,,
2022-02-09T18:35:12+01:00,49,11.56,48.35,1013.63,29.00,30.50,0,11.00,"$GNGGA,173507.000,4900.4086,N,00824.2111,E,2,11,0.81,127.5,M,47.9,M,,*7E",,,,
2022-02-09T18:35:33+01:00,50,11.60,48.59,1013.61,24.10,25.40,0,11.00,"$GNGGA,173528.000,4900.4084,N,00824.2125,E,2,11,0.81,137.9,M,47.9,M,,*7B",,,,
2022-02-09T18:35:54+01:00,51,11.71,49.49,1013.59,24.10,25.40,0,11.50,"$GNGGA,173549.000,4900.4102,N,00824.2153,E,2,11,0.88,143.0,M,47.9,M,,*71",,,,
2022-02-09T18:48:55+01:00,52,23.84,27.80,1013.62,21.60,22.70,0,19.00,"$GNGGA,174850.000,4900.4203,N,00824.2149,E,1,7,1.06,158.4,M,47.9,M,,*47",,,,
2022-02-09T18:49:16+01:00,53,23.58,27.75,1013.63,26.10,27.50,0,17.00,"$GNGGA,174911.000,4900.4212,N,00824.2142,E,1,7,1.12,156.8,M,47.9,M,,*4F",,,,
2022-02-09T18:49:37+01:00,54,23.38,28.33,1013.63,31.30,32.90,0,16.50,"$GNGGA,174932.000,4900.4196,N,00824.2201,E,1,7,1.06,166.3,M,47.9,M,,*48",,,,
2022-02-09T18:49:58+01:00,55,23.20,28.06,1013.64,36.90,38.80,0,16.00,"$GNGGA,174953.000,4900.4210,N,00824.2226,E,1,7,1.06,178.7,M,47.9,M,,*4C",,,,
2022-02-09T18:50:18+01:00,56,23.03,27.96,1013.64,40.60,42.70,0,16.00,"$GNGGA,175013.000,4900.4304,N,00824.2112,E,1,8,1.01,173.4,M,47.9,M,,*40",,,,
2022-02-09T18:50:39+01:00,57,22.82,28.12,1013.64,41.70,43.80,0,16.00,"$GNGGA,175034.000,4900.4254,N,00824.2155,E,1,8,1.01,174.6,M,47.9,M,,*47",,,,
2022-02-09T18:51:00+01:00,58,22.46,28.22,1013.63,38.80,40.80,0,15.50,"$GNGGA,175055.000,4900.4184,N,00824.2207,E,1,8,1.21,176.5,M,47.9,M,,*49",,,,
2022-02-09T18:51:21+01:00,59,22.02,28.91,1013.62,34.10,35.90,0,15.00,"$GNGGA,175116.000,4900.4213,N,00824.2192,E,1,9,1.20,174.9,M,47.9,M,,*43",,,,
2022-02-09T18:51:42+01:00,60,21.46,29.74,1013.61,30.10,31.70,0,14.50,"$GNGGA,175137.000,4900.4324,N,00824.2177,E,1,9,1.21,166.4,M,47.9,M,,*41",,,,
2022-02-09T18:52:04+01:00,61,20.89,30.82,1013.60,29.50,31.00,0,14.00,"$GNGGA,175158.000,4900.4288,N,00824.2255,E,1,10,0.96,146.1,M,47.9,M,,*7E",,,,
2022-02-09T18:52:24+01:00,62,20.46,31.59,1013.59,29.10,30.60,0,14.50,"$GNGGA,175219.000,4900.4281,N,00824.2400,E,1,11,0.94,142.8,M,47.9,M,,*79",,,,
2022-02-09T18:52:45+01:00,63,20.03,31.91,1013.59,29.60,31.10,0,14.50,"$GNGGA,175240.000,4900.4470,N,00824.2322,E,2,11,1.00,140.9,M,47.9,M,,*76",,,,
2022-02-09T18:53:06+01:00,64,19.63,32.40,1013.59,29.30,30.80,0,14.00,"$GNGGA,175301.000,4900.4580,N,00824.2310,E,2,11,0.95,140.5,M,47.9,M,,*7C",,,,
2022-02-09T18:53:27+01:00,65,19.29,32.80,1013.60,28.90,30.40,0,14.00,"$GNGGA,175322.000,4900.4727,N,00824.2271,E,2,11,1.00,136.9,M,47.9,M,,*74",,,,
2022-02-09T18:53:49+01:00,66,18.90,33.25,1013.60,28.60,30.10,0,13.50,"$GNGGA,175344.000,4900.4848,N,00824.2455,E,2,9,1.27,125.5,M,47.9,M,,*40",,,,
2022-02-09T18:54:10+01:00,67,18.52,33.98,1013.59,28.10,29.60,0,13.50,"$GNGGA,175405.000,4900.4903,N,00824.2692,E,2,10,1.18,131.0,M,47.9,M,,*71",,,,
2022-02-09T18:54:31+01:00,68,18.14,34.60,1013.59,28.20,29.70,0,13.50,"$GNGGA,175426.000,4900.4937,N,00824.2898,E,2,11,0.95,141.6,M,47.9,M,,*77",,,,
2022-02-09T18:54:52+01:00,69,17.73,35.39,1013.58,28.20,29.70,0,13.50,"$GNGGA,175447.000,4900.4926,N,00824.3131,E,2,10,1.18,140.0,M,47.9,M,,*79",,,,
2022-02-09T18:55:13+01:00,70,17.37,36.29,1013.58,28.60,30.10,0,13.50,"$GNGGA,175508.000,4900.4894,N,00824.3253,E,2,11,0.95,138.7,M,47.9,M,,*71",,,,
2022-02-09T18:55:34+01:00,71,17.13,36.44,1013.58,28.30,29.80,0,13.50,"$GNGGA,175529.000,4900.4873,N,00824.3205,E,2,9,1.28,142.5,M,47.9,M,,*49",,,,
2022-02-09T18:55:55+01:00,72,16.87,36.74,1013.57,27.90,29.30,0,13.00,"$GNGGA,175550.000,4900.4733,N,00824.3344,E,2,12,0.84,146.7,M,47.9,M,,*73",,,,
2022-02-09T18:56:16+01:00,73,16.56,37.37,1013.58,27.30,28.70,0,13.00,"$GNGGA,175611.000,4900.4603,N,00824.3395,E,2,11,1.07,146.4,M,47.9,M,,*71",,,,
2022-02-09T18:56:37+01:00,74,16.22,38.03,1013.57,28.40,29.90,0,13.00,"$GNGGA,175632.000,4900.4392,N,00824.3522,E,2,11,1.06,147.6,M,47.9,M,,*75",,,,
2022-02-09T18:56:58+01:00,75,16.01,38.46,1013.57,27.90,29.30,0,13.00,"$GNGGA,175653.000,4900.4341,N,00824.3616,E,2,12,0.84,145.4,M,47.9,M,,*70",,,,
2022-02-09T18:57:19+01:00,76,15.87,38.56,1013.57,27.20,28.60,0,13.00,"$GNGGA,175714.000,4900.4297,N,00824.3894,E,2,11,1.06,140.2,M,47.9,M,,*77",,,,
2022-02-09T18:57:40+01:00,77,15.80,38.60,1013.55,25.20,26.50,0,13.00,"$GNGGA,175735.000,4900.4306,N,00824.4139,E,2,11,1.05,139.1,M,47.9,M,,*7A",,,,
2022-02-09T18:58:01+01:00,78,15.79,38.52,1013.54,24.40,25.70,0,13.00,"$GNGGA,175756.000,4900.4274,N,00824.4334,E,2,12,0.84,143.6,M,47.9,M,,*75",,,,
2022-02-09T18:58:22+01:00,79,15.82,38.32,1013.53,24.30,25.60,0,12.50,"$GNGGA,175817.000,4900.4301,N,00824.4578,E,2,10,1.20,144.2,M,47.9,M,,*7C",,,,
2022-02-09T18:58:43+01:00,80,15.89,38.06,1013.51,25.10,26.40,0,12.50,"$GNGGA,175838.000,4900.4403,N,00824.4699,E,2,11,1.06,143.3,M,47.9,M,,*7B",,,,
2022-02-09T18:59:04+01:00,81,16.03,38.10,1013.50,24.50,25.80,0,13.00,"$GNGGA,175859.000,4900.4468,N,00824.4729,E,2,11,1.05,140.3,M,47.9,M,,*7B",,,,
2022-02-09T18:59:25+01:00,82,16.23,37.78,1013.50,24.10,25.40,0,13.00,"$GNGGA,175920.000,4900.4481,N,00824.4727,E,2,12,0.84,142.4,M,47.9,M,,*73",,,,
2022-02-09T18:59:46+01:00,83,16.44,37.44,1013.50,22.30,23.50,0,13.00,"$GNGGA,175941.000,4900.4474,N,00824.4728,E,2,11,1.05,142.0,M,47.9,M,,*7E",,,,
2022-02-09T19:00:07+01:00,84,16.64,36.58,1013.50,23.30,24.50,0,13.00,"$GNGGA,180002.000,4900.4515,N,00824.4668,E,2,11,1.05,141.1,M,47.9,M,,*7B",,,,
2022-02-09T19:00:28+01:00,85,16.88,36.39,1013.49,24.20,25.50,0,13.00,"$GNGGA,180023.000,4900.4496,N,00824.4708,E,2,10,1.09,140.8,M,47.9,M,,*70",,,,
2022-02-09T19:00:49+01:00,86,17.06,35.89,1013.50,25.70,27.00,0,12.50,"$GNGGA,180044.000,4900.4540,N,00824.4675,E,2,10,1.09,141.1,M,47.9,M,,*78",,,,
2022-02-09T19:01:10+01:00,87,17.17,35.40,1013.49,25.60,26.90,0,12.50,"$GNGGA,180105.000,4900.4714,N,00824.4567,E,2,10,1.09,141.4,M,47.9,M,,*7A",,,,
2022-02-09T19:01:31+01:00,88,17.24,35.39,1013.49,24.50,25.80,0,12.00,"$GNGGA,180126.000,4900.4807,N,00824.4562,E,2,10,1.09,135.9,M,47.9,M,,*7D",,,,
2022-02-09T19:01:52+01:00,89,17.30,35.48,1013.49,24.40,25.70,0,12.00,"$GNGGA,180147.000,4900.4926,N,00824.4493,E,2,11,1.04,134.8,M,47.9,M,,*7B",,,,
2022-02-09T19:02:13+01:00,90,17.33,35.49,1013.48,23.80,25.00,0,12.00,"$GNGGA,180208.000,4900.5063,N,00824.4432,E,2,11,1.04,134.0,M,47.9,M,,*79",,,,
2022-02-09T19:02:34+01:00,91,17.33,35.38,1013.47,24.50,25.80,0,12.00,"$GNGGA,180229.000,4900.5193,N,00824.4319,E,2,11,1.04,135.3,M,47.9,M,,*78",,,,
2022-02-09T19:02:55+01:00,92,17.33,35.53,1013.47,24.50,25.80,0,12.00,"$GNGGA,180250.000,4900.5304,N,00824.4521,E,2,11,1.05,133.3,M,47.9,M,,*70",,,,
2022-02-09T19:03:16+01:00,93,17.34,35.47,1013.46,23.90,25.10,0,12.00,"$GNGGA,180311.000,4900.5274,N,00824.4765,E,2,11,1.04,133.3,M,47.9,M,,*71",,,,
2022-02-09T19:03:37+01:00,94,17.35,35.72,1013.46,23.70,24.90,0,12.00,"$GNGGA,180332.000,4900.5214,N,00824.4961,E,2,11,1.04,127.3,M,47.9,M,,*79",,,,
2022-02-09T19:03:58+01:00,95,17.31,35.76,1013.44,24.10,25.40,0,12.00,"$GNGGA,180353.000,4900.5198,N,00824.5200,E,2,11,1.04,124.3,M,47.9,M,,*77",,,,
2022-02-09T19:04:19+01:00,96,17.19,36.02,1013.42,25.20,26.50,0,11.50,"$GNGGA,180414.000,4900.5255,N,00824.5430,E,2,11,1.04,121.0,M,47.9,M,,*72",,,,
2022-02-09T19:04:40+01:00,97,16.97,36.45,1013.42,24.60,25.90,0,11.50,"$GNGGA,180435.000,4900.5428,N,00824.5595,E,2,11,1.04,132.4,M,47.9,M,,*75",,,,
2022-02-09T19:05:01+01:00,98,16.75,37.02,1013.43,24.20,25.50,0,11.50,"$GNGGA,180456.000,4900.5492,N,00824.5680,E,2,11,1.04,135.1,M,47.9,M,,*74",,,,
2022-02-09T19:05:22+01:00,99,16.55,37.55,1013.44,22.90,24.10,0,11.50,"$GNGGA,180517.000,4900.5588,N,00824.5913,E,2,11,1.06,131.3,M,47.9,M,,*7B",,,,
2022-02-09T19:06:41+01:00,100,17.42,37.42,1013.47,27.60,29.00,0,12.00,"$GNGGA,180636.000,4900.5505,N,00824.6061,E,1,7,1.14,124.6,M,47.9,M,,*47",,,,
2022-02-09T19:07:02+01:00,101,17.09,37.33,1013.48,27.60,29.00,0,12.00,"$GNGGA,180657.527,4900.5630,N,00824.6542,E,1,7,1.14,142.4,M,47.9,M,,*43",,,,
2022-02-09T19:08:20+01:00,102,14.23,42.27,1013.49,25.90,27.20,0,12.50,"$GNGGA,180815.000,4900.5529,N,00824.9124,E,1,7,1.14,138.8,M,47.9,M,,*4A",,,,
2022-02-09T19:08:41+01:00,103,13.80,43.90,1013.49,25.60,26.90,0,11.00,"$GNGGA,180836.000,4900.5383,N,00824.9970,E,1,7,1.14,136.8,M,47.9,M,,*4A",,,,
2022-02-09T19:09:02+01:00,104,13.30,45.13,1013.47,34.40,36.20,0,10.50,"$GNGGA,180857.000,4900.5174,N,00825.0801,E,1,7,1.14,111.6,M,47.9,M,,*43",,,,
2022-02-09T19:09:23+01:00,105,12.81,46.63,1013.47,30.10,31.70,0,10.50,"$GNGGA,180918.000,4900.5028,N,00825.1704,E,1,7,1.14,110.3,M,47.9,M,,*4E",,,,
2022-02-09T19:09:44+01:00,106,12.38,47.84,1013.47,27.50,28.90,0,10.50,"$GNGGA,180939.000,4900.4905,N,00825.2653,E,1,7,1.14,115.7,M,47.9,M,,*4B",,,,
2022-02-09T19:10:05+01:00,107,11.99,48.80,1013.46,25.30,26.60,0,10.50,"$GNGGA,181000.000,4900.4746,N,00825.3626,E,1,7,1.13,130.1,M,47.9,M,,*45",,,,
2022-02-09T19:10:28+01:00,108,11.72,49.44,1013.46,24.30,25.60,0,10.50,"$GNGGA,181021.000,4900.4665,N,00825.4238,E,1,7,1.13,113.7,M,47.9,M,,*4D",,,,
2022-02-09T19:10:50+01:00,109,11.57,49.40,1013.47,23.60,24.80,0,10.50,"$GNGGA,181045.000,4900.4921,N,00825.4315,E,1,7,1.13,132.0,M,47.9,M,,*4A",,,,
2022-02-09T19:11:11+01:00,110,11.50,49.20,1013.49,24.70,26.00,0,10.50,"$GNGGA,181106.000,4900.4933,N,00825.4329,E,1,7,1.13,130.8,M,47.9,M,,*4A",,,,
2022-02-09T19:11:32+01:00,111,11.50,48.75,1013.50,24.80,26.10,0,10.50,"$GNGGA,181127.000,4900.4933,N,00825.4239,E,1,7,1.13,130.5,M,47.9,M,,*44",,,,
