created_at,entry_id,field1,field2,field3,field4,field5,field6,field7,field8,latitude,longitude,elevation,status
2022-02-26T19:14:41+01:00,296,22.23,21.81,1019.99,29.7,31.2,0,-127,"$GNGGA,000023.679,4900.5227,N,00825.3678,E,0,0,,122.1,M,47.9,M,,*54",,,,
2022-02-26T19:15:02+01:00,297,22.02,19.89,1020.01,26.6,28,0,-127,"$GNGGA,181457.101,4900.5227,N,00825.3678,E,0,0,,122.1,M,47.9,M,,*53",,,,
2022-02-26T19:15:23+01:00,298,21.75,18.95,1020.02,23.7,24.9,0,-127,"$GNGGA,181518.086,9000.0000,N,00000.0000,E,0,0,,137.0,M,13.0,M,,*59",,,,
2022-02-26T19:15:43+01:00,299,21.46,18.77,1020.01,24,25.3,0,-127,"$GNGGA,181539.091,9000.0000,N,00000.0000,E,0,0,,137.0,M,13.0,M,,*5C",,,,
2022-02-26T19:16:04+01:00,300,21.17,18.83,1020.02,25.2,26.5,0,-127,"$GNGGA,181559.302,9000.0000,N,00000.0000,E,0,0,,137.0,M,13.0,M,,*53",,,,
2022-02-26T19:16:24+01:00,301,20.85,19.1,1020.04,26.8,28.2,0,-127,"$GNGGA,181619.000,4900.4624,N,00825.4625,E,1,4,2.71,154.2,M,47.9,M,,*4F",,,,
2022-02-26T19:16:44+01:00,302,20.42,19.26,1020.04,27.4,28.8,0,-127,"$GNGGA,181639.000,4900.4550,N,00825.4654,E,1,4,2.71,162.8,M,47.9,M,,*44",,,,
2022-02-26T19:17:05+01:00,303,20.06,19.83,1020.02,28.4,29.9,0,-127,"$GNGGA,181700.000,4900.4601,N,00825.4714,E,1,4,2.16,141.9,M,47.9,M,,*4C",,,,
2022-02-26T19:17:25+01:00,304,19.83,19.86,1020,29.9,31.4,0,-127,"$GNGGA,181720.000,4900.4644,N,00825.4737,E,1,5,2.00,142.2,M,47.9,M,,*40",,,,
2022-02-26T19:17:45+01:00,305,19.68,19.84,1019.99,30.6,32.2,0,-127,"$GNGGA,181740.000,4900.4628,N,00825.4677,E,1,8,1.09,165.4,M,47.9,M,,*4D",,,,
2022-02-26T19:18:06+01:00,306,19.56,20.29,1019.95,31.4,33,0,-127,"$GNGGA,181801.000,4900.4617,N,00825.4673,E,0,0,,165.0,M,47.9,M,,*54",,,,
2022-02-26T19:18:26+01:00,307,19.54,21.89,1019.97,30.6,32.2,0,-127,"$GNGGA,181821.000,4900.4615,N,00825.4276,E,1,8,1.09,144.4,M,47.9,M,,*4D",,,,
2022-02-26T19:19:17+01:00,308,19.59,21.92,1020.13,31.5,33.1,0,-127,"$GNGGA,181842.000,4900.4945,N,00825.2683,E,1,8,1.09,129.1,M,47.9,M,,*44",,,,
2022-02-26T19:19:39+01:00,309,19.88,22.26,1020.47,31.3,32.9,0,-127,"$GNGGA,181933.965,4900.5178,N,00825.1068,E,0,0,,122.2,M,47.9,M,,*59",,,,
2022-02-26T19:23:30+01:00,310,19.6,19.47,1019.98,32.5,34.2,0,-127,"$GNGGA,182325.000,4900.5792,N,00824.6730,E,1,5,1.91,138.4,M,47.9,M,,*4D",,,,
2022-02-26T19:23:58+01:00,311,19.12,20.49,1019.98,52.2,54.9,0,-127,"$GNGGA,182353.343,4900.5825,N,00824.8170,E,0,3,,136.7,M,47.9,M,,*5A",,,,
2022-02-26T19:24:20+01:00,312,18.94,20.75,1019.97,45.9,48.2,0,-127,"$GNGGA,182415.010,4900.5937,N,00824.7009,E,1,6,1.36,136.5,M,47.9,M,,*44",,,,
2022-02-26T23:18:31+01:00,313,22.48,19.96,1019.46,36.2,38.1,0,-127,"$GNGGA,221826.112,4900.5765,N,00824.6596,E,0,0,,151.5,M,47.9,M,,*56",,,,
2022-02-26T23:18:52+01:00,314,21.78,20.15,1019.47,33.3,35,0,-127,"$GNGGA,221847.000,4900.5943,N,00824.7393,E,1,7,1.31,148.6,M,47.9,M,,*4B",,,,
2022-02-26T23:19:12+01:00,315,21.24,20.75,1019.45,30.8,32.4,0,-127,"$GNGGA,221907.000,4900.5859,N,00824.7564,E,1,7,1.31,150.8,M,47.9,M,,*4D",,,,
2022-02-26T23:19:32+01:00,316,20.73,20.97,1019.45,27.9,29.3,0,-127,"$GNGGA,221927.000,4900.5813,N,00824.7738,E,1,7,1.31,152.0,M,47.9,M,,*40",,,,
2022-02-26T23:19:53+01:00,317,20.19,21.32,1019.47,27.3,28.7,0,-127,"$GNGGA,221948.000,4900.5799,N,00824.7933,E,1,7,1.32,147.7,M,47.9,M,,*41",,,,
2022-02-26T23:20:13+01:00,318,19.47,21.8,1019.48,27.4,28.8,0,-127,"$GNGGA,222008.000,4900.5819,N,00824.8176,E,1,7,1.32,148.9,M,47.9,M,,*4F",,,,
2022-02-26T23:20:34+01:00,319,18.88,22.62,1019.49,27.8,29.2,0,-127,"$GNGGA,222029.000,4900.5845,N,00824.8400,E,1,7,1.32,152.3,M,47.9,M,,*40",,,,
2022-02-26T23:20:55+01:00,320,18.3,22.98,1019.5,28.2,29.7,0,-127,"$GNGGA,222050.000,4900.5800,N,00824.8484,E,1,7,1.33,155.5,M,47.9,M,,*43",,,,
2022-02-26T23:21:16+01:00,321,17.7,23.75,1019.51,27.6,29,0,-127,"$GNGGA,222111.000,4900.5683,N,00824.8872,E,1,7,1.33,155.5,M,47.9,M,,*47",,,,
2022-02-26T23:21:37+01:00,322,17.25,24.5,1019.51,27.6,29,0,-127,"$GNGGA,222132.000,4900.5745,N,00824.8862,E,1,7,1.33,153.7,M,47.9,M,,*48",,,,
2022-02-26T23:21:58+01:00,323,16.97,24.71,1019.51,27,28.4,0,-127,"$GNGGA,222153.000,4900.5809,N,00824.9086,E,1,7,1.34,157.0,M,47.9,M,,*4F",,,,
2022-02-26T23:22:18+01:00,324,16.75,24.64,1019.52,26.6,28,0,-127,"$GNGGA,222213.000,4900.5939,N,00824.9364,E,1,7,1.34,166.1,M,47.9,M,,*46",,,,
2022-02-26T23:22:38+01:00,325,16.63,24.69,1019.52,26.2,27.6,0,-127,"$GNGGA,222233.000,4900.5979,N,00824.9546,E,1,8,0.98,153.1,M,47.9,M,,*48",,,,
2022-02-26T23:22:59+01:00,326,16.61,24.68,1019.51,24.8,26.1,0,-127,"$GNGGA,222254.000,4900.5787,N,00824.9683,E,1,8,0.98,141.1,M,47.9,M,,*4F",,,,
2022-02-26T23:23:19+01:00,327,16.61,24.59,1019.51,24.8,26.1,0,-127,"$GNGGA,222314.000,4900.5641,N,00824.9831,E,1,8,0.98,150.7,M,47.9,M,,*40",,,,
2022-02-26T23:23:39+01:00,328,16.62,24.52,1019.51,25.7,27,0,-127,"$GNGGA,222334.000,4900.5599,N,00824.9899,E,1,9,0.91,156.9,M,47.9,M,,*46",,,,
2022-02-26T23:24:00+01:00,329,16.66,24.56,1019.53,26.2,27.6,0,-127,"$GNGGA,222355.000,4900.5633,N,00825.0135,E,1,9,0.91,138.7,M,47.9,M,,*43",,,,
2022-02-26T23:24:21+01:00,330,16.68,24.5,1019.54,26.9,28.3,0,-127,"$GNGGA,222416.000,4900.5584,N,00825.0299,E,1,9,0.91,126.8,M,47.9,M,,*49",,,,
2022-02-26T23:24:41+01:00,331,16.56,24.34,1019.55,27.6,29,0,-127,"$GNGGA,222436.000,4900.5555,N,00825.0328,E,1,9,0.91,123.8,M,47.9,M,,*49",,,,
2022-02-26T23:25:02+01:00,332,16.31,24.61,1019.55,29.1,30.6,0,-127,"$GNGGA,222457.000,4900.5470,N,00825.0519,E,1,9,0.91,121.0,M,47.9,M,,*46",,,,
2022-02-26T23:25:22+01:00,333,16.13,25.07,1019.54,29.1,30.6,0,-127,"$GNGGA,222517.000,4900.5412,N,00825.0711,E,1,9,0.91,117.9,M,47.9,M,,*41",,,,
2022-02-26T23:25:43+01:00,334,16.02,25.34,1019.53,28,29.5,0,-127,"$GNGGA,222538.000,4900.5342,N,00825.0896,E,1,9,0.91,118.5,M,47.9,M,,*4D",,,,
2022-02-26T23:26:04+01:00,335,15.94,25.46,1019.53,27.3,28.7,0,-127,"$GNGGA,222559.000,4900.5301,N,00825.1101,E,1,9,0.91,117.4,M,47.9,M,,*45",,,,
2022-02-26T23:26:24+01:00,336,15.9,25.48,1019.53,26.4,27.8,0,-127,"$GNGGA,222619.000,4900.5270,N,00825.1293,E,1,8,1.10,114.8,M,47.9,M,,*4B",,,,
2022-02-26T23:26:44+01:00,337,15.84,25.42,1019.54,25.6,26.9,0,-127,"$GNGGA,222639.000,4900.5224,N,00825.1468,E,1,8,1.06,118.9,M,47.9,M,,*40",,,,
2022-02-26T23:27:05+01:00,338,15.78,25.41,1019.54,25.8,27.1,0,-127,"$GNGGA,222700.000,4900.5246,N,00825.1698,E,1,9,0.96,115.1,M,47.9,M,,*4E",,,,
2022-02-26T23:27:25+01:00,339,15.69,25.5,1019.52,26.3,27.7,0,-127,"$GNGGA,222720.000,4900.5230,N,00825.1871,E,1,9,0.96,121.3,M,47.9,M,,*41",,,,
2022-02-26T23:27:46+01:00,340,15.57,25.59,1019.54,25.8,27.1,0,-127,"$GNGGA,222741.000,4900.5174,N,00825.2076,E,1,8,1.11,123.0,M,47.9,M,,*47",,,,
2022-02-26T23:28:07+01:00,341,15.48,25.8,1019.55,25.7,27,0,-127,"$GNGGA,222802.000,4900.5100,N,00825.2305,E,1,9,0.96,121.5,M,47.9,M,,*43",,,,
2022-02-26T23:28:27+01:00,342,15.34,26,1019.57,25.8,27.1,0,-127,"$GNGGA,222822.000,4900.5057,N,00825.2409,E,1,10,0.82,121.5,M,47.9,M,,*74",,,,
2022-02-26T23:28:47+01:00,343,15.08,26.45,1019.58,28.1,29.6,0,-127,"$GNGGA,222842.000,4900.5030,N,00825.2606,E,1,9,0.96,117.7,M,47.9,M,,*44",,,,
2022-02-26T23:29:08+01:00,344,14.78,27.07,1019.59,29.8,31.3,0,-127,"$GNGGA,222903.000,4900.4993,N,00825.2790,E,1,10,0.82,114.9,M,47.9,M,,*7F",,,,
2022-02-26T23:29:28+01:00,345,14.46,27.7,1019.59,30.9,32.5,0,-127,"$GNGGA,222923.000,4900.4970,N,00825.2973,E,1,9,0.96,112.4,M,47.9,M,,*45",,,,
2022-02-26T23:29:49+01:00,346,14,28.33,1019.6,31.1,32.7,0,-127,"$GNGGA,222944.000,4900.4939,N,00825.3153,E,1,8,1.11,111.3,M,47.9,M,,*49",,,,
2022-02-26T23:30:13+01:00,347,13.59,29.51,1019.62,30.8,32.4,0,-127,"$GNGGA,223008.000,4900.4896,N,00825.3387,E,1,9,0.96,114.1,M,47.9,M,,*4E",,,,
2022-02-26T23:30:34+01:00,348,13.1,30.22,1019.62,30.7,32.3,0,-127,"$GNGGA,223029.000,4900.4859,N,00825.3559,E,1,10,0.82,114.6,M,47.9,M,,*71",,,,
2022-02-26T23:30:55+01:00,349,12.79,30.88,1019.62,28.5,30,0,-127,"$GNGGA,223050.000,4900.4816,N,00825.3762,E,1,10,0.82,116.4,M,47.9,M,,*7E",,,,
2022-02-26T23:31:15+01:00,350,12.54,31.06,1019.62,30.6,32.2,0,-127,"$GNGGA,223110.000,4900.4786,N,00825.3945,E,1,10,0.81,116.9,M,47.9,M,,*78",,,,
2022-02-26T23:31:37+01:00,351,12.23,31.24,1019.62,31.5,33.1,0,-127,"$GNGGA,223131.000,4900.4745,N,00825.4158,E,1,10,0.81,116.2,M,47.9,M,,*7C",,,,
2022-02-26T23:31:58+01:00,352,11.91,31.77,1019.62,32,33.7,0,-127,"$GNGGA,223153.000,4900.4769,N,00825.4335,E,2,10,0.82,118.8,M,47.9,M,,*7B",,,,
2022-02-26T23:32:18+01:00,353,11.67,32.24,1019.62,30.4,32,0,-127,"$GNGGA,223213.000,4900.4874,N,00825.4392,E,2,9,0.96,130.6,M,47.9,M,,*4B",,,,
2022-02-26T23:32:38+01:00,354,11.53,32.48,1019.6,28.9,30.4,0,-127,"$GNGGA,223233.000,4900.4943,N,00825.4343,E,2,10,0.82,130.0,M,47.9,M,,*7B",,,,
