$GNGGA,190009.090,4900.5003,N,00825.7044,E,0,0,,137.6,M,47.9,M,,*5F
$GNGGA,190029.095,4900.5003,N,00825.7044,E,0,0,,137.6,M,47.9,M,,*58
$GNGGA,190050.000,4900.5263,N,00825.4359,E,1,3,3.23,116.7,M,47.9,M,,*4E
$GNGGA,190110.000,4900.5234,N,00825.4279,E,1,4,2.94,130.9,M,47.9,M,,*4A
$GNGGA,190130.000,4900.5231,N,00825.4259,E,1,4,6.82,138.9,M,47.9,M,,*44
$GNGGA,190151.000,4900.5219,N,00825.4249,E,1,4,2.93,144.0,M,47.9,M,,*4E
$GNGGA,190211.000,4900.5220,N,00825.4206,E,1,5,1.46,149.7,M,47.9,M,,*48
$GNGGA,190231.000,4900.5287,N,00825.4186,E,1,5,1.47,148.8,M,47.9,M,,*43
$GNGGA,190252.000,4900.5393,N,00825.4187,E,1,6,1.45,152.8,M,47.9,M,,*49
$GNGGA,190312.000,4900.5498,N,00825.4186,E,1,7,1.36,152.0,M,47.9,M,,*4C
$GNGGA,190332.000,4900.5585,N,00825.4168,E,1,7,1.37,144.8,M,47.9,M,,*4D
$GNGGA,190353.000,4900.5745,N,00825.4164,E,1,7,1.37,140.3,M,47.9,M,,*47
$GNGGA,190413.000,4900.5825,N,00825.4061,E,1,7,1.39,135.0,M,47.9,M,,*46
$GNGGA,190433.000,4900.5900,N,00825.4066,E,1,7,1.39,131.4,M,47.9,M,,*45
$GNGGA,190454.000,4900.6003,N,00825.4067,E,1,7,1.40,125.2,M,47.9,M,,*41
$GNGGA,190514.000,4900.6135,N,00825.4015,E,1,7,1.39,129.9,M,47.9,M,,*4C
$GNGGA,190534.000,4900.6221,N,00825.3977,E,1,7,1.39,130.2,M,47.9,M,,*41
$GNGGA,190555.000,4900.6322,N,00825.3939,E,1,7,1.40,134.0,M,47.9,M,,*46
$GNGGA,190618.000,4900.6431,N,00825.3958,E,1,7,1.41,127.3,M,47.9,M,,*4E
$GNGGA,190638.000,4900.6570,N,00825.3973,E,1,7,1.41,138.6,M,47.9,M,,*4A
$GNGGA,190659.000,4900.6639,N,00825.3988,E,1,7,1.41,143.8,M,47.9,M,,*45
$GNGGA,190719.000,4900.6757,N,00825.4032,E,1,7,1.42,140.3,M,47.9,M,,*4D
$GNGGA,190739.000,4900.6844,N,00825.4168,E,1,8,1.16,122.8,M,47.9,M,,*4D
$GNGGA,190800.000,4900.6849,N,00825.4164,E,1,8,1.16,124.1,M,47.9,M,,*46
$GNGGA,190820.000,4900.6943,N,00825.4074,E,1,8,1.16,121.6,M,47.9,M,,*4D
$GNGGA,190841.000,4900.6971,N,00825.3895,E,1,8,1.16,122.9,M,47.9,M,,*47
$GNGGA,190902.000,4900.7088,N,00825.3845,E,1,8,1.16,124.9,M,47.9,M,,*44
$GNGGA,190922.000,4900.7210,N,00825.3797,E,1,8,1.17,129.9,M,47.9,M,,*49
$GNGGA,190943.000,4900.7336,N,00825.3757,E,1,8,1.17,134.3,M,47.9,M,,*41
$GNGGA,191004.000,4900.7470,N,00825.3728,E,1,8,1.17,136.5,M,47.9,M,,*43
$GNGGA,191024.000,4900.7601,N,00825.3772,E,1,9,1.30,120.5,M,47.9,M,,*49
$GNGGA,191044.000,4900.7709,N,00825.3692,E,1,9,1.20,117.0,M,47.9,M,,*49
$GNGGA,191105.000,4900.7836,N,00825.3709,E,1,9,1.31,112.3,M,47.9,M,,*4B
$GNGGA,191125.000,4900.7962,N,00825.3707,E,1,9,1.21,107.0,M,47.9,M,,*41
$GNGGA,191145.000,4900.8091,N,00825.3673,E,1,9,1.32,111.7,M,47.9,M,,*4D
$GNGGA,191206.000,4900.8211,N,00825.3614,E,1,9,1.05,113.5,M,47.9,M,,*46
$GNGGA,191226.000,4900.8338,N,00825.3561,E,1,9,1.33,116.1,M,47.9,M,,*4B
$GNGGA,191246.000,4900.8465,N,00825.3557,E,1,9,1.06,113.3,M,47.9,M,,*46
$GNGGA,191307.000,4900.8598,N,00825.3541,E,1,9,1.21,114.4,M,47.9,M,,*43
$GNGGA,191328.000,4900.8716,N,00825.3516,E,1,9,1.06,113.2,M,47.9,M,,*4C
$GNGGA,191349.000,4900.8857,N,00825.3511,E,1,9,1.23,109.5,M,47.9,M,,*4D
$GNGGA,191410.000,4900.8984,N,00825.3480,E,1,9,1.23,109.9,M,47.9,M,,*4C
$GNGGA,191431.000,4900.9108,N,00825.3459,E,1,9,1.23,110.2,M,47.9,M,,*45
$GNGGA,191452.000,4900.9235,N,00825.3433,E,1,9,1.24,108.3,M,47.9,M,,*4E
$GNGGA,191513.000,4900.9368,N,00825.3402,E,1,9,1.24,111.6,M,47.9,M,,*4C
$GNGGA,191534.000,4900.9492,N,00825.3359,E,1,9,1.24,114.1,M,47.9,M,,*40
$GNGGA,191555.000,4900.9635,N,00825.3329,E,1,9,1.07,116.1,M,47.9,M,,*4C
$GNGGA,191616.000,4900.9750,N,00825.3279,E,1,9,1.25,122.6,M,47.9,M,,*4E
$GNGGA,191637.000,4900.9891,N,00825.3257,E,1,9,1.07,122.8,M,47.9,M,,*4D
$GNGGA,191658.000,4901.0012,N,00825.3232,E,1,9,1.25,116.3,M,47.9,M,,*40
$GNGGA,191719.000,4901.0127,N,00825.3201,E,1,9,1.07,116.6,M,47.9,M,,*46
$GNGGA,191740.000,4901.0262,N,00825.3169,E,1,9,1.07,119.9,M,47.9,M,,*45
$GNGGA,191802.000,4901.0400,N,00825.3149,E,1,9,1.26,116.2,M,47.9,M,,*4B
$GNGGA,191823.000,4901.0527,N,00825.3128,E,1,9,1.26,107.3,M,47.9,M,,*4A
$GNGGA,191844.000,4901.0654,N,00825.3101,E,1,9,1.27,104.6,M,47.9,M,,*40
$GNGGA,191905.000,4901.0794,N,00825.3075,E,1,9,1.08,109.2,M,47.9,M,,*4F
$GNGGA,191926.000,4901.0916,N,00825.3035,E,1,9,1.27,114.4,M,47.9,M,,*49
$GNGGA,191947.000,4901.1064,N,00825.2996,E,1,9,1.27,117.2,M,47.9,M,,*47
$GNGGA,192008.000,4901.1181,N,00825.2960,E,1,9,1.28,114.6,M,47.9,M,,*4D
$GNGGA,192029.000,4901.1319,N,00825.2920,E,1,9,1.28,119.1,M,47.9,M,,*43
$GNGGA,192050.000,4901.1445,N,00825.2889,E,1,9,1.08,115.4,M,47.9,M,,*4A
$GNGGA,192111.000,4901.1584,N,00825.2867,E,1,9,1.28,110.0,M,47.9,M,,*41
$GNGGA,192132.000,4901.1724,N,00825.2854,E,1,9,1.08,110.4,M,47.9,M,,*4E
$GNGGA,192153.000,4901.1852,N,00825.2844,E,1,9,1.08,106.6,M,47.9,M,,*43
$GNGGA,192214.000,4901.1768,N,00825.2877,E,1,9,1.08,108.4,M,47.9,M,,*49
$GNGGA,192235.000,4901.1636,N,00825.2902,E,1,10,0.91,111.1,M,47.9,M,,*77
$GNGGA,192256.000,4901.1499,N,00825.2926,E,1,10,0.91,114.0,M,47.9,M,,*77
$GNGGA,192317.000,4901.1366,N,00825.2967,E,1,10,0.89,112.5,M,47.9,M,,*7B
$GNGGA,192338.000,4901.1244,N,00825.2983,E,1,11,0.84,113.8,M,47.9,M,,*7D
$GNGGA,192359.000,4901.1104,N,00825.3013,E,2,11,0.84,115.5,M,47.9,M,,*74
$GNGGA,192420.000,4901.0971,N,00825.3040,E,2,11,0.84,114.2,M,47.9,M,,*76
$GNGGA,192441.000,4901.0815,N,00825.3103,E,2,11,0.84,114.5,M,47.9,M,,*73
$GNGGA,192502.000,4901.0692,N,00825.3129,E,2,11,0.84,112.5,M,47.9,M,,*7A
$GNGGA,192523.000,4901.0556,N,00825.3142,E,2,11,0.84,115.4,M,47.9,M,,*79
$GNGGA,192544.000,4901.0403,N,00825.3201,E,2,11,0.85,119.9,M,47.9,M,,*7D
$GNGGA,192605.000,4901.0266,N,00825.3211,E,2,11,0.84,126.5,M,47.9,M,,*7E
$GNGGA,192626.000,4901.0119,N,00825.3247,E,2,11,0.84,124.8,M,47.9,M,,*78
$GNGGA,192647.000,4900.9999,N,00825.3265,E,2,11,0.84,121.6,M,47.9,M,,*7C
$GNGGA,192708.000,4900.9867,N,00825.3314,E,2,11,0.84,119.4,M,47.9,M,,*78
$GNGGA,192729.000,4900.9716,N,00825.3355,E,2,11,0.85,124.6,M,47.9,M,,*7A
$GNGGA,192750.000,4900.9577,N,00825.3359,E,2,12,0.77,127.4,M,47.9,M,,*72
$GNGGA,192811.000,4900.9450,N,00825.3381,E,2,12,0.77,122.2,M,47.9,M,,*7A
$GNGGA,192832.000,4900.9325,N,00825.3453,E,2,12,0.77,115.7,M,47.9,M,,*77
$GNGGA,192853.000,4900.9174,N,00825.3467,E,2,12,0.79,113.9,M,47.9,M,,*77
$GNGGA,192914.000,4900.9042,N,00825.3493,E,2,12,0.77,112.9,M,47.9,M,,*75
$GNGGA,192935.000,4900.8870,N,00825.3506,E,2,12,0.79,120.6,M,47.9,M,,*73
$GNGGA,192956.000,4900.8737,N,00825.3527,E,2,12,0.77,121.0,M,47.9,M,,*70
$GNGGA,193017.000,4900.8597,N,00825.3532,E,2,11,0.83,113.7,M,47.9,M,,*7F
$GNGGA,193038.000,4900.8464,N,00825.3558,E,2,13,0.74,113.9,M,47.9,M,,*77
$GNGGA,193059.000,4900.8329,N,00825.3572,E,2,12,0.82,117.5,M,47.9,M,,*76
$GNGGA,193120.000,4900.8188,N,00825.3609,E,2,13,0.76,119.0,M,47.9,M,,*7E
$GNGGA,193140.000,4900.8075,N,00825.3624,E,2,13,0.74,124.8,M,47.9,M,,*70
$GNGGA,193201.000,4900.8057,N,00825.3761,E,2,13,0.74,127.3,M,47.9,M,,*7E
$GNGGA,193221.000,4900.8030,N,00825.3991,E,2,13,0.76,130.8,M,47.9,M,,*73
$GNGGA,193241.000,4900.8066,N,00825.4211,E,2,13,0.74,136.3,M,47.9,M,,*7D
$GNGGA,193302.000,4900.8071,N,00825.4415,E,2,13,0.74,138.8,M,47.9,M,,*7A
$GNGGA,193323.000,4900.7936,N,00825.4557,E,2,13,0.74,131.6,M,47.9,M,,*7C
$GNGGA,193344.000,4900.7919,N,00825.4735,E,2,10,1.08,131.5,M,47.9,M,,*7C
$GNGGA,193405.000,4900.7795,N,00825.4475,E,2,4,4.49,130.1,M,47.9,M,,*43
$GNGGA,193425.000,4900.7765,N,00825.4385,E,0,0,,129.8,M,47.9,M,,*56
$GNGGA,193445.000,4900.7765,N,00825.4385,E,0,0,,129.8,M,47.9,M,,*50
$GNGGA,193506.000,4900.7765,N,00825.4385,E,0,0,,129.8,M,47.9,M,,*56
$GNGGA,193526.000,4900.7765,N,00825.4385,E,0,0,,129.8,M,47.9,M,,*54
$GNGGA,193547.000,4900.7765,N,00825.4385,E,0,0,,129.8,M,47.9,M,,*53
$GNGGA,193607.000,4900.7833,N,00825.4259,E,2,8,1.60,117.3,M,47.9,M,,*4D
$GNGGA,193627.000,4900.7846,N,00825.4315,E,2,9,1.14,115.3,M,47.9,M,,*44
$GNGGA,193648.000,4900.7847,N,00825.4323,E,2,8,1.18,116.0,M,47.9,M,,*44
$GNGGA,193708.000,4900.7847,N,00825.4329,E,2,11,0.83,115.5,M,47.9,M,,*76
$GNGGA,193729.000,4900.7847,N,00825.4334,E,2,10,0.88,115.0,M,47.9,M,,*76
$GNGGA,193750.000,4900.7850,N,00825.4341,E,2,11,0.83,115.3,M,47.9,M,,*75
$GNGGA,193811.000,4900.7850,N,00825.4344,E,2,11,0.85,115.4,M,47.9,M,,*7B
$GNGGA,193831.000,4900.7843,N,00825.4353,E,2,11,0.83,116.2,M,47.9,M,,*7E
$GNGGA,193852.000,4900.7843,N,00825.4413,E,2,11,0.82,116.6,M,47.9,M,,*7D
$GNGGA,193912.000,4900.7845,N,00825.4421,E,2,11,0.83,117.7,M,47.9,M,,*7E
$GNGGA,193933.000,4900.7857,N,00825.4372,E,2,11,0.82,120.5,M,47.9,M,,*78
$GNGGA,193954.000,4900.7866,N,00825.4355,E,2,11,0.82,119.5,M,47.9,M,,*74
$GNGGA,194014.000,4900.7869,N,00825.4354,E,2,11,0.85,118.9,M,47.9,M,,*7A
$GNGGA,194035.000,4900.7867,N,00825.4353,E,2,9,0.98,119.4,M,47.9,M,,*49
$GNGGA,194056.000,4900.7860,N,00825.4344,E,2,10,1.58,120.5,M,47.9,M,,*73
$GNGGA,194116.000,4900.7834,N,00825.4467,E,2,9,1.58,122.0,M,47.9,M,,*4E
$GNGGA,194136.000,4900.7837,N,00825.4444,E,2,9,1.58,124.2,M,47.9,M,,*4A
$GNGGA,194157.000,4900.7853,N,00825.4406,E,2,9,1.12,123.9,M,47.9,M,,*4B
$GNGGA,194217.000,4900.7858,N,00825.4408,E,2,10,0.93,123.2,M,47.9,M,,*72
$GNGGA,194238.000,4900.7862,N,00825.4405,E,2,9,1.12,122.2,M,47.9,M,,*4A
$GNGGA,194259.000,4900.7861,N,00825.4403,E,2,11,0.86,122.3,M,47.9,M,,*7C
$GNGGA,194319.000,4900.7855,N,00825.4408,E,2,10,0.89,120.7,M,47.9,M,,*7D
$GNGGA,194339.000,4900.7847,N,00825.4407,E,2,11,0.86,121.1,M,47.9,M,,*7A
$GNGGA,194400.000,4900.7845,N,00825.4406,E,2,10,0.93,119.7,M,47.9,M,,*7C
$GNGGA,194421.000,4900.7840,N,00825.4408,E,2,9,1.60,119.7,M,47.9,M,,*41
$GNGGA,194442.000,4900.7841,N,00825.4409,E,2,11,0.86,119.1,M,47.9,M,,*72
$GNGGA,194503.000,4900.7844,N,00825.4413,E,2,11,0.86,118.9,M,47.9,M,,*71
$GNGGA,194524.000,4900.7850,N,00825.4411,E,2,9,1.12,118.2,M,47.9,M,,*4D
$GNGGA,194545.000,4900.7849,N,00825.4408,E,2,9,1.11,118.4,M,47.9,M,,*4F
$GNGGA,194605.000,4900.7851,N,00825.4410,E,2,10,0.94,117.8,M,47.9,M,,*7F
$GNGGA,194625.000,4900.7850,N,00825.4407,E,2,11,0.86,118.0,M,47.9,M,,*7F
$GNGGA,194646.000,4900.7847,N,00825.4411,E,2,12,0.76,118.1,M,47.9,M,,*76
$GNGGA,194706.000,4900.7847,N,00825.4410,E,2,9,1.29,118.5,M,47.9,M,,*47
$GNGGA,194727.000,4900.7847,N,00825.4412,E,2,8,1.43,118.5,M,47.9,M,,*4B
$GNGGA,194748.000,4900.7847,N,00825.4411,E,2,9,0.92,118.6,M,47.9,M,,*4E
$GNGGA,194808.000,4900.7850,N,00825.4413,E,2,9,1.03,118.1,M,47.9,M,,*4F
$GNGGA,194829.000,4900.7853,N,00825.4415,E,2,9,1.24,117.9,M,47.9,M,,*4B
$GNGGA,194850.000,4900.7853,N,00825.4412,E,2,9,1.24,118.4,M,47.9,M,,*40
$GNGGA,194910.000,4900.7854,N,00825.4413,E,2,9,0.98,118.7,M,47.9,M,,*46
$GNGGA,194931.000,4900.7855,N,00825.4412,E,2,11,0.85,118.7,M,47.9,M,,*70
$GNGGA,194952.000,4900.7849,N,00825.4410,E,2,10,0.87,119.4,M,47.9,M,,*7B
$GNGGA,195013.000,4900.7847,N,00825.4423,E,2,7,3.24,120.5,M,47.9,M,,*4F
$GNGGA,195033.000,4900.7851,N,00825.4435,E,2,9,0.99,119.1,M,47.9,M,,*48
$GNGGA,195054.000,4900.7863,N,00825.4459,E,2,9,1.11,116.5,M,47.9,M,,*48
$GNGGA,195114.000,4900.7872,N,00825.4467,E,2,10,0.93,116.2,M,47.9,M,,*74
$GNGGA,195135.000,4900.7873,N,00825.4449,E,2,9,1.23,118.0,M,47.9,M,,*44
$GNGGA,195156.000,4900.7864,N,00825.4420,E,2,10,0.94,120.5,M,47.9,M,,*73
$GNGGA,195216.000,4900.7863,N,00825.4409,E,2,9,0.95,121.5,M,47.9,M,,*40
$GNGGA,195236.000,4900.7857,N,00825.4388,E,2,9,1.10,123.1,M,47.9,M,,*41
$GNGGA,195257.000,4900.7855,N,00825.4390,E,2,9,1.23,123.7,M,47.9,M,,*4B
$GNGGA,195317.000,4900.7863,N,00825.4409,E,2,9,1.23,123.5,M,47.9,M,,*4E
$GNGGA,195337.000,4900.7863,N,00825.4437,E,2,10,0.88,123.2,M,47.9,M,,*7E
$GNGGA,195358.000,4900.7867,N,00825.4431,E,2,9,0.95,121.9,M,47.9,M,,*48
$GNGGA,195418.000,4900.7869,N,00825.4455,E,2,9,1.00,117.4,M,47.9,M,,*42
$GNGGA,195439.000,4900.7865,N,00825.4456,E,2,11,0.83,117.1,M,47.9,M,,*78
$GNGGA,195500.000,4900.7863,N,00825.4457,E,2,11,0.85,117.6,M,47.9,M,,*75
$GNGGA,195521.000,4900.7859,N,00825.4476,E,2,9,0.97,116.7,M,47.9,M,,*46
$GNGGA,195541.000,4900.7847,N,00825.4459,E,2,10,1.11,116.0,M,47.9,M,,*72
$GNGGA,195602.000,4900.7847,N,00825.4473,E,2,10,0.92,112.5,M,47.9,M,,*75
$GNGGA,195622.000,4900.7863,N,00825.4440,E,2,9,1.68,112.7,M,47.9,M,,*4F
$GNGGA,195642.000,4900.7867,N,00825.4439,E,2,9,1.23,112.9,M,47.9,M,,*42
$GNGGA,195703.000,4900.7871,N,00825.4445,E,2,10,0.93,112.8,M,47.9,M,,*79
$GNGGA,195723.000,4900.7873,N,00825.4442,E,2,9,1.23,112.9,M,47.9,M,,*4D
$GNGGA,195743.000,4900.7862,N,00825.4413,E,2,10,0.96,116.6,M,47.9,M,,*73
$GNGGA,195804.000,4900.7847,N,00825.4356,E,2,10,0.93,123.5,M,47.9,M,,*7E
$GNGGA,195824.000,4900.7850,N,00825.4349,E,2,9,1.23,125.7,M,47.9,M,,*42
$GNGGA,195845.000,4900.7834,N,00825.4317,E,2,10,1.69,132.3,M,47.9,M,,*78
$GNGGA,195906.000,4900.7834,N,00825.4332,E,2,11,0.82,136.1,M,47.9,M,,*7A
$GNGGA,195927.000,4900.7841,N,00825.4363,E,2,10,0.88,135.1,M,47.9,M,,*77
$GNGGA,195948.000,4900.7853,N,00825.4301,E,2,10,0.88,136.6,M,47.9,M,,*7D
$GNGGA,200009.000,4900.7862,N,00825.4307,E,2,11,0.86,133.2,M,47.9,M,,*74
$GNGGA,200030.000,4900.7875,N,00825.4336,E,2,9,0.95,126.2,M,47.9,M,,*45
$GNGGA,200050.000,4900.7876,N,00825.4351,E,2,8,1.25,123.4,M,47.9,M,,*49
$GNGGA,200111.000,4900.7885,N,00825.4343,E,2,10,0.93,124.1,M,47.9,M,,*75
$GNGGA,200132.000,4900.7877,N,00825.4386,E,2,9,1.24,123.8,M,47.9,M,,*4B
$GNGGA,200153.000,4900.7867,N,00825.4464,E,2,10,0.98,121.5,M,47.9,M,,*77
$GNGGA,200214.000,4900.7852,N,00825.4482,E,2,8,3.26,126.5,M,47.9,M,,*41
$GNGGA,200234.000,4900.7836,N,00825.4435,E,2,9,1.98,136.2,M,47.9,M,,*4D
$GNGGA,200255.000,4900.7845,N,00825.4350,E,2,10,0.96,138.0,M,47.9,M,,*71
$GNGGA,200316.000,4900.7854,N,00825.4365,E,2,8,1.73,132.9,M,47.9,M,,*41
$GNGGA,200337.000,4900.7854,N,00825.4377,E,2,8,1.73,128.9,M,47.9,M,,*4A
$GNGGA,200358.000,4900.7860,N,00825.4416,E,2,8,1.73,123.1,M,47.9,M,,*47
$GNGGA,200419.000,4900.7868,N,00825.4446,E,2,8,2.08,116.1,M,47.9,M,,*41
$GNGGA,200439.000,4900.7868,N,00825.4488,E,2,7,2.30,109.5,M,47.9,M,,*4F
$GNGGA,200500.000,4900.7866,N,00825.4545,E,2,8,8.81,105.3,M,47.9,M,,*4F
$GNGGA,200521.000,4900.7872,N,00825.4623,E,2,9,1.05,99.9,M,47.9,M,,*70
$GNGGA,200542.000,4900.7881,N,00825.4558,E,2,9,1.05,102.7,M,47.9,M,,*4B
$GNGGA,200603.000,4900.7871,N,00825.4567,E,2,8,1.12,106.0,M,47.9,M,,*4A
$GNGGA,200624.000,4900.7872,N,00825.4534,E,2,9,1.04,107.2,M,47.9,M,,*4F
$GNGGA,200644.000,4900.7874,N,00825.4501,E,2,7,2.31,109.7,M,47.9,M,,*49
$GNGGA,200705.000,4900.7877,N,00825.4478,E,2,8,1.73,110.3,M,47.9,M,,*47
$GNGGA,200726.000,4900.7876,N,00825.4375,E,2,11,0.82,111.5,M,47.9,M,,*7D
$GNGGA,200746.000,4900.7871,N,00825.4304,E,2,9,1.38,116.7,M,47.9,M,,*46
$GNGGA,200807.000,4900.7869,N,00825.4334,E,2,9,1.01,121.1,M,47.9,M,,*4E
$GNGGA,200828.000,4900.7870,N,00825.4344,E,2,9,1.03,124.1,M,47.9,M,,*4B
$GNGGA,200848.000,4900.7870,N,00825.4333,E,2,11,0.87,124.6,M,47.9,M,,*7E
$GNGGA,200909.000,4900.7865,N,00825.4382,E,2,9,0.97,125.4,M,47.9,M,,*4F
$GNGGA,200930.000,4900.7859,N,00825.4382,E,2,10,0.97,126.1,M,47.9,M,,*74
$GNGGA,200951.000,4900.7859,N,00825.4366,E,2,9,0.98,126.2,M,47.9,M,,*4D
$GNGGA,201012.000,4900.7861,N,00825.4347,E,2,9,0.98,128.0,M,47.9,M,,*46
$GNGGA,201033.000,4900.7875,N,00825.4361,E,2,10,0.97,128.5,M,47.9,M,,*76
$GNGGA,201054.000,4900.7873,N,00825.4369,E,2,10,0.97,129.0,M,47.9,M,,*7D
$GNGGA,201115.000,4900.7870,N,00825.4364,E,2,9,0.98,130.3,M,47.9,M,,*4B
$GNGGA,201135.000,4900.7862,N,00825.4360,E,2,10,1.83,129.9,M,47.9,M,,*7F
$GNGGA,201155.000,4900.7857,N,00825.4349,E,2,8,1.90,128.8,M,47.9,M,,*4F
$GNGGA,201216.000,4900.7854,N,00825.4342,E,2,9,0.98,126.7,M,47.9,M,,*4A
$GNGGA,201236.000,4900.7844,N,00825.4345,E,2,10,1.84,127.4,M,47.9,M,,*78
$GNGGA,201257.000,4900.7850,N,00825.4352,E,2,10,1.91,126.6,M,47.9,M,,*7B
$GNGGA,201318.000,4900.7853,N,00825.4353,E,2,10,0.98,128.1,M,47.9,M,,*72
$GNGGA,201338.000,4900.7840,N,00825.4288,E,2,8,1.16,130.5,M,47.9,M,,*46
$GNGGA,201359.000,4900.7833,N,00825.4303,E,2,7,2.05,130.0,M,47.9,M,,*4C
$GNGGA,201420.000,4900.7840,N,00825.4305,E,2,9,0.99,126.4,M,47.9,M,,*4D
$GNGGA,201440.000,4900.7836,N,00825.4349,E,2,9,0.99,125.5,M,47.9,M,,*40
$GNGGA,201500.000,4900.7843,N,00825.4341,E,2,10,0.98,124.2,M,47.9,M,,*70
$GNGGA,201521.000,4900.7844,N,00825.4248,E,2,9,0.99,124.8,M,47.9,M,,*4F
$GNGGA,201541.000,4900.7862,N,00825.4236,E,2,10,0.98,124.0,M,47.9,M,,*75
$GNGGA,201602.000,4900.7858,N,00825.4228,E,2,9,1.12,124.3,M,47.9,M,,*4F
$GNGGA,201623.000,4900.7855,N,00825.4253,E,2,9,0.99,124.9,M,47.9,M,,*45
$GNGGA,201643.000,4900.7857,N,00825.4259,E,2,9,1.93,124.7,M,47.9,M,,*4E
$GNGGA,201704.000,4900.7857,N,00825.4263,E,2,9,0.99,125.3,M,47.9,M,,*4B
$GNGGA,201724.000,4900.7854,N,00825.4269,E,2,9,1.09,125.3,M,47.9,M,,*48
$GNGGA,201745.000,4900.7852,N,00825.4276,E,2,7,2.02,125.3,M,47.9,M,,*41
$GNGGA,201806.000,4900.7848,N,00825.4284,E,2,8,1.37,125.7,M,47.9,M,,*41
$GNGGA,201826.000,4900.7853,N,00825.4287,E,2,9,1.12,125.2,M,47.9,M,,*49
$GNGGA,201847.000,4900.7853,N,00825.4291,E,2,8,1.17,125.6,M,47.9,M,,*49
$GNGGA,201908.000,4900.7859,N,00825.4293,E,2,9,1.06,123.9,M,47.9,M,,*43
$GNGGA,201928.000,4900.7859,N,00825.4292,E,2,10,1.05,123.3,M,47.9,M,,*71
$GNGGA,201949.000,4900.7861,N,00825.4294,E,2,9,1.12,123.1,M,47.9,M,,*47
$GNGGA,202010.000,4900.7862,N,00825.4297,E,2,9,1.90,122.5,M,47.9,M,,*4E
$GNGGA,202030.000,4900.7862,N,00825.4299,E,2,8,1.22,122.6,M,47.9,M,,*49
$GNGGA,202051.000,4900.7861,N,00825.4300,E,2,9,1.36,122.9,M,47.9,M,,*47
$GNGGA,202115.000,4900.7825,N,00825.4288,E,2,10,0.99,133.2,M,47.9,M,,*70
$GNGGA,202135.000,4900.7824,N,00825.4294,E,2,9,1.00,132.8,M,47.9,M,,*4C
$GNGGA,202156.000,4900.7827,N,00825.4295,E,2,8,1.18,131.7,M,47.9,M,,*4F
$GNGGA,202218.000,4900.7838,N,00825.4299,E,2,8,1.18,129.8,M,47.9,M,,*42
$GNGGA,202240.000,4900.7840,N,00825.4298,E,2,8,1.18,128.9,M,47.9,M,,*41
$GNGGA,202301.000,4900.7843,N,00825.4297,E,2,10,0.95,128.6,M,47.9,M,,*7B
$GNGGA,202322.000,4900.7855,N,00825.4300,E,2,11,0.82,125.8,M,47.9,M,,*76
$GNGGA,202343.000,4900.7860,N,00825.4283,E,2,11,0.82,124.7,M,47.9,M,,*73
$GNGGA,202404.000,4900.7869,N,00825.4368,E,2,8,1.80,121.9,M,47.9,M,,*4A
$GNGGA,202425.000,4900.7886,N,00825.4331,E,2,11,0.83,117.7,M,47.9,M,,*75
$GNGGA,202446.000,4900.7884,N,00825.4362,E,2,11,0.83,116.6,M,47.9,M,,*74
$GNGGA,202507.000,4900.7869,N,00825.4322,E,2,8,1.01,117.3,M,47.9,M,,*40
$GNGGA,202527.000,4900.7871,N,00825.4290,E,2,8,1.06,118.5,M,47.9,M,,*4D
$GNGGA,202548.000,4900.7869,N,00825.4251,E,2,10,0.95,118.8,M,47.9,M,,*7F
$GNGGA,202609.000,4900.7860,N,00825.4296,E,2,9,1.00,118.2,M,47.9,M,,*44
$GNGGA,202630.000,4900.7860,N,00825.4344,E,2,9,1.20,119.1,M,47.9,M,,*40
$GNGGA,202651.000,4900.7860,N,00825.4293,E,2,8,1.78,119.2,M,47.9,M,,*43
$GNGGA,202712.000,4900.7864,N,00825.4243,E,2,8,1.10,118.0,M,47.9,M,,*41
$GNGGA,202732.000,4900.7874,N,00825.4295,E,2,7,2.38,116.2,M,47.9,M,,*43
$GNGGA,202752.000,4900.7873,N,00825.4322,E,2,10,0.94,114.3,M,47.9,M,,*7E
$GNGGA,202813.000,4900.7874,N,00825.4316,E,2,10,0.94,113.9,M,47.9,M,,*79
$GNGGA,202834.000,4900.7871,N,00825.4314,E,2,8,1.10,111.8,M,47.9,M,,*4C
$GNGGA,202855.000,4900.7863,N,00825.4231,E,2,9,1.04,118.4,M,47.9,M,,*4F
$GNGGA,202916.000,4900.7872,N,00825.4258,E,2,9,1.07,121.8,M,47.9,M,,*43
$GNGGA,202937.000,4900.7864,N,00825.4198,E,2,10,0.94,129.0,M,47.9,M,,*7B
$GNGGA,202958.000,4900.7864,N,00825.4221,E,2,10,0.94,127.5,M,47.9,M,,*78
$GNGGA,203018.000,4900.7863,N,00825.4164,E,2,10,0.94,125.4,M,47.9,M,,*72
$GNGGA,203039.000,4900.7844,N,00825.4211,E,2,6,4.25,128.1,M,47.9,M,,*44
$GNGGA,203100.000,4900.7851,N,00825.4240,E,2,7,2.33,128.5,M,47.9,M,,*4B
$GNGGA,203120.000,4900.7840,N,00825.4230,E,2,7,1.39,126.2,M,47.9,M,,*4E
$GNGGA,203141.000,4900.7831,N,00825.4269,E,2,9,0.95,127.6,M,47.9,M,,*4F
$GNGGA,203202.000,4900.7835,N,00825.4122,E,2,8,1.36,133.1,M,47.9,M,,*48
$GNGGA,203222.000,4900.7821,N,00825.4143,E,2,9,1.04,137.9,M,47.9,M,,*44
$GNGGA,203242.000,4900.7839,N,00825.4200,E,2,9,1.04,137.3,M,47.9,M,,*45
$GNGGA,203303.000,4900.7832,N,00825.4207,E,2,9,1.04,136.5,M,47.9,M,,*4A
$GNGGA,203324.000,4900.7826,N,00825.4148,E,2,9,1.04,136.8,M,47.9,M,,*4F
$GNGGA,203345.000,4900.7828,N,00825.4130,E,2,10,0.94,136.3,M,47.9,M,,*72
$GNGGA,203406.000,4900.7838,N,00825.4169,E,2,10,0.94,133.2,M,47.9,M,,*7B
$GNGGA,203427.000,4900.7833,N,00825.4219,E,2,8,1.09,134.6,M,47.9,M,,*48
$GNGGA,203448.000,4900.7822,N,00825.4252,E,2,9,0.95,131.5,M,47.9,M,,*4D
$GNGGA,203509.000,4900.7808,N,00825.4193,E,2,9,1.04,128.5,M,47.9,M,,*4E
$GNGGA,203530.000,4900.7813,N,00825.4189,E,2,9,1.04,126.0,M,47.9,M,,*4E
$GNGGA,203551.000,4900.7853,N,00825.4242,E,2,9,0.95,126.0,M,47.9,M,,*40
$GNGGA,203612.000,4900.7852,N,00825.4210,E,2,8,1.09,129.7,M,47.9,M,,*4F
$GNGGA,203632.000,4900.7829,N,00825.4234,E,2,8,1.09,130.6,M,47.9,M,,*4E
$GNGGA,203653.000,4900.7838,N,00825.4257,E,2,8,1.09,129.3,M,47.9,M,,*41
$GNGGA,203714.000,4900.7843,N,00825.4252,E,2,8,1.13,126.7,M,47.9,M,,*4A
$GNGGA,203735.000,4900.7856,N,00825.4316,E,2,7,1.04,123.2,M,47.9,M,,*45
$GNGGA,203756.000,4900.7853,N,00825.4317,E,2,8,1.03,124.7,M,47.9,M,,*4E
$GNGGA,203817.000,4900.7846,N,00825.4258,E,2,7,1.04,129.7,M,47.9,M,,*4F
$GNGGA,203837.000,4900.7851,N,00825.4259,E,2,7,1.19,130.3,M,47.9,M,,*4A
$GNGGA,203858.000,4900.7846,N,00825.4246,E,2,7,1.23,133.7,M,47.9,M,,*45
$GNGGA,203919.000,4900.7840,N,00825.4258,E,2,9,0.95,132.0,M,47.9,M,,*4C
$GNGGA,203940.000,4900.7829,N,00825.4237,E,2,9,0.95,134.3,M,47.9,M,,*43
$GNGGA,204001.000,4900.7831,N,00825.4234,E,2,7,1.24,132.3,M,47.9,M,,*41
$GNGGA,204022.000,4900.7837,N,00825.4232,E,2,7,1.19,131.6,M,47.9,M,,*48
$GNGGA,204042.000,4900.7839,N,00825.4216,E,2,9,1.03,131.7,M,47.9,M,,*42
$GNGGA,204103.000,4900.7834,N,00825.4315,E,2,8,1.32,131.3,M,47.9,M,,*4E
$GNGGA,204123.000,4900.7827,N,00825.4290,E,2,9,1.03,129.6,M,47.9,M,,*4D
$GNGGA,204144.000,4900.7825,N,00825.4231,E,2,9,1.03,129.5,M,47.9,M,,*46
$GNGGA,204205.000,4900.7822,N,00825.4227,E,2,9,1.03,127.6,M,47.9,M,,*4D
$GNGGA,204225.000,4900.7832,N,00825.4228,E,2,9,1.03,128.6,M,47.9,M,,*4E
$GNGGA,204245.000,4900.7822,N,00825.4230,E,2,9,1.09,128.4,M,47.9,M,,*48
$GNGGA,204306.000,4900.7820,N,00825.4268,E,2,8,1.31,127.1,M,47.9,M,,*41
$GNGGA,204326.000,4900.7840,N,00825.4264,E,2,8,1.31,122.7,M,47.9,M,,*4A
$GNGGA,204347.000,4900.7841,N,00825.4356,E,2,8,1.31,120.5,M,47.9,M,,*4C
$GNGGA,204408.000,4900.7822,N,00825.4273,E,2,8,1.31,120.9,M,47.9,M,,*4F
$GNGGA,204428.000,4900.7830,N,00825.4246,E,2,8,1.11,122.3,M,47.9,M,,*42
$GNGGA,204449.000,4900.7830,N,00825.4293,E,2,8,1.10,123.2,M,47.9,M,,*4C
$GNGGA,204510.000,4900.7839,N,00825.4316,E,2,8,1.10,123.8,M,47.9,M,,*4E
$GNGGA,204530.000,4900.7833,N,00825.4393,E,2,8,1.10,121.6,M,47.9,M,,*47
$GNGGA,204550.000,4900.7824,N,00825.4384,E,2,8,1.16,120.1,M,47.9,M,,*41
$GNGGA,204611.000,4900.7824,N,00825.4374,E,2,9,0.95,121.6,M,47.9,M,,*45
$GNGGA,204631.000,4900.7818,N,00825.4369,E,2,8,1.10,121.5,M,47.9,M,,*4A
$GNGGA,204652.000,4900.7821,N,00825.4344,E,2,7,1.19,121.5,M,47.9,M,,*4C
$GNGGA,204713.000,4900.7834,N,00825.4322,E,2,7,1.19,121.9,M,47.9,M,,*40
$GNGGA,204733.000,4900.7832,N,00825.4311,E,2,6,2.12,122.2,M,47.9,M,,*45
$GNGGA,204753.000,4900.7820,N,00825.4319,E,2,8,1.01,122.4,M,47.9,M,,*41
$GNGGA,204814.000,4900.7835,N,00825.4312,E,2,7,1.19,121.1,M,47.9,M,,*42
$GNGGA,204834.000,4900.7860,N,00825.4315,E,2,7,1.19,117.6,M,47.9,M,,*45
$GNGGA,204854.000,4900.7830,N,00825.4323,E,2,7,1.43,116.3,M,47.9,M,,*48
$GNGGA,204915.000,4900.7840,N,00825.4372,E,2,7,1.19,113.3,M,47.9,M,,*45
$GNGGA,204935.000,4900.7834,N,00825.4379,E,2,6,2.09,114.2,M,47.9,M,,*4A
$GNGGA,204956.000,4900.7817,N,00825.4405,E,2,8,1.01,117.5,M,47.9,M,,*43
$GNGGA,205017.000,4900.7825,N,00825.4333,E,2,9,0.99,121.7,M,47.9,M,,*4B
$GNGGA,205038.000,4900.7824,N,00825.4319,E,2,8,1.11,123.1,M,47.9,M,,*4B
$GNGGA,205058.000,4900.7834,N,00825.4281,E,2,8,1.11,126.4,M,47.9,M,,*4C
$GNGGA,205119.000,4900.7848,N,00825.4261,E,2,7,1.36,129.4,M,47.9,M,,*48
$GNGGA,205139.000,4900.7848,N,00825.4284,E,2,7,1.36,129.6,M,47.9,M,,*43
$GNGGA,205200.000,4900.7860,N,00825.4289,E,2,7,1.36,126.2,M,47.9,M,,*46
$GNGGA,205221.000,4900.7856,N,00825.4334,E,2,7,1.36,124.7,M,47.9,M,,*40
$GNGGA,205241.000,4900.7861,N,00825.4356,E,2,7,1.19,121.9,M,47.9,M,,*40
$GNGGA,205302.000,4900.7854,N,00825.4293,E,2,7,1.19,119.0,M,47.9,M,,*4A
$GNGGA,205323.000,4900.7850,N,00825.4306,E,2,7,1.01,117.5,M,47.9,M,,*42
$GNGGA,205344.000,4900.7855,N,00825.4367,E,2,7,2.41,118.3,M,47.9,M,,*4F
$GNGGA,205405.000,4900.7837,N,00825.4404,E,2,9,0.98,122.4,M,47.9,M,,*4D
$GNGGA,205425.000,4900.7830,N,00825.4417,E,2,6,1.20,122.2,M,47.9,M,,*41
$GNGGA,205445.000,4900.7846,N,00825.4434,E,2,7,1.19,122.4,M,47.9,M,,*4A
$GNGGA,205506.000,4900.7855,N,00825.4451,E,2,7,1.19,122.1,M,47.9,M,,*48
$GNGGA,205526.000,4900.7839,N,00825.4499,E,2,8,1.10,121.7,M,47.9,M,,*47
$GNGGA,205547.000,4900.7834,N,00825.4361,E,2,8,1.10,125.7,M,47.9,M,,*49
$GNGGA,205608.000,4900.7833,N,00825.4281,E,2,7,1.63,129.8,M,47.9,M,,*41
$GNGGA,205628.000,4900.7840,N,00825.4399,E,2,8,1.10,128.2,M,47.9,M,,*4F
$GNGGA,205648.000,4900.7834,N,00825.4428,E,2,8,1.10,127.2,M,47.9,M,,*48
$GNGGA,205709.000,4900.7844,N,00825.4409,E,2,9,0.98,126.7,M,47.9,M,,*4C
$GNGGA,205730.000,4900.7872,N,00825.4432,E,2,8,1.19,123.4,M,47.9,M,,*44
$GNGGA,205750.000,4900.7843,N,00825.4426,E,2,8,1.10,124.1,M,47.9,M,,*4E
$GNGGA,205811.000,4900.7858,N,00825.4360,E,2,7,1.34,123.2,M,47.9,M,,*46
$GNGGA,205832.000,4900.7844,N,00825.4274,E,2,7,1.34,125.9,M,47.9,M,,*43
$GNGGA,205852.000,4900.7842,N,00825.4244,E,2,8,1.19,124.5,M,47.9,M,,*4D
$GNGGA,205913.000,4900.7832,N,00825.4186,E,2,6,2.34,125.6,M,47.9,M,,*43
$GNGGA,205933.000,4900.7826,N,00825.4202,E,2,7,1.20,125.6,M,47.9,M,,*4C
$GNGGA,205953.000,4900.7837,N,00825.4220,E,2,7,1.62,125.3,M,47.9,M,,*49
$GNGGA,210014.000,4900.7844,N,00825.4288,E,2,7,1.34,121.9,M,47.9,M,,*4C
$GNGGA,210034.000,4900.7843,N,00825.4245,E,2,7,1.10,119.5,M,47.9,M,,*49
$GNGGA,210055.000,4900.7845,N,00825.4202,E,2,7,1.19,120.3,M,47.9,M,,*4E
$GNGGA,210116.000,4900.7820,N,00825.4202,E,2,7,1.19,119.8,M,47.9,M,,*4A
$GNGGA,210136.000,4900.7817,N,00825.4215,E,2,7,1.34,116.0,M,47.9,M,,*42
$GNGGA,210157.000,4900.7827,N,00825.4377,E,2,8,1.10,110.7,M,47.9,M,,*4B
$GNGGA,210218.000,4900.7857,N,00825.4390,E,6,0,99.99,108.4,M,47.9,M,,*7B
$GNGGA,210239.000,4900.7854,N,00825.4383,E,0,0,,108.5,M,47.9,M,,*50
$GNGGA,210259.000,4900.7854,N,00825.4383,E,0,0,,108.5,M,47.9,M,,*56
$GNGGA,210320.000,4900.7854,N,00825.4383,E,0,0,,108.5,M,47.9,M,,*59
$GNGGA,210340.000,4900.7854,N,00825.4383,E,0,0,,108.5,M,47.9,M,,*5F
$GNGGA,210401.000,4900.7854,N,00825.4383,E,0,0,,108.5,M,47.9,M,,*5D
$GNGGA,210422.000,4900.7853,N,00825.4380,E,0,0,,108.8,M,47.9,M,,*55
$GNGGA,210442.000,4900.7853,N,00825.4380,E,0,0,,108.8,M,47.9,M,,*53
$GNGGA,210503.000,4900.7853,N,00825.4380,E,0,0,,108.8,M,47.9,M,,*57
$GNGGA,210524.000,4900.7853,N,00825.4380,E,0,0,,108.8,M,47.9,M,,*52
$GNGGA,210544.000,4900.7853,N,00825.4380,E,0,0,,108.8,M,47.9,M,,*54
$GNGGA,210604.000,4900.7853,N,00825.4379,E,0,0,,108.8,M,47.9,M,,*55
$GNGGA,210626.000,4900.7853,N,00825.4379,E,0,0,,108.8,M,47.9,M,,*55
$GNGGA,210646.000,4900.7853,N,00825.4379,E,0,0,,108.8,M,47.9,M,,*53
$GNGGA,210706.000,4900.7853,N,00825.4379,E,0,0,,108.8,M,47.9,M,,*56
$GNGGA,210727.000,4900.7853,N,00825.4379,E,0,0,,108.8,M,47.9,M,,*55
$GNGGA,210747.000,4900.7852,N,00825.4377,E,0,0,,108.8,M,47.9,M,,*5C
$GNGGA,210807.000,4900.7850,N,00825.4548,E,2,4,2.39,80.9,M,47.9,M,,*7F
$GNGGA,210828.000,4900.7520,N,00825.4635,E,2,5,1.81,94.5,M,47.9,M,,*79
$GNGGA,210848.000,4900.7519,N,00825.4808,E,2,6,1.29,96.8,M,47.9,M,,*7B
$GNGGA,210909.000,4900.7307,N,00825.5021,E,2,5,1.60,97.0,M,47.9,M,,*73
$GNGGA,210930.000,4900.7527,N,00825.5341,E,2,6,1.29,97.0,M,47.9,M,,*76
$GNGGA,210954.000,4900.7521,N,00825.5533,E,2,5,1.79,109.4,M,47.9,M,,*45
$GNGGA,211015.000,4900.7525,N,00825.5674,E,2,4,2.33,108.2,M,47.9,M,,*47
$GNGGA,211035.000,4900.7492,N,00825.5688,E,0,0,,107.2,M,47.9,M,,*5E
$GNGGA,211056.000,4900.7491,N,00825.5687,E,0,0,,107.2,M,47.9,M,,*57
$GNGGA,211117.000,4900.7491,N,00825.5687,E,0,0,,107.2,M,47.9,M,,*53
$GNGGA,211137.000,4900.7491,N,00825.5687,E,0,0,,107.2,M,47.9,M,,*51
$GNGGA,211157.000,4900.7491,N,00825.5687,E,0,0,,107.2,M,47.9,M,,*57
$GNGGA,211218.000,4900.7492,N,00825.5688,E,0,0,,107.3,M,47.9,M,,*52
$GNGGA,211238.000,4900.7492,N,00825.5688,E,0,0,,107.3,M,47.9,M,,*50
$GNGGA,211258.000,4900.7492,N,00825.5688,E,0,0,,107.3,M,47.9,M,,*56
$GNGGA,211319.000,4900.7492,N,00825.5688,E,0,0,,107.3,M,47.9,M,,*52
$GNGGA,211339.000,4900.7492,N,00825.5688,E,0,0,,107.3,M,47.9,M,,*50
$GNGGA,211359.000,4900.7411,N,00825.5415,E,0,4,,110.1,M,47.9,M,,*5B
$GNGGA,211420.000,4900.7345,N,00825.5303,E,2,4,2.24,132.9,M,47.9,M,,*44
$GNGGA,211441.000,4900.7353,N,00825.5092,E,2,4,2.15,127.7,M,47.9,M,,*47
$GNGGA,211502.000,4900.7143,N,00825.4986,E,2,4,2.15,114.8,M,47.9,M,,*40
$GNGGA,211522.000,4900.7065,N,00825.4800,E,2,4,2.14,111.8,M,47.9,M,,*4C
$GNGGA,211542.000,4900.7026,N,00825.4625,E,2,4,2.14,107.5,M,47.9,M,,*4E
$GNGGA,211603.000,4900.6961,N,00825.4513,E,2,4,2.14,95.3,M,47.9,M,,*79
$GNGGA,211624.000,4900.6767,N,00825.4310,E,2,4,2.13,87.6,M,47.9,M,,*70
$GNGGA,211645.000,4900.6730,N,00825.4228,E,2,3,2.79,86.8,M,47.9,M,,*7B
$GNGGA,211706.000,4900.6767,N,00825.4058,E,2,4,2.30,94.8,M,47.9,M,,*73
$GNGGA,211727.000,4900.6584,N,00825.3843,E,2,5,1.67,100.6,M,47.9,M,,*48
$GNGGA,211747.000,4900.6246,N,00825.4174,E,2,5,1.67,102.5,M,47.9,M,,*4C
$GNGGA,211808.000,4900.6004,N,00825.4043,E,2,5,1.67,104.8,M,47.9,M,,*42
$GNGGA,211828.000,4900.5945,N,00825.4151,E,2,5,1.66,108.0,M,47.9,M,,*48
$GNGGA,211849.000,4900.5806,N,00825.4096,E,2,4,2.26,110.8,M,47.9,M,,*44
$GNGGA,211909.000,4900.5705,N,00825.4252,E,2,5,1.65,115.1,M,47.9,M,,*4E
$GNGGA,211930.000,4900.5547,N,00825.4237,E,2,5,1.65,115.3,M,47.9,M,,*41
$GNGGA,211951.000,4900.5444,N,00825.4256,E,2,5,1.64,117.8,M,47.9,M,,*4B
$GNGGA,212011.000,4900.5346,N,00825.4154,E,0,0,,120.9,M,47.9,M,,*5E
$GNGGA,212031.000,4900.5373,N,00825.4178,E,0,0,,120.9,M,47.9,M,,*54
$GNGGA,212052.000,4900.5373,N,00825.4178,E,0,0,,120.9,M,47.9,M,,*51
$GNGGA,212115.000,4900.5373,N,00825.4178,E,0,0,,120.9,M,47.9,M,,*53
$GNGGA,212222.000,4900.5379,N,00825.4182,E,0,0,,120.9,M,47.9,M,,*5B
$GNGGA,212243.000,4900.5379,N,00825.4182,E,0,0,,120.9,M,47.9,M,,*5C
$GNGGA,212303.000,4900.5379,N,00825.4182,E,0,0,,120.9,M,47.9,M,,*59
$GNGGA,212323.000,4900.5379,N,00825.4182,E,0,0,,120.9,M,47.9,M,,*5B
