created_at,entry_id,field1,field2,field3,field4,field5,field6,field7,field8,latitude,longitude,elevation,status
2022-02-17T17:19:45+01:00,1,23.94,44.81,998.87,386.1,405.5,0,22.5,"$GNGGA,161940.086,4900.5813,N,00824.7781,E,0,0,,114.8,M,47.9,M,,*5B",,,,
2022-02-17T17:20:05+01:00,2,24.05,42.8,998.92,358.3,376.3,0,23.5,"$GNGGA,162000.305,9000.0000,N,00000.0000,E,0,0,,137.0,M,13.0,M,,*50",,,,
2022-02-17T17:20:25+01:00,3,24.36,40.8,998.95,329.7,346.2,0,22.5,"$GNGGA,162020.304,9000.0000,N,00000.0000,E,0,0,,137.0,M,13.0,M,,*53",,,,
2022-02-17T17:20:45+01:00,4,24.8,38.95,998.93,321,337.1,0,22.5,"$GNGGA,162041.093,9000.0000,N,00000.0000,E,0,0,,137.0,M,13.0,M,,*59",,,,
2022-02-17T17:21:06+01:00,5,25.28,37.86,998.94,321.7,337.8,0,22.5,"$GNGGA,162101.301,9000.0000,N,00000.0000,E,0,0,,137.0,M,13.0,M,,*54",,,,
2022-02-17T17:21:27+01:00,6,25.8,36.73,998.95,316.7,332.6,0,22.5,"$GNGGA,162122.303,9000.0000,N,00000.0000,E,0,0,,137.0,M,13.0,M,,*57",,,,
2022-02-17T17:21:48+01:00,7,26.3,34.02,998.95,315.3,331.1,0,22.5,"$GNGGA,162143.308,9000.0000,N,00000.0000,E,0,0,,137.0,M,13.0,M,,*5B",,,,
2022-02-17T17:22:09+01:00,8,26.78,33.69,998.97,312.2,327.9,0,22.5,"$GNGGA,162204.303,9000.0000,N,00000.0000,E,0,0,,137.0,M,13.0,M,,*50",,,,
2022-02-17T17:22:28+01:00,9,27.24,33.26,998.97,312,327.7,0,23,"$GNGGA,162224.092,9000.0000,N,00000.0000,E,0,0,,137.0,M,13.0,M,,*59",,,,
2022-02-17T17:22:51+01:00,10,27.67,32.74,998.97,303.1,318.3,0,23,"$GNGGA,162246.089,9000.0000,N,00000.0000,E,0,0,,137.0,M,13.0,M,,*57",,,,
2022-02-17T17:23:12+01:00,11,28.09,32.11,998.98,297,311.9,0,23,"$GNGGA,162307.089,9000.0000,N,00000.0000,E,0,0,,137.0,M,13.0,M,,*53",,,,
2022-02-17T17:23:32+01:00,12,28.47,30.48,999.01,302.3,317.5,0,23,"$GNGGA,162328.089,9000.0000,N,00000.0000,E,0,0,,137.0,M,13.0,M,,*5E",,,,
2022-02-17T17:23:53+01:00,13,28.83,30.01,999.01,301.2,316.3,0,23,"$GNGGA,162349.089,9000.0000,N,00000.0000,E,0,0,,137.0,M,13.0,M,,*59",,,,
2022-02-17T17:24:14+01:00,14,29.15,29.71,999,314.5,330.3,0,23.5,"$GNGGA,162409.303,9000.0000,N,00000.0000,E,0,0,,137.0,M,13.0,M,,*5B",,,,
2022-02-17T17:24:36+01:00,15,29.45,29.85,999,304.8,320.1,0,23.5,"$GNGGA,162430.082,9000.0000,N,00000.0000,E,0,0,,137.0,M,13.0,M,,*5B",,,,
2022-02-17T17:24:56+01:00,16,29.73,29.09,999,301.8,316.9,0,23.5,"$GNGGA,162452.089,9000.0000,N,00000.0000,E,0,0,,137.0,M,13.0,M,,*54",,,,
2022-02-17T17:25:17+01:00,17,29.98,29.14,999,281.8,295.9,0,23.5,"$GNGGA,162512.000,4900.5224,N,00825.5081,E,1,4,2.60,188.5,M,47.9,M,,*40",,,,
2022-02-17T17:25:38+01:00,18,30.23,29.08,999.03,282.1,296.3,0,23.5,"$GNGGA,162533.000,4900.5191,N,00825.5090,E,1,5,1.34,191.3,M,47.9,M,,*43",,,,
2022-02-17T17:25:59+01:00,19,30.46,28.66,999.04,283.4,297.6,0,24,"$GNGGA,162554.000,4900.5179,N,00825.5137,E,1,5,1.34,197.9,M,47.9,M,,*44",,,,
2022-02-17T17:26:20+01:00,20,30.67,28.3,999.06,283.4,297.6,0,24,"$GNGGA,162615.000,4900.5137,N,00825.5165,E,1,4,2.60,190.8,M,47.9,M,,*4A",,,,
2022-02-17T17:26:40+01:00,21,30.86,27.78,999.09,286.7,301.1,0,24,"$GNGGA,162635.000,4900.5183,N,00825.5056,E,1,5,2.33,182.2,M,47.9,M,,*48",,,,
2022-02-17T17:27:01+01:00,22,31.04,27.02,999.09,293.1,307.8,0,24,"$GNGGA,162656.000,4900.5233,N,00825.4977,E,1,5,2.33,175.9,M,47.9,M,,*4D",,,,
2022-02-17T17:27:21+01:00,23,31.21,26.56,999.08,309.7,325.2,0,24,"$GNGGA,162716.000,4900.5260,N,00825.4921,E,1,5,2.33,168.9,M,47.9,M,,*41",,,,
2022-02-17T17:27:41+01:00,24,31.37,26.41,999.11,321.3,337.4,0,24,"$GNGGA,162736.000,4900.5235,N,00825.5349,E,1,6,1.15,185.1,M,47.9,M,,*49",,,,
2022-02-17T17:28:02+01:00,25,31.52,26.67,999.12,316.3,332.2,0,24.5,"$GNGGA,162757.000,4900.5254,N,00825.5191,E,1,5,2.33,187.0,M,47.9,M,,*49",,,,
2022-02-17T17:28:22+01:00,26,31.66,26.34,999.12,314.9,330.7,0,24.5,"$GNGGA,162817.000,4900.5242,N,00825.5094,E,1,5,2.33,178.4,M,47.9,M,,*45",,,,
2022-02-17T17:28:43+01:00,27,31.8,26.31,999.11,304.9,320.2,0,24.5,"$GNGGA,162838.000,4900.5241,N,00825.4920,E,1,5,2.33,172.8,M,47.9,M,,*4A",,,,
2022-02-17T17:29:04+01:00,28,31.93,26.34,999.12,323.1,339.3,0,24.5,"$GNGGA,162859.000,4900.5240,N,00825.4705,E,1,5,2.33,166.8,M,47.9,M,,*40",,,,
2022-02-17T17:29:25+01:00,29,32.06,26.15,999.12,316.5,332.4,0,24.5,"$GNGGA,162920.000,4900.5225,N,00825.4632,E,1,5,2.34,162.5,M,47.9,M,,*47",,,,
2022-02-17T17:29:46+01:00,30,32.18,25.69,999.11,309.8,325.3,0,25,"$GNGGA,162941.000,4900.5263,N,00825.4376,E,1,5,2.34,154.4,M,47.9,M,,*43",,,,
2022-02-17T17:30:07+01:00,31,32.29,25.19,999.12,290.8,305.4,0,25,"$GNGGA,163002.000,4900.5257,N,00825.4744,E,1,6,1.15,152.6,M,47.9,M,,*49",,,,
2022-02-17T17:30:28+01:00,32,32.39,25.36,999.13,290,304.6,0,25,"$GNGGA,163023.000,4900.5258,N,00825.4865,E,1,6,1.15,150.9,M,47.9,M,,*44",,,,
2022-02-17T17:30:49+01:00,33,32.5,25.03,999.13,291.5,306.1,0,25,"$GNGGA,163044.000,4900.5217,N,00825.4788,E,1,6,1.15,147.2,M,47.9,M,,*4F",,,,
2022-02-17T17:31:10+01:00,34,32.59,24.79,999.14,293.9,308.6,0,25,"$GNGGA,163105.000,4900.5233,N,00825.4792,E,1,5,2.34,144.7,M,47.9,M,,*43",,,,
2022-02-17T17:31:31+01:00,35,32.68,24.82,999.15,305,320.3,0,25,"$GNGGA,163126.000,4900.5246,N,00825.4781,E,1,5,2.34,145.0,M,47.9,M,,*44",,,,
2022-02-17T17:31:52+01:00,36,32.78,24.78,999.16,319.6,335.6,0,25,"$GNGGA,163147.000,4900.5254,N,00825.4836,E,1,5,2.35,144.5,M,47.9,M,,*46",,,,
2022-02-17T17:32:13+01:00,37,32.87,24.85,999.17,329.9,346.4,0,25,"$GNGGA,163208.000,4900.5252,N,00825.4763,E,1,5,2.34,141.1,M,47.9,M,,*47",,,,
2022-02-17T17:32:34+01:00,38,32.96,24.82,999.22,315.5,331.3,0,25.5,"$GNGGA,163229.000,4900.5241,N,00825.4647,E,1,5,2.34,138.3,M,47.9,M,,*4D",,,,
2022-02-17T17:32:55+01:00,39,33.04,24.93,999.23,304,319.3,0,25.5,"$GNGGA,163250.000,4900.5223,N,00825.4715,E,1,5,2.35,134.2,M,47.9,M,,*4D",,,,
2022-02-17T17:33:16+01:00,40,33.13,24.74,999.22,303.1,318.3,0,25.5,"$GNGGA,163311.000,4900.5206,N,00825.5158,E,1,5,2.35,131.7,M,47.9,M,,*40",,,,
2022-02-17T17:33:36+01:00,41,33.21,24.51,999.18,318.5,334.5,0,25.5,"$GNGGA,163331.000,4900.5209,N,00825.4867,E,1,5,2.35,127.7,M,47.9,M,,*4E",,,,
2022-02-17T17:33:57+01:00,42,33.29,24.5,999.16,322.4,338.6,0,25.5,"$GNGGA,163352.000,4900.5216,N,00825.4795,E,1,5,2.35,125.4,M,47.9,M,,*46",,,,
2022-02-17T17:34:18+01:00,43,33.37,24.51,999.18,319.8,335.8,0,26,"$GNGGA,163413.000,4900.5208,N,00825.4643,E,1,5,2.35,125.7,M,47.9,M,,*42",,,,
2022-02-17T17:34:39+01:00,44,33.44,24.11,999.18,305.4,320.7,0,26,"$GNGGA,163434.000,4900.5203,N,00825.4592,E,1,5,2.35,125.8,M,47.9,M,,*4C",,,,
2022-02-17T17:34:59+01:00,45,33.51,23.85,999.2,302.3,317.5,0,26,"$GNGGA,163454.000,4900.5222,N,00825.4442,E,1,5,2.35,126.7,M,47.9,M,,*49",,,,
2022-02-17T17:35:20+01:00,46,33.58,23.88,999.23,311.2,326.8,0,26,"$GNGGA,163515.000,4900.5216,N,00825.4412,E,1,5,2.35,127.5,M,47.9,M,,*4C",,,,
2022-02-17T17:35:41+01:00,47,33.65,23.6,999.25,320.5,336.6,0,26,"$GNGGA,163536.000,4900.5211,N,00825.4497,E,1,5,2.35,124.6,M,47.9,M,,*47",,,,
2022-02-17T17:36:02+01:00,48,33.72,23.64,999.29,324,340.3,0,26,"$GNGGA,163557.000,4900.5211,N,00825.4391,E,1,5,1.36,128.1,M,47.9,M,,*4A",,,,
2022-02-17T17:36:22+01:00,49,33.78,22.96,999.28,314.8,330.6,0,26,"$GNGGA,163617.000,4900.5222,N,00825.4485,E,1,5,1.36,129.5,M,47.9,M,,*4A",,,,
2022-02-17T17:36:42+01:00,50,33.85,22.72,999.26,313.3,329,0,26,"$GNGGA,163637.000,4900.5221,N,00825.4551,E,1,6,1.15,131.6,M,47.9,M,,*4B",,,,
2022-02-17T17:37:03+01:00,51,33.91,22.8,999.27,305.8,321.1,0,26,"$GNGGA,163658.000,4900.5221,N,00825.4553,E,1,5,2.36,133.7,M,47.9,M,,*42",,,,
2022-02-17T17:37:24+01:00,52,33.96,22.57,999.27,310,325.6,0,26,"$GNGGA,163719.000,4900.5218,N,00825.4648,E,1,4,4.57,129.9,M,47.9,M,,*40",,,,
2022-02-17T17:37:44+01:00,53,34.02,23.01,999.27,319.4,335.4,0,26.5,"$GNGGA,163739.000,4900.5228,N,00825.4582,E,1,6,1.15,127.4,M,47.9,M,,*46",,,,
2022-02-17T17:38:05+01:00,54,34.07,23.07,999.29,319.3,335.3,0,26.5,"$GNGGA,163800.000,4900.5247,N,00825.4598,E,1,5,2.36,128.2,M,47.9,M,,*49",,,,
2022-02-17T17:38:25+01:00,55,34.12,22.65,999.3,308.9,324.4,0,26.5,"$GNGGA,163820.000,4900.5253,N,00825.4599,E,1,5,2.36,130.7,M,47.9,M,,*43",,,,
2022-02-17T17:38:46+01:00,56,34.18,22.72,999.32,293.1,307.8,0,26.5,"$GNGGA,163841.000,4900.5225,N,00825.4606,E,1,5,2.37,128.8,M,47.9,M,,*47",,,,
2022-02-17T17:39:07+01:00,57,34.23,22.34,999.31,292.5,307.2,0,26.5,"$GNGGA,163902.000,4900.5231,N,00825.4429,E,1,5,2.37,128.1,M,47.9,M,,*42",,,,
2022-02-17T17:39:27+01:00,58,34.27,22.54,999.31,288,302.5,0,26.5,"$GNGGA,163922.000,4900.5232,N,00825.4374,E,1,5,2.37,127.9,M,47.9,M,,*4B",,,,
2022-02-17T17:39:48+01:00,59,34.32,22.18,999.3,289.9,304.4,0,26.5,"$GNGGA,163943.000,4900.5240,N,00825.4470,E,1,5,2.37,127.4,M,47.9,M,,*47",,,,
2022-02-17T17:40:09+01:00,60,34.36,22.02,999.3,291.9,306.5,0,26.5,"$GNGGA,164004.000,4900.5221,N,00825.4658,E,1,5,2.37,125.4,M,47.9,M,,*47",,,,
2022-02-17T17:40:29+01:00,61,34.4,21.96,999.3,288.4,302.9,0,26.5,"$GNGGA,164024.000,4900.5225,N,00825.4601,E,1,5,2.37,124.1,M,47.9,M,,*49",,,,
2022-02-17T17:40:50+01:00,62,34.45,21.9,999.31,285,299.3,0,26.5,"$GNGGA,164045.000,4900.5224,N,00825.4406,E,1,5,2.37,123.1,M,47.9,M,,*4D",,,,
2022-02-17T17:41:11+01:00,63,34.49,21.67,999.32,282.9,297.1,0,26.5,"$GNGGA,164106.000,4900.5205,N,00825.4649,E,1,5,2.37,121.6,M,47.9,M,,*44",,,,
2022-02-17T17:41:32+01:00,64,34.52,21.66,999.32,278.2,292.2,0,26.5,"$GNGGA,164127.000,4900.5211,N,00825.4670,E,1,4,4.99,118.6,M,47.9,M,,*41",,,,
2022-02-17T17:41:53+01:00,65,34.55,21.67,999.31,275,288.8,0,26.5,"$GNGGA,164148.000,4900.5241,N,00825.4312,E,1,4,5.03,118.9,M,47.9,M,,*41",,,,
2022-02-17T17:42:14+01:00,66,34.59,21.72,999.3,276.4,290.3,0,26.5,"$GNGGA,164209.000,4900.5256,N,00825.4477,E,1,4,5.07,120.0,M,47.9,M,,*43",,,,
2022-02-17T17:42:35+01:00,67,34.62,21.44,999.29,278.5,292.5,0,26.5,"$GNGGA,164230.000,4900.5226,N,00825.4619,E,1,4,5.11,117.2,M,47.9,M,,*45",,,,
2022-02-17T17:42:55+01:00,68,34.66,21.56,999.3,277.2,291.1,0,26.5,"$GNGGA,164250.000,4900.5229,N,00825.4551,E,1,4,5.14,116.5,M,47.9,M,,*40",,,,
2022-02-17T17:43:16+01:00,69,34.69,21.67,999.32,275.4,289.2,0,27,"$GNGGA,164311.000,4900.5242,N,00825.4512,E,1,4,5.18,115.4,M,47.9,M,,*40",,,,
2022-02-17T17:43:36+01:00,70,34.71,21.11,999.33,278.1,292.1,0,27,"$GNGGA,164331.000,4900.5242,N,00825.4801,E,1,5,2.38,115.8,M,47.9,M,,*45",,,,
2022-02-17T17:43:57+01:00,71,34.74,21.25,999.36,281.4,295.5,0,27,"$GNGGA,164352.000,4900.5218,N,00825.4652,E,1,5,2.38,118.2,M,47.9,M,,*40",,,,
2022-02-17T17:44:18+01:00,72,34.77,21.42,999.38,287.1,301.5,0,27,"$GNGGA,164413.000,4900.5219,N,00825.4755,E,1,5,2.38,120.5,M,47.9,M,,*49",,,,
2022-02-17T17:44:39+01:00,73,34.8,21.07,999.38,290.1,304.7,0,27,"$GNGGA,164434.000,4900.5219,N,00825.4656,E,1,5,2.38,122.5,M,47.9,M,,*4C",,,,
2022-02-17T17:45:00+01:00,74,34.82,21.28,999.39,282.4,296.6,0,27,"$GNGGA,164455.000,4900.5241,N,00825.4600,E,1,5,2.38,122.9,M,47.9,M,,*49",,,,
2022-02-17T17:45:21+01:00,75,34.85,21.36,999.39,277.1,291,0,27,"$GNGGA,164516.000,4900.5222,N,00825.4695,E,1,5,2.38,122.3,M,47.9,M,,*4C",,,,
2022-02-17T17:45:42+01:00,76,34.88,21.16,999.4,282.5,296.7,0,27,"$GNGGA,164537.000,4900.5229,N,00825.4651,E,1,5,2.38,122.3,M,47.9,M,,*4C",,,,
2022-02-17T17:46:03+01:00,77,34.91,21.27,999.42,291.3,305.9,0,27,"$GNGGA,164558.000,4900.5225,N,00825.4547,E,1,6,1.16,122.2,M,47.9,M,,*40",,,,
2022-02-17T17:46:24+01:00,78,34.94,21.46,999.45,295.5,310.3,0,27,"$GNGGA,164619.000,4900.5228,N,00825.4629,E,1,6,1.16,122.0,M,47.9,M,,*42",,,,
2022-02-17T17:46:45+01:00,79,34.97,21.5,999.46,294.9,309.7,0,27.5,"$GNGGA,164640.000,4900.5232,N,00825.4514,E,1,5,2.38,120.4,M,47.9,M,,*42",,,,
2022-02-17T17:47:06+01:00,80,35,21.3,999.47,302.6,317.8,0,27.5,"$GNGGA,164701.000,4900.5237,N,00825.4545,E,1,5,2.38,120.3,M,47.9,M,,*40",,,,
2022-02-17T17:47:27+01:00,81,35.03,20.64,999.47,307.4,322.8,0,27,"$GNGGA,164722.000,4900.5241,N,00825.4701,E,1,5,2.38,120.4,M,47.9,M,,*45",,,,
2022-02-17T17:47:48+01:00,82,35.05,20.49,999.48,306.4,321.8,0,27,"$GNGGA,164743.000,4900.5220,N,00825.4747,E,1,5,2.38,119.2,M,47.9,M,,*4B",,,,
2022-02-17T17:48:09+01:00,83,35.08,20.43,999.5,298.6,313.6,0,27,"$GNGGA,164804.000,4900.5223,N,00825.4613,E,1,4,5.72,117.1,M,47.9,M,,*41",,,,
2022-02-17T17:48:30+01:00,84,35.1,20.51,999.49,287.3,301.7,0,27,"$GNGGA,164825.000,4900.5229,N,00825.4772,E,1,4,5.76,117.4,M,47.9,M,,*4F",,,,
2022-02-17T17:48:51+01:00,85,35.12,20.7,999.47,283.1,297.3,0,27.5,"$GNGGA,164846.000,4900.5232,N,00825.4718,E,1,4,5.95,116.5,M,47.9,M,,*41",,,,
2022-02-17T17:49:12+01:00,86,35.15,20.76,999.47,290.9,305.5,0,27.5,"$GNGGA,164907.000,4900.5213,N,00825.4676,E,1,5,2.39,115.3,M,47.9,M,,*4A",,,,
2022-02-17T17:49:33+01:00,87,35.17,20.51,999.49,300.2,315.3,0,27.5,"$GNGGA,164928.000,4900.5222,N,00825.4604,E,1,5,2.39,116.3,M,47.9,M,,*43",,,,
2022-02-17T17:49:54+01:00,88,35.2,20.75,999.49,299.9,314.9,0,27.5,"$GNGGA,164949.000,4900.5211,N,00825.4565,E,1,5,2.39,117.4,M,47.9,M,,*46",,,,
2022-02-17T17:50:15+01:00,89,35.22,20.72,999.47,294.6,309.4,0,27.5,"$GNGGA,165010.000,4900.5217,N,00825.4493,E,1,4,5.95,118.9,M,47.9,M,,*4E",,,,
2022-02-17T17:50:36+01:00,90,35.24,20.5,999.47,293.3,308,0,27.5,"$GNGGA,165031.000,4900.5215,N,00825.4467,E,1,4,5.98,118.6,M,47.9,M,,*46",,,,
2022-02-17T17:50:57+01:00,91,35.25,19.97,999.45,297.3,312.2,0,27.5,"$GNGGA,165052.000,4900.5228,N,00825.4526,E,1,5,2.39,118.7,M,47.9,M,,*45",,,,
2022-02-17T17:51:18+01:00,92,35.27,20.28,999.45,295.3,310.1,0,27.5,"$GNGGA,165113.000,4900.5223,N,00825.4476,E,1,6,1.16,118.8,M,47.9,M,,*4C",,,,
2022-02-17T17:51:39+01:00,93,35.29,20.45,999.43,293.9,308.6,0,27.5,"$GNGGA,165134.000,4900.5221,N,00825.4541,E,1,5,2.39,112.0,M,47.9,M,,*41",,,,
2022-02-17T17:52:00+01:00,94,35.31,20,999.42,298.1,313.1,0,27.5,"$GNGGA,165155.000,4900.5235,N,00825.4483,E,1,6,1.16,111.9,M,47.9,M,,*4B",,,,
2022-02-17T17:52:21+01:00,95,35.32,19.93,999.43,296.7,311.6,0,27.5,"$GNGGA,165216.000,4900.5229,N,00825.4505,E,1,5,2.39,113.5,M,47.9,M,,*4E",,,,
2022-02-17T17:52:42+01:00,96,35.33,20.15,999.45,293,307.7,0,27.5,"$GNGGA,165237.000,4900.5234,N,00825.4572,E,1,5,2.39,112.8,M,47.9,M,,*4D",,,,
2022-02-17T17:53:02+01:00,97,35.35,20.08,999.44,300.3,315.4,0,27.5,"$GNGGA,165257.000,4900.5216,N,00825.4591,E,1,5,2.39,108.7,M,47.9,M,,*42",,,,
2022-02-17T17:53:23+01:00,98,35.36,20.22,999.44,303.3,318.5,0,27.5,"$GNGGA,165318.000,4900.5219,N,00825.4562,E,1,5,2.39,109.5,M,47.9,M,,*48",,,,
2022-02-17T17:53:44+01:00,99,35.37,20.34,999.45,300.7,315.8,0,27.5,"$GNGGA,165339.000,4900.5237,N,00825.4516,E,1,5,2.39,110.7,M,47.9,M,,*4E",,,,
2022-02-17T17:54:05+01:00,100,35.39,20.16,999.45,310.8,326.4,0,27.5,"$GNGGA,165400.000,4900.5269,N,00825.4462,E,1,5,2.40,112.6,M,47.9,M,,*47",,,,
2022-02-17T17:54:26+01:00,101,35.41,20.22,999.46,315.4,331.2,0,27.5,"$GNGGA,165421.000,4900.5241,N,00825.4406,E,1,5,2.40,114.0,M,47.9,M,,*4C",,,,
2022-02-17T17:54:47+01:00,102,35.42,19.91,999.46,313.1,328.8,0,27.5,"$GNGGA,165442.000,4900.5222,N,00825.4453,E,1,6,2.33,113.8,M,47.9,M,,*44",,,,
2022-02-17T17:55:08+01:00,103,35.43,19.54,999.46,314.3,330.1,0,27.5,"$GNGGA,165503.000,4900.5222,N,00825.4682,E,1,5,2.40,111.2,M,47.9,M,,*41",,,,
2022-02-17T17:55:29+01:00,104,35.45,19.68,999.48,304.2,319.5,0,27.5,"$GNGGA,165524.000,4900.5253,N,00825.4538,E,1,6,1.16,113.0,M,47.9,M,,*43",,,,
2022-02-17T17:55:50+01:00,105,35.46,20,999.49,296.8,311.7,0,27.5,"$GNGGA,165545.000,4900.5251,N,00825.5004,E,1,7,1.03,122.5,M,47.9,M,,*4F",,,,
2022-02-17T17:56:11+01:00,106,35.48,20.03,999.5,296.5,311.4,0,28,"$GNGGA,165606.000,4900.5251,N,00825.4753,E,1,6,2.34,127.6,M,47.9,M,,*4F",,,,
2022-02-17T17:56:31+01:00,107,35.49,20.06,999.51,300.3,315.4,0,28,"$GNGGA,165626.000,4900.5240,N,00825.4744,E,1,6,2.34,127.4,M,47.9,M,,*49",,,,
2022-02-17T17:56:52+01:00,108,35.51,19.64,999.52,300.5,315.6,0,27.5,"$GNGGA,165647.000,4900.5241,N,00825.4679,E,1,6,2.33,128.8,M,47.9,M,,*44",,,,
2022-02-17T17:57:13+01:00,109,35.52,19.33,999.53,316.4,332.3,0,27.5,"$GNGGA,165708.000,4900.5236,N,00825.4666,E,1,6,2.34,129.6,M,47.9,M,,*48",,,,
2022-02-17T17:57:33+01:00,110,35.52,19.32,999.53,314.5,330.3,0,27.5,"$GNGGA,165728.000,4900.5247,N,00825.4697,E,1,7,1.03,130.7,M,47.9,M,,*4D",,,,
2022-02-17T17:57:54+01:00,111,35.53,19.07,999.55,314.3,330.1,0,27.5,"$GNGGA,165749.000,4900.5230,N,00825.4716,E,1,7,1.03,130.7,M,47.9,M,,*42",,,,
2022-02-17T17:58:15+01:00,112,35.54,18.99,999.55,308.4,323.9,0,27.5,"$GNGGA,165810.000,4900.5244,N,00825.5190,E,1,6,2.34,136.4,M,47.9,M,,*48",,,,
2022-02-17T17:58:36+01:00,113,35.53,18.8,999.54,311.3,326.9,0,27.5,"$GNGGA,165831.000,4900.5243,N,00825.4776,E,1,6,2.34,140.1,M,47.9,M,,*47",,,,
2022-02-17T17:58:57+01:00,114,35.53,18.58,999.54,309.5,325,0,27.5,"$GNGGA,165852.000,4900.5212,N,00825.4616,E,1,6,2.34,137.9,M,47.9,M,,*49",,,,
2022-02-17T17:59:18+01:00,115,35.53,18.67,999.54,301.3,316.4,0,27.5,"$GNGGA,165913.000,4900.5189,N,00825.4538,E,1,6,2.34,138.6,M,47.9,M,,*43",,,,
2022-02-17T17:59:39+01:00,116,35.52,19.03,999.53,293.5,308.2,0,27.5,"$GNGGA,165934.000,4900.5196,N,00825.4779,E,1,6,2.34,141.1,M,47.9,M,,*46",,,,
2022-02-17T18:00:00+01:00,117,35.51,19.06,999.52,297.4,312.3,0,27.5,"$GNGGA,165955.000,4900.5142,N,00825.4800,E,1,4,2.86,144.7,M,47.9,M,,*41",,,,
2022-02-17T18:00:21+01:00,118,35.51,18.98,999.52,294.1,308.9,0,27.5,"$GNGGA,170016.000,4900.5246,N,00825.4910,E,1,5,2.70,145.3,M,47.9,M,,*41",,,,
2022-02-17T18:00:41+01:00,119,35.5,19.21,999.54,291.1,305.7,0,27.5,"$GNGGA,170036.000,4900.5354,N,00825.4787,E,1,5,2.70,139.0,M,47.9,M,,*49",,,,
2022-02-17T18:01:02+01:00,120,35.5,19.24,999.55,287.2,301.6,0,27.5,"$GNGGA,170057.000,4900.5230,N,00825.4687,E,1,7,1.04,134.9,M,47.9,M,,*4A",,,,
2022-02-17T18:01:23+01:00,121,35.5,19.27,999.55,293.4,308.1,0,27.5,"$GNGGA,170118.000,4900.5242,N,00825.4536,E,1,7,1.04,129.5,M,47.9,M,,*4C",,,,
2022-02-17T18:01:44+01:00,122,35.5,19.14,999.54,302.9,318.1,0,27.5,"$GNGGA,170139.000,4900.5251,N,00825.4504,E,1,7,1.04,127.4,M,47.9,M,,*43",,,,
2022-02-17T18:02:08+01:00,123,35.5,19.17,999.52,286.8,301.2,0,27.5,"$GNGGA,170202.000,4900.5234,N,00825.4457,E,1,6,1.10,124.9,M,47.9,M,,*46",,,,
2022-02-17T18:02:29+01:00,124,35.5,19.01,999.52,272.3,286,0,27.5,"$GNGGA,170224.000,4900.5259,N,00825.4522,E,1,7,1.05,126.4,M,47.9,M,,*40",,,,
2022-02-17T18:02:50+01:00,125,35.5,18.92,999.55,255.3,268.1,0,27.5,"$GNGGA,170245.000,4900.5276,N,00825.4511,E,1,8,0.85,129.1,M,47.9,M,,*46",,,,
2022-02-17T18:03:11+01:00,126,35.5,18.91,999.55,253.1,265.8,0,27.5,"$GNGGA,170306.000,4900.5247,N,00825.4417,E,1,6,2.34,130.5,M,47.9,M,,*4F",,,,
2022-02-17T18:03:32+01:00,127,35.5,19.16,999.56,264.7,278,0,27.5,"$GNGGA,170327.000,4900.5253,N,00825.4491,E,1,6,1.17,130.5,M,47.9,M,,*45",,,,
2022-02-17T18:03:53+01:00,128,35.5,19.07,999.57,279.3,293.3,0,27.5,"$GNGGA,170348.000,4900.5262,N,00825.4461,E,1,6,1.17,130.0,M,47.9,M,,*44",,,,
2022-02-17T18:04:14+01:00,129,35.51,19.09,999.59,278.4,292.4,0,27.5,"$GNGGA,170409.000,4900.5230,N,00825.4541,E,1,7,1.05,130.4,M,47.9,M,,*44",,,,
2022-02-17T18:04:35+01:00,130,35.51,18.99,999.55,264,277.3,0,27.5,"$GNGGA,170430.000,4900.5223,N,00825.4516,E,1,8,0.85,130.7,M,47.9,M,,*4B",,,,
2022-02-17T18:04:56+01:00,131,35.51,19.23,999.55,252.7,265.4,0,28,"$GNGGA,170451.000,4900.5255,N,00825.4875,E,1,8,0.85,144.4,M,47.9,M,,*45",,,,
2022-02-17T18:05:17+01:00,132,35.53,19.37,999.57,259.2,272.2,0,28,"$GNGGA,170512.000,4900.5226,N,00825.4674,E,1,7,1.05,147.9,M,47.9,M,,*40",,,,
2022-02-17T18:05:38+01:00,133,35.54,19.3,999.57,262,275.2,0,28,"$GNGGA,170533.000,4900.5195,N,00825.4550,E,1,7,1.05,141.5,M,47.9,M,,*47",,,,
2022-02-17T18:05:59+01:00,134,35.55,19.2,999.61,263.8,277,0,28,"$GNGGA,170554.000,4900.5262,N,00825.4587,E,1,6,2.35,137.5,M,47.9,M,,*47",,,,
2022-02-17T18:06:20+01:00,135,35.56,19.26,999.62,251,263.6,0,28,"$GNGGA,170615.000,4900.5250,N,00825.4578,E,1,6,2.35,136.0,M,47.9,M,,*44",,,,
2022-02-17T18:06:41+01:00,136,35.57,19.58,999.74,245.1,257.4,0,28,"$GNGGA,170636.000,4900.5245,N,00825.4550,E,1,6,2.35,133.4,M,47.9,M,,*4A",,,,
2022-02-17T18:07:02+01:00,137,35.58,19.52,999.76,247.7,260.1,0,28,"$GNGGA,170657.000,4900.5244,N,00825.4571,E,1,6,2.35,133.0,M,47.9,M,,*4B",,,,
2022-02-17T18:07:23+01:00,138,35.59,19.68,999.78,250,262.6,0,28,"$GNGGA,170718.000,4900.5252,N,00825.4602,E,1,6,2.35,133.6,M,47.9,M,,*47",,,,
2022-02-17T18:07:44+01:00,139,35.6,19.68,999.78,248.6,261.1,0,28,"$GNGGA,170739.000,4900.5222,N,00825.4481,E,1,5,2.57,132.4,M,47.9,M,,*4E",,,,
2022-02-17T18:08:04+01:00,140,35.62,19.65,999.89,246.8,259.2,0,28,"$GNGGA,170759.000,4900.5227,N,00825.4420,E,1,7,1.06,129.1,M,47.9,M,,*4C",,,,
2022-02-17T18:08:25+01:00,141,35.61,19,999.87,247.5,259.9,0,28,"$GNGGA,170820.000,4900.5197,N,00825.4432,E,1,7,1.06,127.5,M,47.9,M,,*4C",,,,
2022-02-17T18:08:46+01:00,142,35.59,18.81,999.85,249.4,261.9,0,28,"$GNGGA,170841.000,4900.5212,N,00825.4927,E,1,8,0.85,140.6,M,47.9,M,,*4B",,,,
2022-02-17T18:09:07+01:00,143,35.58,18.7,999.88,238.8,250.8,0,28,"$GNGGA,170902.000,4900.5197,N,00825.5105,E,1,8,0.85,157.6,M,47.9,M,,*4C",,,,
2022-02-17T18:09:28+01:00,144,35.58,19.04,999.87,234.2,246,0,28,"$GNGGA,170923.000,4900.5177,N,00825.5066,E,1,8,0.85,167.6,M,47.9,M,,*46",,,,
2022-02-17T18:09:49+01:00,145,35.59,19.13,999.88,232.9,244.6,0,28,"$GNGGA,170944.000,4900.5156,N,00825.5006,E,1,7,1.07,172.0,M,47.9,M,,*44",,,,
2022-02-17T18:10:10+01:00,146,35.6,19.1,999.86,238.4,250.4,0,28,"$GNGGA,171005.000,4900.5180,N,00825.4615,E,1,7,1.07,169.7,M,47.9,M,,*4A",,,,
2022-02-17T18:10:31+01:00,147,35.61,18.74,999.86,238.5,250.5,0,28,"$GNGGA,171026.000,4900.5178,N,00825.4675,E,1,7,1.07,164.0,M,47.9,M,,*40",,,,
2022-02-17T18:10:52+01:00,148,35.62,18.68,999.87,238.9,250.9,0,28,"$GNGGA,171047.000,4900.5187,N,00825.4716,E,1,7,1.07,158.3,M,47.9,M,,*4F",,,,
2022-02-17T18:11:13+01:00,149,35.64,18.94,999.9,244.4,256.7,0,28.5,"$GNGGA,171108.000,4900.5196,N,00825.4905,E,1,5,2.64,156.9,M,47.9,M,,*49",,,,
2022-02-17T18:11:34+01:00,150,35.66,18.83,999.91,244,256.3,0,28.5,"$GNGGA,171129.000,4900.5206,N,00825.4876,E,1,6,2.35,153.0,M,47.9,M,,*4E",,,,
2022-02-17T18:11:54+01:00,151,35.68,18.67,999.91,236.3,248.2,0,28.5,"$GNGGA,171149.000,4900.5204,N,00825.4894,E,1,7,1.07,154.0,M,47.9,M,,*42",,,,
2022-02-17T18:12:15+01:00,152,35.7,18.54,999.91,233.9,245.6,0,28.5,"$GNGGA,171210.000,4900.5156,N,00825.5131,E,1,8,0.85,163.9,M,47.9,M,,*47",,,,
2022-02-17T18:12:36+01:00,153,35.71,18.51,999.94,248.6,261.1,0,28.5,"$GNGGA,171231.000,4900.5129,N,00825.5190,E,1,8,0.85,173.4,M,47.9,M,,*4B",,,,
2022-02-17T18:13:05+01:00,154,35.72,18.43,999.93,257,269.9,0,28.5,"$GNGGA,171251.000,4900.5130,N,00825.5107,E,1,8,0.85,174.4,M,47.9,M,,*4C",,,,
2022-02-17T18:13:26+01:00,155,35.74,18.28,999.9,246.2,258.6,0,28.5,"$GNGGA,171321.000,4900.5130,N,00825.5154,E,1,8,0.85,174.0,M,47.9,M,,*48",,,,
2022-02-17T18:13:46+01:00,156,35.76,18.15,999.91,239.7,251.7,0,28.5,"$GNGGA,171341.000,4900.5134,N,00825.5166,E,1,8,0.85,174.2,M,47.9,M,,*49",,,,
2022-02-17T18:14:06+01:00,157,35.77,17.3,999.89,234.2,246,0,28,"$GNGGA,171401.000,4900.5197,N,00825.4908,E,1,8,0.85,168.9,M,47.9,M,,*44",,,,
2022-02-17T18:14:27+01:00,158,35.77,17.53,999.92,236.8,248.7,0,28,"$GNGGA,171422.000,4900.5191,N,00825.4882,E,1,8,0.85,162.8,M,47.9,M,,*4B",,,,
2022-02-17T18:14:48+01:00,159,35.77,17.81,999.92,236.7,248.6,0,28,"$GNGGA,171443.000,4900.5158,N,00825.5004,E,1,7,1.08,160.9,M,47.9,M,,*46",,,,
2022-02-17T18:15:09+01:00,160,35.77,17.85,999.9,239.9,251.9,0,28.5,"$GNGGA,171504.000,4900.5194,N,00825.5024,E,1,7,1.09,158.0,M,47.9,M,,*45",,,,
2022-02-17T18:15:30+01:00,161,35.78,17.86,999.9,238.7,250.7,0,28.5,"$GNGGA,171525.000,4900.5203,N,00825.4968,E,1,7,1.09,157.1,M,47.9,M,,*45",,,,
2022-02-17T18:15:51+01:00,162,35.78,17.95,999.91,231.6,243.2,0,28.5,"$GNGGA,171546.000,4900.5175,N,00825.4945,E,1,6,1.19,156.3,M,47.9,M,,*4E",,,,
2022-02-17T18:16:11+01:00,163,35.79,17.86,999.93,232.5,244.2,0,28.5,"$GNGGA,171606.000,4900.5154,N,00825.4916,E,1,7,1.09,155.8,M,47.9,M,,*44",,,,
2022-02-17T18:16:33+01:00,164,35.8,17.74,999.92,233.9,245.6,0,28.5,"$GNGGA,171628.000,4900.5126,N,00825.4796,E,1,7,1.09,154.0,M,47.9,M,,*42",,,,
2022-02-17T18:16:54+01:00,165,35.81,17.4,999.92,228,239.5,0,28.5,"$GNGGA,171648.000,4900.5140,N,00825.5314,E,1,7,1.09,168.6,M,47.9,M,,*42",,,,
2022-02-17T18:17:14+01:00,166,35.83,17.28,999.93,220.2,231.3,0,28.5,"$GNGGA,171709.000,4900.5162,N,00825.5170,E,1,7,1.09,171.3,M,47.9,M,,*4B",,,,
2022-02-17T18:17:35+01:00,167,35.84,17.43,999.92,228.9,240.4,0,28.5,"$GNGGA,171730.000,4900.5170,N,00825.5089,E,1,8,0.86,172.0,M,47.9,M,,*4C",,,,
2022-02-17T18:17:56+01:00,168,35.85,17.46,999.94,247.1,259.5,0,28.5,"$GNGGA,171751.000,4900.5158,N,00825.5076,E,1,6,1.18,170.6,M,47.9,M,,*4D",,,,
2022-02-17T18:18:17+01:00,169,35.86,17.62,999.97,240,252.1,0,28.5,"$GNGGA,171812.000,4900.5156,N,00825.5062,E,1,6,2.36,166.9,M,47.9,M,,*49",,,,
2022-02-17T18:18:38+01:00,170,35.86,17.64,999.99,230.9,242.5,0,28.5,"$GNGGA,171833.000,4900.5164,N,00825.5011,E,1,6,2.36,163.0,M,47.9,M,,*43",,,,
2022-02-17T18:18:58+01:00,171,35.87,17.51,1000,220.8,231.9,0,28.5,"$GNGGA,171853.000,4900.5164,N,00825.4919,E,1,6,2.36,159.3,M,47.9,M,,*4F",,,,
2022-02-17T18:19:18+01:00,172,35.88,17.62,1000.02,225.3,236.6,0,28.5,"$GNGGA,171913.000,4900.5176,N,00825.4727,E,1,6,2.36,150.6,M,47.9,M,,*46",,,,
2022-02-17T18:19:39+01:00,173,35.88,17.64,1000.02,220,231.1,0,28.5,"$GNGGA,171934.000,4900.5190,N,00825.4609,E,1,6,2.36,144.5,M,47.9,M,,*40",,,,
2022-02-17T18:20:00+01:00,174,35.89,17.68,1000.03,215,225.8,0,29,"$GNGGA,171955.000,4900.5194,N,00825.4615,E,1,7,1.10,141.3,M,47.9,M,,*4B",,,,
2022-02-17T18:20:21+01:00,175,35.9,17.64,1000.03,215.5,226.3,0,28.5,"$GNGGA,172016.000,4900.5196,N,00825.4642,E,1,7,1.10,141.8,M,47.9,M,,*4D",,,,
2022-02-17T18:20:41+01:00,176,35.89,17.29,1000.03,231.5,243.1,0,28.5,"$GNGGA,172036.000,4900.5187,N,00825.4581,E,1,6,2.36,137.3,M,47.9,M,,*4F",,,,
2022-02-17T18:21:02+01:00,177,35.9,17.27,1000.01,245.4,257.7,0,28.5,"$GNGGA,172057.000,4900.5204,N,00825.4560,E,1,6,2.36,131.8,M,47.9,M,,*42",,,,
2022-02-17T18:21:23+01:00,178,35.9,17.58,1000.03,246.9,259.3,0,28.5,"$GNGGA,172118.000,4900.5213,N,00825.4520,E,1,6,2.36,129.7,M,47.9,M,,*4C",,,,
2022-02-17T18:21:43+01:00,179,35.91,17.55,1000.02,232.7,244.4,0,28.5,"$GNGGA,172138.000,4900.5208,N,00825.4456,E,1,7,1.11,127.0,M,47.9,M,,*4A",,,,
2022-02-17T18:22:04+01:00,180,35.92,17.61,1000,231.5,243.1,0,29,"$GNGGA,172159.000,4900.5209,N,00825.4405,E,1,7,1.11,124.4,M,47.9,M,,*4D",,,,
2022-02-17T18:22:25+01:00,181,35.93,17.76,999.99,246.8,259.2,0,29,"$GNGGA,172220.000,4900.5224,N,00825.4366,E,1,7,1.11,125.1,M,47.9,M,,*49",,,,
2022-02-17T18:22:45+01:00,182,35.94,17.85,999.98,256.1,269,0,29,"$GNGGA,172240.000,4900.5211,N,00825.4338,E,1,7,1.11,122.9,M,47.9,M,,*4D",,,,
2022-02-17T18:23:06+01:00,183,35.95,17.93,999.99,248.7,261.2,0,29,"$GNGGA,172301.000,4900.5217,N,00825.4396,E,1,7,1.11,125.1,M,47.9,M,,*44",,,,
2022-02-17T18:23:27+01:00,184,35.95,17.9,1000.01,230.5,242.1,0,29,"$GNGGA,172322.000,4900.5219,N,00825.4424,E,1,7,1.11,127.0,M,47.9,M,,*46",,,,
2022-02-17T18:23:48+01:00,185,35.96,17.66,1000.01,234.5,246.3,0,28.5,"$GNGGA,172343.000,4900.5215,N,00825.4482,E,1,7,1.12,126.7,M,47.9,M,,*44",,,,
2022-02-17T18:24:09+01:00,186,35.97,17.84,1000.02,239.2,251.2,0,29,"$GNGGA,172404.000,4900.5216,N,00825.4472,E,1,5,2.42,125.7,M,47.9,M,,*4B",,,,
2022-02-17T18:24:30+01:00,187,35.97,17.94,1000.04,239.9,251.9,0,29,"$GNGGA,172425.000,4900.5231,N,00825.4434,E,1,5,2.74,125.4,M,47.9,M,,*49",,,,
2022-02-17T18:24:51+01:00,188,35.98,18,1000.02,233.1,244.8,0,29,"$GNGGA,172446.000,4900.5222,N,00825.4337,E,1,5,2.74,125.0,M,47.9,M,,*4E",,,,
2022-02-17T18:25:12+01:00,189,35.98,18.01,1000.03,231.9,243.5,0,29,"$GNGGA,172507.000,4900.5185,N,00825.4379,E,1,4,2.92,125.0,M,47.9,M,,*47",,,,
2022-02-17T18:25:33+01:00,190,35.99,18.05,1000.02,233.4,245.1,0,29,"$GNGGA,172528.000,4900.5213,N,00825.4448,E,1,4,2.80,125.0,M,47.9,M,,*40",,,,
2022-02-17T18:25:54+01:00,191,35.99,18.1,1000.02,244.4,256.7,0,29,"$GNGGA,172549.000,4900.5184,N,00825.4579,E,1,5,1.35,131.7,M,47.9,M,,*47",,,,
2022-02-17T18:26:15+01:00,192,36,18.1,1000.02,265.5,278.8,0,29,"$GNGGA,172610.000,4900.5197,N,00825.4530,E,1,5,1.35,133.9,M,47.9,M,,*4B",,,,
2022-02-17T18:26:36+01:00,193,36.01,18.08,1000.03,275,288.8,0,29,"$GNGGA,172631.000,4900.5227,N,00825.4421,E,1,6,1.22,127.4,M,47.9,M,,*4C",,,,
2022-02-17T18:26:57+01:00,194,36.01,18.16,1000.03,277.2,291.1,0,29,"$GNGGA,172652.000,4900.5231,N,00825.4485,E,1,5,1.35,125.8,M,47.9,M,,*4B",,,,
2022-02-17T18:27:18+01:00,195,36.02,18.13,1000.05,270.4,284,0,29,"$GNGGA,172713.000,4900.5223,N,00825.4560,E,1,4,2.80,126.8,M,47.9,M,,*49",,,,
2022-02-17T18:27:39+01:00,196,36.02,18.11,1000.06,260.9,274,0,29,"$GNGGA,172734.000,4900.5232,N,00825.4429,E,1,6,1.23,121.2,M,47.9,M,,*45",,,,
2022-02-17T18:27:59+01:00,197,36.03,18.15,1000.07,248,260.5,0,29,"$GNGGA,172754.000,4900.5234,N,00825.4447,E,1,6,1.23,122.5,M,47.9,M,,*49",,,,
2022-02-17T18:28:20+01:00,198,36.04,18.14,1000.08,252.2,264.9,0,29,"$GNGGA,172815.000,4900.5229,N,00825.4358,E,1,6,1.23,121.2,M,47.9,M,,*42",,,,
2022-02-17T18:28:41+01:00,199,36.05,18.13,1000.08,258.6,271.6,0,29,"$GNGGA,172836.000,4900.5213,N,00825.4397,E,1,6,1.23,122.0,M,47.9,M,,*48",,,,
2022-02-17T18:29:01+01:00,200,36.05,18.04,1000.09,268.6,282.1,0,29,"$GNGGA,172856.000,4900.5231,N,00825.4442,E,1,6,1.23,121.7,M,47.9,M,,*45",,,,
2022-02-17T18:29:22+01:00,201,36.06,18.08,1000.1,259.7,272.7,0,29,"$GNGGA,172917.000,4900.5234,N,00825.4395,E,1,5,2.73,121.5,M,47.9,M,,*4E",,,,
2022-02-17T18:29:43+01:00,202,36.07,18.13,1000.11,262.7,275.9,0,29,"$GNGGA,172938.000,4900.5242,N,00825.4386,E,1,6,1.23,121.5,M,47.9,M,,*45",,,,
2022-02-17T18:30:04+01:00,203,36.08,18.12,1000.13,269.1,282.6,0,29,"$GNGGA,172959.000,4900.5231,N,00825.4286,E,1,5,2.73,120.4,M,47.9,M,,*42",,,,
2022-02-17T18:30:25+01:00,204,36.09,18.1,1000.13,276.2,290.1,0,29,"$GNGGA,173020.000,4900.5192,N,00825.4178,E,1,5,2.73,115.2,M,47.9,M,,*4C",,,,
2022-02-17T18:30:46+01:00,205,36.1,18.12,1000.14,263.5,276.7,0,29,"$GNGGA,173041.000,4900.5197,N,00825.4297,E,1,5,2.73,113.3,M,47.9,M,,*4B",,,,
2022-02-17T18:31:07+01:00,206,36.1,18.16,1000.13,253,265.7,0,29,"$GNGGA,173102.000,4900.5230,N,00825.4288,E,1,6,1.35,112.8,M,47.9,M,,*45",,,,
2022-02-17T18:31:28+01:00,207,36.11,18.19,1000.13,257.7,270.6,0,29,"$GNGGA,173123.000,4900.5246,N,00825.4213,E,1,6,1.24,110.9,M,47.9,M,,*46",,,,
2022-02-17T18:31:49+01:00,208,36.12,18.16,1000.15,273,286.7,0,29,"$GNGGA,173144.000,4900.5211,N,00825.4279,E,1,4,3.65,110.2,M,47.9,M,,*47",,,,
2022-02-17T18:32:10+01:00,209,36.14,18.17,1000.16,278.4,292.4,0,29,"$GNGGA,173205.000,4900.5213,N,00825.4229,E,1,5,3.81,109.9,M,47.9,M,,*4E",,,,
2022-02-17T18:32:31+01:00,210,36.15,18.21,1000.17,273.6,287.3,0,29,"$GNGGA,173226.000,4900.5200,N,00825.4331,E,1,5,2.73,110.6,M,47.9,M,,*4E",,,,
2022-02-17T18:32:52+01:00,211,36.16,18.21,1000.18,261.4,274.5,0,29,"$GNGGA,173247.000,4900.5216,N,00825.4045,E,1,5,2.73,106.5,M,47.9,M,,*4A",,,,
2022-02-17T18:33:13+01:00,212,36.17,18.2,1000.2,256.1,269,0,29.5,"$GNGGA,173308.000,4900.5251,N,00825.3860,E,1,5,1.57,105.2,M,47.9,M,,*4A",,,,
2022-02-17T18:33:34+01:00,213,36.18,18.18,1000.21,259,272,0,29.5,"$GNGGA,173329.000,4900.5283,N,00825.3741,E,1,5,1.33,105.2,M,47.9,M,,*48",,,,
2022-02-17T18:33:55+01:00,214,36.18,18.22,1000.22,251.3,263.9,0,29.5,"$GNGGA,173350.000,4900.5247,N,00825.3966,E,1,4,1.48,105.5,M,47.9,M,,*4F",,,,
2022-02-17T18:34:16+01:00,215,36.19,18.21,1000.23,248.1,260.6,0,29.5,"$GNGGA,173411.000,4900.5163,N,00825.4457,E,1,5,1.34,109.7,M,47.9,M,,*44",,,,
2022-02-17T18:34:37+01:00,216,36.2,18.23,1000.24,250.4,263,0,29.5,"$GNGGA,173432.000,4900.5119,N,00825.4370,E,1,5,1.34,108.5,M,47.9,M,,*49",,,,
2022-02-17T18:34:57+01:00,217,36.21,18.21,1000.26,267.2,280.6,0,29.5,"$GNGGA,173452.000,4900.5223,N,00825.4315,E,1,5,1.34,109.6,M,47.9,M,,*44",,,,
2022-02-17T18:35:17+01:00,218,36.22,18.21,1000.29,268.9,282.4,0,29.5,"$GNGGA,173512.000,4900.5181,N,00825.4188,E,1,6,1.26,110.3,M,47.9,M,,*41",,,,
2022-02-17T18:35:38+01:00,219,36.23,18.21,1000.31,278.7,292.7,0,29.5,"$GNGGA,173533.000,4900.5098,N,00825.4049,E,1,6,1.26,105.1,M,47.9,M,,*41",,,,
2022-02-17T18:35:59+01:00,220,36.24,18.22,1000.32,282.3,296.5,0,29.5,"$GNGGA,173554.000,4900.5071,N,00825.4479,E,1,5,2.79,104.1,M,47.9,M,,*4B",,,,
2022-02-17T18:36:20+01:00,221,36.26,18.24,1000.35,280.4,294.5,0,29.5,"$GNGGA,173615.000,4900.5129,N,00825.4561,E,1,6,1.27,103.8,M,47.9,M,,*4C",,,,
2022-02-17T18:36:41+01:00,222,36.27,18.27,1000.37,275.1,288.9,0,29.5,"$GNGGA,173636.000,4900.5194,N,00825.3993,E,1,5,1.36,106.3,M,47.9,M,,*40",,,,
2022-02-17T18:37:01+01:00,223,36.27,18.25,1000.39,268.2,281.7,0,29.5,"$GNGGA,173656.000,4900.5215,N,00825.4001,E,1,6,1.27,106.3,M,47.9,M,,*4A",,,,
2022-02-17T18:37:22+01:00,224,36.28,18.26,1000.41,278.2,292.2,0,29.5,"$GNGGA,173717.000,4900.5196,N,00825.4660,E,1,6,1.27,113.0,M,47.9,M,,*40",,,,
2022-02-17T18:37:43+01:00,225,36.29,18.25,1000.44,268.2,281.7,0,29.5,"$GNGGA,173738.000,4900.5206,N,00825.4315,E,1,6,1.27,116.5,M,47.9,M,,*40",,,,
2022-02-17T18:38:03+01:00,226,36.3,18.27,1000.47,262.1,275.3,0,29.5,"$GNGGA,173758.000,4900.5207,N,00825.4332,E,1,7,1.28,115.9,M,47.9,M,,*43",,,,
2022-02-17T18:38:23+01:00,227,36.31,18.28,1000.49,260.6,273.7,0,29.5,"$GNGGA,173818.000,4900.5200,N,00825.4428,E,1,7,1.05,119.3,M,47.9,M,,*4A",,,,
2022-02-17T18:38:47+01:00,228,36.31,18.25,1000.48,269.5,283,0,29.5,"$GNGGA,173842.000,4900.5195,N,00825.4594,E,1,7,1.05,127.2,M,47.9,M,,*40",,,,
2022-02-17T18:39:08+01:00,229,36.33,18.28,1000.49,272.5,286.2,0,29.5,"$GNGGA,173903.000,4900.5215,N,00825.4609,E,1,7,1.05,137.6,M,47.9,M,,*4D",,,,
2022-02-17T18:39:29+01:00,230,36.35,18.25,1000.5,258.7,271.7,0,29.5,"$GNGGA,173924.000,4900.5225,N,00825.4433,E,1,6,1.28,135.9,M,47.9,M,,*43",,,,
2022-02-17T18:39:50+01:00,231,36.35,18.23,1000.52,258.4,271.4,0,29.5,"$GNGGA,173945.000,4900.5216,N,00825.4461,E,1,6,1.28,134.3,M,47.9,M,,*48",,,,
2022-02-17T18:40:11+01:00,232,36.36,18.17,1000.51,256.7,269.6,0,29.5,"$GNGGA,174006.000,4900.5221,N,00825.4475,E,1,6,1.28,133.0,M,47.9,M,,*44",,,,
2022-02-17T18:40:32+01:00,233,36.36,17.72,1000.5,264.1,277.4,0,29,"$GNGGA,174027.000,4900.5228,N,00825.4347,E,1,6,1.29,130.2,M,47.9,M,,*48",,,,
2022-02-17T18:40:55+01:00,234,36.37,18.1,1000.51,262.4,275.6,0,29.5,"$GNGGA,174050.000,4900.5223,N,00825.4383,E,1,6,1.29,130.8,M,47.9,M,,*41",,,,
2022-02-17T18:41:16+01:00,235,36.38,18.19,1000.51,261.4,274.5,0,29.5,"$GNGGA,174111.000,4900.5229,N,00825.4498,E,1,6,1.29,132.3,M,47.9,M,,*4B",,,,
2022-02-17T18:41:37+01:00,236,36.38,18.11,1000.52,256.2,269.1,0,29.5,"$GNGGA,174132.000,4900.5210,N,00825.4435,E,1,7,1.06,131.0,M,47.9,M,,*4B",,,,
2022-02-17T18:41:58+01:00,237,36.37,17.93,1000.52,256.2,269.1,0,29.5,"$GNGGA,174153.000,4900.5210,N,00825.4396,E,1,7,1.06,126.4,M,47.9,M,,*40",,,,
2022-02-17T18:42:19+01:00,238,36.37,18.07,1000.52,251.1,263.7,0,29.5,"$GNGGA,174214.000,4900.5190,N,00825.4532,E,1,7,1.06,125.5,M,47.9,M,,*41",,,,
2022-02-17T18:42:40+01:00,239,36.37,18.18,1000.51,248.1,260.6,0,29.5,"$GNGGA,174235.000,4900.5214,N,00825.4558,E,1,6,1.30,125.5,M,47.9,M,,*45",,,,
2022-02-17T18:43:01+01:00,240,36.36,18.24,1000.5,249.7,262.2,0,29.5,"$GNGGA,174256.000,4900.5213,N,00825.4336,E,1,5,1.30,122.9,M,47.9,M,,*41",,,,
2022-02-17T18:43:22+01:00,241,36.36,18.26,1000.5,268.3,281.8,0,29.5,"$GNGGA,174317.000,4900.5201,N,00825.4343,E,1,6,1.07,120.8,M,47.9,M,,*40",,,,
2022-02-17T18:43:43+01:00,242,36.36,18.25,1000.49,270.6,284.2,0,29.5,"$GNGGA,174338.000,4900.5204,N,00825.4772,E,1,6,1.30,117.4,M,47.9,M,,*42",,,,
2022-02-17T18:44:04+01:00,243,36.35,18.28,1000.49,256.7,269.6,0,29.5,"$GNGGA,174359.000,4900.5204,N,00825.4445,E,1,6,1.30,116.1,M,47.9,M,,*46",,,,
2022-02-17T18:44:25+01:00,244,36.35,18.29,1000.51,237.1,249,0,29.5,"$GNGGA,174420.000,4900.5201,N,00825.4503,E,1,6,1.30,116.0,M,47.9,M,,*48",,,,
2022-02-17T18:44:46+01:00,245,36.35,18.26,1000.5,235.2,247,0,29.5,"$GNGGA,174441.000,4900.5205,N,00825.4622,E,1,7,1.07,114.5,M,47.9,M,,*49",,,,
2022-02-17T18:45:07+01:00,246,36.34,18.26,1000.51,230.1,241.7,0,29.5,"$GNGGA,174502.000,4900.5208,N,00825.4614,E,1,7,1.07,119.9,M,47.9,M,,*46",,,,
2022-02-17T18:45:28+01:00,247,36.34,18.21,1000.51,235.3,247.1,0,29.5,"$GNGGA,174523.000,4900.5218,N,00825.4433,E,1,6,1.31,115.0,M,47.9,M,,*42",,,,
2022-02-17T18:45:49+01:00,248,36.33,18.28,1000.53,245.2,257.5,0,29.5,"$GNGGA,174544.000,4900.5214,N,00825.4416,E,1,5,1.32,114.9,M,47.9,M,,*40",,,,
2022-02-17T18:46:09+01:00,249,36.33,18.31,1000.53,251.8,264.4,0,29.5,"$GNGGA,174604.000,4900.5226,N,00825.4536,E,1,6,1.31,117.3,M,47.9,M,,*4C",,,,
2022-02-17T18:46:30+01:00,250,36.32,18.34,1000.54,251.5,264.1,0,29.5,"$GNGGA,174625.000,4900.5228,N,00825.4443,E,1,6,1.31,114.6,M,47.9,M,,*44",,,,
2022-02-17T18:46:51+01:00,251,36.32,18.34,1000.55,245.7,258,0,29.5,"$GNGGA,174646.000,4900.5230,N,00825.4421,E,1,6,1.31,110.9,M,47.9,M,,*47",,,,
2022-02-17T18:47:12+01:00,252,36.31,18.38,1000.57,253.4,266.1,0,29.5,"$GNGGA,174707.000,4900.5205,N,00825.4434,E,1,7,1.15,110.1,M,47.9,M,,*4E",,,,
2022-02-17T18:47:33+01:00,253,36.31,18.39,1000.58,250.8,263.4,0,29.5,"$GNGGA,174728.000,4900.5186,N,00825.4442,E,1,6,1.32,110.9,M,47.9,M,,*46",,,,
2022-02-17T18:47:55+01:00,254,36.3,18.41,1000.58,245.4,257.7,0,29.5,"$GNGGA,174749.000,4900.5200,N,00825.4487,E,1,6,1.08,112.9,M,47.9,M,,*4E",,,,
2022-02-17T18:48:15+01:00,255,36.3,18.44,1000.58,242,254.2,0,29.5,"$GNGGA,174810.000,4900.5193,N,00825.4544,E,1,6,1.08,112.6,M,47.9,M,,*45",,,,
2022-02-17T18:48:36+01:00,256,36.29,18.45,1000.58,246.2,258.6,0,29.5,"$GNGGA,174831.000,4900.5188,N,00825.4519,E,1,6,1.32,119.2,M,47.9,M,,*42",,,,
2022-02-17T18:48:58+01:00,257,36.29,18.48,1000.57,248.3,260.8,0,29.5,"$GNGGA,174853.000,4900.5189,N,00825.4665,E,1,7,1.08,117.1,M,47.9,M,,*4A",,,,
2022-02-17T18:49:19+01:00,258,36.29,18.5,1000.57,250.3,262.9,0,30,"$GNGGA,174914.000,4900.5183,N,00825.4807,E,1,7,1.08,117.2,M,47.9,M,,*4B",,,,
2022-02-17T18:49:40+01:00,259,36.29,18.5,1000.55,247.3,259.7,0,29.5,"$GNGGA,174935.000,4900.5203,N,00825.4854,E,1,7,1.08,116.8,M,47.9,M,,*4E",,,,
2022-02-17T18:50:01+01:00,260,36.27,18.54,1000.56,243.3,255.5,0,30,"$GNGGA,174956.000,4900.5214,N,00825.4679,E,1,7,1.08,120.3,M,47.9,M,,*42",,,,
2022-02-17T18:50:22+01:00,261,36.27,18.57,1000.56,247.6,260,0,30,"$GNGGA,175017.000,4900.5187,N,00825.4531,E,1,5,1.33,124.2,M,47.9,M,,*46",,,,
2022-02-17T18:50:43+01:00,262,36.26,18.59,1000.55,254.8,267.6,0,29.5,"$GNGGA,175038.000,4900.5211,N,00825.4462,E,1,7,0.91,124.0,M,47.9,M,,*49",,,,
2022-02-17T18:51:04+01:00,263,36.25,18.62,1000.54,259.1,272.1,0,30,"$GNGGA,175059.000,4900.5213,N,00825.4498,E,1,8,0.91,123.9,M,47.9,M,,*48",,,,
2022-02-17T18:51:25+01:00,264,36.24,18.64,1000.55,252.8,265.5,0,30,"$GNGGA,175120.000,4900.5193,N,00825.4543,E,1,6,1.09,121.9,M,47.9,M,,*47",,,,
2022-02-17T18:51:46+01:00,265,36.24,18.65,1000.55,244.4,256.7,0,30,"$GNGGA,175141.000,4900.5183,N,00825.4534,E,1,7,1.09,119.4,M,47.9,M,,*46",,,,
2022-02-17T18:52:07+01:00,266,36.23,18.67,1000.56,238.6,250.6,0,29.5,"$GNGGA,175202.000,4900.5191,N,00825.4657,E,1,7,1.09,111.5,M,47.9,M,,*4E",,,,
2022-02-17T18:52:28+01:00,267,36.22,18.72,1000.57,236.4,248.3,0,30,"$GNGGA,175223.000,4900.5181,N,00825.4580,E,1,6,1.34,108.7,M,47.9,M,,*40",,,,
2022-02-17T18:52:49+01:00,268,36.21,18.73,1000.57,230.9,242.5,0,30,"$GNGGA,175244.000,4900.5185,N,00825.4566,E,1,6,1.34,108.1,M,47.9,M,,*4B",,,,
2022-02-17T18:53:10+01:00,269,36.2,18.75,1000.56,234.9,246.7,0,30,"$GNGGA,175305.000,4900.5174,N,00825.4533,E,1,6,1.34,106.4,M,47.9,M,,*4A",,,,
2022-02-17T18:53:31+01:00,270,36.19,18.78,1000.57,243.3,255.5,0,30,"$GNGGA,175326.000,4900.5178,N,00825.4609,E,1,5,1.35,94.7,M,47.9,M,,*76",,,,
2022-02-17T18:53:52+01:00,271,36.18,18.82,1000.57,245.6,257.9,0,30,"$GNGGA,175347.000,4900.5190,N,00825.4558,E,1,6,1.10,92.7,M,47.9,M,,*72",,,,
2022-02-17T18:54:13+01:00,272,36.16,18.88,1000.58,234.3,246.1,0,30,"$GNGGA,175408.000,4900.5177,N,00825.4490,E,1,5,1.35,90.4,M,47.9,M,,*77",,,,
2022-02-17T18:54:34+01:00,273,36.16,18.89,1000.58,233.2,244.9,0,30,"$GNGGA,175429.000,4900.5176,N,00825.4477,E,1,5,1.15,89.9,M,47.9,M,,*7B",,,,
2022-02-17T18:54:55+01:00,274,36.15,18.91,1000.59,244.3,256.6,0,30,"$GNGGA,175450.000,4900.5165,N,00825.4462,E,1,6,0.97,89.8,M,47.9,M,,*7A",,,,
2022-02-17T18:55:16+01:00,275,36.14,18.97,1000.59,248.5,261,0,30,"$GNGGA,175511.000,4900.5143,N,00825.4897,E,1,8,0.91,79.7,M,47.9,M,,*74",,,,
2022-02-17T18:55:37+01:00,276,36.13,18.99,1000.59,245.8,258.1,0,30,"$GNGGA,175532.000,4900.5132,N,00825.4787,E,1,7,1.10,79.2,M,47.9,M,,*7F",,,,
2022-02-17T18:55:58+01:00,277,36.12,19.03,1000.59,241.1,253.2,0,30,"$GNGGA,175553.000,4900.5116,N,00825.4760,E,1,7,0.97,76.6,M,47.9,M,,*72",,,,
2022-02-17T18:56:19+01:00,278,36.12,19.05,1000.59,240.1,252.2,0,30,"$GNGGA,175614.000,4900.5138,N,00825.4749,E,1,7,1.10,78.6,M,47.9,M,,*75",,,,
2022-02-17T18:56:40+01:00,279,36.11,19.07,1000.61,225.2,236.5,0,30,"$GNGGA,175635.000,4900.5114,N,00825.4761,E,1,7,1.10,79.4,M,47.9,M,,*71",,,,
2022-02-17T18:57:01+01:00,280,36.1,19.09,1000.6,218.8,229.8,0,30,"$GNGGA,175656.000,4900.5137,N,00825.4562,E,1,6,1.15,77.5,M,47.9,M,,*7F",,,,
2022-02-17T18:57:22+01:00,281,36.09,19.11,1000.6,221.8,232.9,0,30,"$GNGGA,175717.000,4900.5149,N,00825.4483,E,1,5,2.73,77.2,M,47.9,M,,*7B",,,,
2022-02-17T18:57:43+01:00,282,36.07,19.13,1000.62,236,247.9,0,30,"$GNGGA,175738.000,4900.5159,N,00825.4537,E,1,7,1.11,79.2,M,47.9,M,,*72",,,,
2022-02-17T18:58:04+01:00,283,36.06,19.15,1000.63,233,244.7,0,30,"$GNGGA,175759.000,4900.5164,N,00825.4509,E,1,6,1.16,80.5,M,47.9,M,,*71",,,,
2022-02-17T18:58:25+01:00,284,36.05,19.17,1000.64,226.3,237.7,0,30,"$GNGGA,175820.000,4900.5140,N,00825.4569,E,1,5,1.16,79.5,M,47.9,M,,*75",,,,
2022-02-17T18:58:46+01:00,285,36.04,19.2,1000.64,215.4,226.2,0,30,"$GNGGA,175841.000,4900.5178,N,00825.4812,E,1,7,0.92,98.5,M,47.9,M,,*78",,,,
2022-02-17T18:59:07+01:00,286,36.02,19.27,1000.64,225.1,236.4,0,30,"$GNGGA,175902.000,4900.5186,N,00825.4858,E,1,8,0.92,102.1,M,47.9,M,,*48",,,,
2022-02-17T18:59:28+01:00,287,36,19.31,1000.66,245.3,257.6,0,30,"$GNGGA,175923.000,4900.5157,N,00825.4757,E,1,7,1.19,98.6,M,47.9,M,,*7F",,,,
2022-02-17T18:59:49+01:00,288,35.98,19.05,1000.67,263.5,276.7,0,29.5,"$GNGGA,175944.000,4900.5171,N,00825.4621,E,1,7,1.19,96.1,M,47.9,M,,*73",,,,
2022-02-17T19:00:10+01:00,289,35.96,19.21,1000.67,272.7,286.4,0,29.5,"$GNGGA,180005.000,4900.5160,N,00825.4553,E,1,7,0.93,97.1,M,47.9,M,,*71",,,,
2022-02-17T19:00:31+01:00,290,35.94,19.26,1000.67,265.7,279,0,29.5,"$GNGGA,180026.000,4900.5172,N,00825.4739,E,1,7,1.12,102.5,M,47.9,M,,*4C",,,,
2022-02-17T19:00:52+01:00,291,35.93,19.31,1000.67,251.1,263.7,0,30,"$GNGGA,180047.000,4900.5174,N,00825.4768,E,1,7,1.12,109.8,M,47.9,M,,*4F",,,,
2022-02-17T19:01:13+01:00,292,35.91,19.39,1000.68,241.1,253.2,0,30,"$GNGGA,180108.000,4900.5152,N,00825.4922,E,1,7,0.98,115.2,M,47.9,M,,*45",,,,
2022-02-17T19:01:34+01:00,293,35.9,19.42,1000.68,240.1,252.2,0,30,"$GNGGA,180129.000,4900.5149,N,00825.4857,E,1,7,0.98,119.8,M,47.9,M,,*49",,,,
2022-02-17T19:01:55+01:00,294,35.88,19.38,1000.68,243.7,255.9,0,29.5,"$GNGGA,180150.000,4900.5148,N,00825.4854,E,1,7,0.98,126.8,M,47.9,M,,*49",,,,
2022-02-17T19:02:16+01:00,295,35.86,19.4,1000.69,243.7,255.9,0,30,"$GNGGA,180211.000,4900.5109,N,00825.4864,E,1,7,0.98,131.4,M,47.9,M,,*43",,,,
2022-02-17T19:02:37+01:00,296,35.84,19.47,1000.7,249.5,262,0,29.5,"$GNGGA,180232.000,4900.5140,N,00825.4940,E,1,7,0.98,134.4,M,47.9,M,,*4D",,,,
2022-02-17T19:02:58+01:00,297,35.82,19.48,1000.69,248.5,261,0,29.5,"$GNGGA,180253.000,4900.5133,N,00825.4979,E,1,7,0.98,136.5,M,47.9,M,,*47",,,,
2022-02-17T19:03:19+01:00,298,35.8,19.55,1000.69,243.2,255.4,0,29.5,"$GNGGA,180314.000,4900.5163,N,00825.4693,E,1,6,2.22,134.5,M,47.9,M,,*4B",,,,
2022-02-17T19:03:40+01:00,299,35.78,19.33,1000.7,237.7,249.6,0,29.5,"$GNGGA,180335.000,4900.5224,N,00825.4553,E,1,5,2.44,137.2,M,47.9,M,,*40",,,,
2022-02-17T19:04:00+01:00,300,35.76,19.31,1000.71,241.3,253.4,0,29.5,"$GNGGA,180355.000,4900.5213,N,00825.4413,E,1,7,0.94,137.8,M,47.9,M,,*40",,,,
2022-02-17T19:04:21+01:00,301,35.75,19.36,1000.72,242.5,254.7,0,29.5,"$GNGGA,180416.000,4900.5210,N,00825.4596,E,1,8,0.93,134.2,M,47.9,M,,*4E",,,,
2022-02-17T19:04:42+01:00,302,35.73,19.5,1000.74,242,254.2,0,29.5,"$GNGGA,180437.000,4900.5201,N,00825.4629,E,1,8,0.93,120.2,M,47.9,M,,*4F",,,,
2022-02-17T19:05:03+01:00,303,35.71,19.63,1000.75,242.4,254.6,0,29.5,"$GNGGA,180458.000,4900.5206,N,00825.4609,E,1,6,1.21,115.9,M,47.9,M,,*48",,,,
2022-02-17T19:05:24+01:00,304,35.7,19.71,1000.76,245.9,258.2,0,29.5,"$GNGGA,180519.000,4900.5195,N,00825.4737,E,1,7,0.99,115.3,M,47.9,M,,*40",,,,
2022-02-17T19:05:45+01:00,305,35.68,19.74,1000.77,244.4,256.7,0,30,"$GNGGA,180540.000,4900.5195,N,00825.4710,E,1,7,1.21,113.9,M,47.9,M,,*47",,,,
2022-02-17T19:06:06+01:00,306,35.65,19.8,1000.78,245.9,258.2,0,30,"$GNGGA,180601.000,4900.5186,N,00825.4514,E,1,6,2.20,108.3,M,47.9,M,,*46",,,,
2022-02-17T19:06:27+01:00,307,35.64,19.7,1000.79,248.5,261,0,29.5,"$GNGGA,180622.000,4900.5188,N,00825.4513,E,1,6,2.20,115.6,M,47.9,M,,*47",,,,
2022-02-17T19:06:48+01:00,308,35.62,19.78,1000.8,249.9,262.4,0,29.5,"$GNGGA,180643.000,4900.5197,N,00825.4579,E,1,7,0.99,115.5,M,47.9,M,,*40",,,,
2022-02-17T19:07:09+01:00,309,35.59,19.88,1000.8,241.5,253.6,0,29.5,"$GNGGA,180704.000,4900.5212,N,00825.4537,E,1,7,0.99,118.7,M,47.9,M,,*49",,,,
2022-02-17T19:07:30+01:00,310,35.58,19.95,1000.81,241.3,253.4,0,29.5,"$GNGGA,180725.000,4900.5159,N,00825.4830,E,1,8,0.94,122.8,M,47.9,M,,*48",,,,
2022-02-17T19:07:51+01:00,311,35.55,19.97,1000.81,245.7,258,0,29.5,"$GNGGA,180746.000,4900.5150,N,00825.4796,E,1,8,0.94,128.9,M,47.9,M,,*4C",,,,
2022-02-17T19:08:12+01:00,312,35.53,20.01,1000.81,242.3,254.5,0,29.5,"$GNGGA,180807.000,4900.5111,N,00825.4809,E,1,7,0.99,132.1,M,47.9,M,,*4B",,,,
2022-02-17T19:08:33+01:00,313,35.51,20.01,1000.8,236.7,248.6,0,29.5,"$GNGGA,180828.000,4900.5082,N,00825.4822,E,1,7,0.99,135.5,M,47.9,M,,*47",,,,
2022-02-17T19:08:54+01:00,314,35.49,20.08,1000.84,237.2,249.1,0,29.5,"$GNGGA,180849.000,4900.5053,N,00825.4978,E,1,7,0.99,142.3,M,47.9,M,,*44",,,,
2022-02-17T19:09:15+01:00,315,35.47,19.87,1000.83,248.4,260.9,0,29.5,"$GNGGA,180910.000,4900.5113,N,00825.4935,E,1,8,0.94,145.6,M,47.9,M,,*45",,,,
2022-02-17T19:09:38+01:00,316,35.44,19.62,1000.85,249.9,262.4,0,29.5,"$GNGGA,180933.000,4900.5225,N,00825.4661,E,1,6,2.19,146.9,M,47.9,M,,*49",,,,
2022-02-17T19:09:59+01:00,317,35.41,19.34,1000.87,244.8,257.1,0,29,"$GNGGA,180954.000,4900.5184,N,00825.4707,E,1,6,2.19,149.1,M,47.9,M,,*46",,,,
2022-02-17T19:10:20+01:00,318,35.38,19.55,1000.88,239.9,251.9,0,29,"$GNGGA,181015.000,4900.5168,N,00825.4787,E,1,7,1.00,152.7,M,47.9,M,,*47",,,,
2022-02-17T19:10:41+01:00,319,35.35,19.51,1000.89,239,251,0,29.5,"$GNGGA,181036.000,4900.5169,N,00825.4868,E,1,7,1.00,160.2,M,47.9,M,,*4D",,,,
2022-02-17T19:11:02+01:00,320,35.31,19.26,1000.89,236.4,248.3,0,29,"$GNGGA,181057.000,4900.5131,N,00825.5053,E,1,7,1.00,164.9,M,47.9,M,,*49",,,,
2022-02-17T19:11:23+01:00,321,35.28,19.65,1000.9,236.9,248.8,0,29,"$GNGGA,181118.000,4900.5123,N,00825.5046,E,1,7,1.23,167.0,M,47.9,M,,*4F",,,,
2022-02-17T19:11:44+01:00,322,35.25,19.6,1000.88,236.3,248.2,0,29,"$GNGGA,181139.000,4900.5076,N,00825.5068,E,1,8,0.95,169.9,M,47.9,M,,*45",,,,
2022-02-17T19:12:05+01:00,323,35.21,19.42,1000.91,238.9,250.9,0,29,"$GNGGA,181200.000,4900.5108,N,00825.5101,E,1,6,2.43,169.1,M,47.9,M,,*45",,,,
2022-02-17T19:12:26+01:00,324,35.19,19.65,1000.88,239.5,251.5,0,29,"$GNGGA,181221.000,4900.5092,N,00825.5087,E,1,10,0.82,169.3,M,47.9,M,,*71",,,,
2022-02-17T19:12:47+01:00,325,35.16,19.7,1000.89,245.8,258.1,0,29,"$GNGGA,181242.000,4900.5053,N,00825.4976,E,1,8,1.18,170.0,M,47.9,M,,*4F",,,,
2022-02-17T19:13:08+01:00,326,35.13,19.6,1000.88,241.2,253.3,0,29,"$GNGGA,181303.000,4900.5094,N,00825.5010,E,1,8,1.18,162.2,M,47.9,M,,*49",,,,
2022-02-17T19:13:29+01:00,327,35.1,19.8,1000.89,239.9,251.9,0,29.5,"$GNGGA,181324.000,4900.5097,N,00825.4844,E,1,10,0.89,154.5,M,47.9,M,,*75",,,,
2022-02-17T19:13:50+01:00,328,35.07,19.85,1000.91,238.1,250.1,0,29,"$GNGGA,181345.000,4900.5093,N,00825.4725,E,1,10,0.89,151.6,M,47.9,M,,*78",,,,
2022-02-17T19:14:11+01:00,329,35.05,19.82,1000.93,240.5,252.6,0,29,"$GNGGA,181406.000,4900.5153,N,00825.4743,E,1,10,0.89,149.9,M,47.9,M,,*73",,,,
2022-02-17T19:14:32+01:00,330,35.02,19.86,1000.94,238.2,250.2,0,29,"$GNGGA,181427.000,4900.5161,N,00825.4694,E,1,9,0.95,146.3,M,47.9,M,,*4A",,,,
2022-02-17T19:14:53+01:00,331,35,19.98,1000.94,239.6,251.6,0,29,"$GNGGA,181448.000,4900.5133,N,00825.4662,E,1,8,1.95,143.7,M,47.9,M,,*4C",,,,
2022-02-17T19:15:14+01:00,332,34.97,19.86,1000.95,238.5,250.5,0,29,"$GNGGA,181509.000,4900.5191,N,00825.4597,E,1,9,1.16,140.2,M,47.9,M,,*45",,,,
2022-02-17T19:15:35+01:00,333,34.95,20,1000.97,231.8,243.4,0,29,"$GNGGA,181530.000,4900.5220,N,00825.4549,E,1,9,1.16,137.6,M,47.9,M,,*41",,,,
2022-02-17T19:15:56+01:00,334,34.93,19.9,1000.98,228.7,240.2,0,29,"$GNGGA,181551.000,4900.5149,N,00825.4520,E,1,8,1.94,134.9,M,47.9,M,,*42",,,,
2022-02-17T19:16:17+01:00,335,34.91,20.1,1001.01,232.4,244.1,0,29,"$GNGGA,181612.000,4900.5123,N,00825.4680,E,1,10,0.89,134.8,M,47.9,M,,*76",,,,
2022-02-17T19:16:38+01:00,336,34.88,20.13,1001.01,239.4,251.4,0,29,"$GNGGA,181633.000,4900.5113,N,00825.4687,E,1,9,1.16,135.0,M,47.9,M,,*47",,,,
2022-02-17T19:16:59+01:00,337,34.86,20.11,1001.03,242.8,255,0,29,"$GNGGA,181654.000,4900.5188,N,00825.4533,E,1,8,2.05,137.3,M,47.9,M,,*49",,,,
2022-02-17T19:17:20+01:00,338,34.84,20.22,1001.04,243.4,255.6,0,29,"$GNGGA,181715.000,4900.5049,N,00825.5016,E,1,8,2.19,136.7,M,47.9,M,,*4A",,,,
2022-02-17T19:17:41+01:00,339,34.82,20.27,1001.06,240.5,252.6,0,29,"$GNGGA,181736.000,4900.5093,N,00825.4716,E,1,9,1.16,128.2,M,47.9,M,,*4D",,,,
2022-02-17T19:18:02+01:00,340,34.8,20.28,1001.07,235.2,247,0,29,"$GNGGA,181757.000,4900.5084,N,00825.4666,E,1,10,0.90,126.0,M,47.9,M,,*71",,,,
2022-02-17T19:18:23+01:00,341,34.78,20.19,1001.07,239.7,251.7,0,29,"$GNGGA,181818.000,4900.5110,N,00825.4702,E,1,8,1.93,123.3,M,47.9,M,,*47",,,,
2022-02-17T19:18:44+01:00,342,34.76,20.14,1001.08,246.4,258.8,0,29,"$GNGGA,181839.000,4900.5110,N,00825.4679,E,1,8,1.93,123.6,M,47.9,M,,*4C",,,,
2022-02-17T19:19:05+01:00,343,34.74,20.16,1001.08,251.8,264.4,0,29,"$GNGGA,181900.000,4900.5133,N,00825.4508,E,1,9,1.17,121.9,M,47.9,M,,*43",,,,
2022-02-17T19:19:27+01:00,344,34.72,20.2,1001.07,249.3,261.8,0,29,"$GNGGA,181921.000,4900.5160,N,00825.4511,E,1,9,1.17,116.6,M,47.9,M,,*45",,,,
2022-02-17T19:19:47+01:00,345,34.69,20.22,1001.08,248.7,261.2,0,29,"$GNGGA,181942.000,4900.5164,N,00825.4508,E,1,9,1.17,110.7,M,47.9,M,,*4B",,,,
2022-02-17T19:20:10+01:00,346,34.66,20.29,1001.08,260.1,273.2,0,29,"$GNGGA,182004.000,4900.5134,N,00825.4540,E,1,10,0.91,113.2,M,47.9,M,,*7B",,,,
2022-02-17T19:20:32+01:00,347,34.64,20.25,1001.08,262.5,275.7,0,29,"$GNGGA,182026.000,4900.5161,N,00825.4634,E,1,10,0.91,119.3,M,47.9,M,,*70",,,,
2022-02-17T19:20:54+01:00,348,34.61,20.28,1001.08,257.2,270.1,0,29,"$GNGGA,182049.000,4900.5116,N,00825.4785,E,1,9,0.96,125.0,M,47.9,M,,*41",,,,
2022-02-17T19:21:15+01:00,349,34.59,20.17,1001.1,261.7,274.8,0,29,"$GNGGA,182110.000,4900.5132,N,00825.4649,E,1,9,0.96,132.9,M,47.9,M,,*44",,,,
2022-02-17T19:21:37+01:00,350,34.57,20.19,1001.1,272.7,286.4,0,29,"$GNGGA,182131.000,4900.5183,N,00825.4543,E,1,9,1.17,133.8,M,47.9,M,,*4C",,,,
2022-02-17T19:21:57+01:00,351,34.55,20.27,1001.09,267.9,281.3,0,29,"$GNGGA,182152.000,4900.5210,N,00825.4541,E,1,9,1.17,133.2,M,47.9,M,,*48",,,,
2022-02-17T19:22:19+01:00,352,34.53,20.27,1001.1,254.1,266.9,0,29,"$GNGGA,182213.000,4900.5191,N,00825.4663,E,1,10,0.91,134.2,M,47.9,M,,*77",,,,
2022-02-17T19:22:39+01:00,353,34.51,20.35,1001.1,246.5,258.9,0,29,"$GNGGA,182234.000,4900.5167,N,00825.4716,E,1,8,0.98,141.3,M,47.9,M,,*4B",,,,
2022-02-17T19:23:00+01:00,354,34.48,20.36,1001.11,240.6,252.7,0,29,"$GNGGA,182255.000,4900.5164,N,00825.4746,E,1,10,0.92,147.7,M,47.9,M,,*7B",,,,
2022-02-17T19:23:21+01:00,355,34.46,20.44,1001.13,241.3,253.4,0,29,"$GNGGA,182316.000,4900.5156,N,00825.4730,E,1,9,1.18,150.7,M,47.9,M,,*40",,,,
2022-02-17T19:23:42+01:00,356,34.44,20.45,1001.16,241,253.1,0,29,"$GNGGA,182337.000,4900.5170,N,00825.4671,E,1,9,1.18,152.7,M,47.9,M,,*41",,,,
2022-02-17T19:24:03+01:00,357,34.42,20.64,1001.16,245.4,257.7,0,29,"$GNGGA,182358.000,4900.5201,N,00825.4655,E,1,8,1.91,149.6,M,47.9,M,,*40",,,,
2022-02-17T19:24:24+01:00,358,34.39,20.53,1001.15,249.4,261.9,0,29,"$GNGGA,182419.000,4900.5205,N,00825.4554,E,1,8,1.91,146.1,M,47.9,M,,*4C",,,,
2022-02-17T19:24:45+01:00,359,34.37,20.48,1001.15,253.4,266.1,0,29,"$GNGGA,182440.000,4900.5188,N,00825.4549,E,1,8,1.90,145.0,M,47.9,M,,*49",,,,
2022-02-17T19:25:06+01:00,360,34.34,20.41,1001.16,255.8,268.6,0,29,"$GNGGA,182501.000,4900.5193,N,00825.4556,E,1,7,2.10,143.9,M,47.9,M,,*42",,,,
2022-02-17T19:25:27+01:00,361,34.31,20.42,1001.15,259,272,0,29,"$GNGGA,182522.000,4900.5190,N,00825.4574,E,1,7,2.10,144.6,M,47.9,M,,*48",,,,
2022-02-17T19:25:48+01:00,362,34.29,20.4,1001.14,264.3,277.6,0,29,"$GNGGA,182543.000,4900.5175,N,00825.4622,E,1,8,1.90,147.1,M,47.9,M,,*44",,,,
2022-02-17T19:26:09+01:00,363,34.26,20.5,1001.14,268.3,281.8,0,29,"$GNGGA,182604.000,4900.5119,N,00825.4733,E,1,9,0.98,154.3,M,47.9,M,,*47",,,,
2022-02-17T19:26:31+01:00,364,34.24,20.56,1001.14,269.3,282.8,0,29,"$GNGGA,182626.000,4900.5053,N,00825.5070,E,1,8,1.03,175.7,M,47.9,M,,*4C",,,,
2022-02-17T19:26:52+01:00,365,34.22,20.39,1001.15,264,277.3,0,29,"$GNGGA,182647.000,4900.5084,N,00825.5013,E,1,7,2.11,173.0,M,47.9,M,,*4A",,,,
2022-02-17T19:27:13+01:00,366,34.19,20.45,1001.13,257.9,270.8,0,29,"$GNGGA,182708.000,4900.5112,N,00825.5192,E,1,8,1.03,180.8,M,47.9,M,,*4D",,,,
2022-02-17T19:27:34+01:00,367,34.16,20.59,1001.13,251.2,263.8,0,29,"$GNGGA,182729.000,4900.5117,N,00825.4900,E,1,8,1.03,172.1,M,47.9,M,,*4D",,,,
2022-02-17T19:27:55+01:00,368,34.14,20.25,1001.13,245.6,257.9,0,28.5,"$GNGGA,182750.000,4900.5133,N,00825.4731,E,1,8,1.26,166.3,M,47.9,M,,*49",,,,
2022-02-17T19:28:16+01:00,369,34.11,20.53,1001.13,248.8,261.3,0,28.5,"$GNGGA,182811.000,4900.5144,N,00825.4719,E,1,9,0.98,164.0,M,47.9,M,,*4D",,,,
2022-02-17T19:28:37+01:00,370,34.08,20.71,1001.15,240.1,252.2,0,29,"$GNGGA,182832.000,4900.5178,N,00825.4648,E,1,9,0.98,156.0,M,47.9,M,,*47",,,,
2022-02-17T19:28:58+01:00,371,34.05,20.74,1001.13,228.1,239.6,0,29,"$GNGGA,182853.000,4900.5121,N,00825.4843,E,1,8,1.04,163.2,M,47.9,M,,*48",,,,
2022-02-17T19:29:19+01:00,372,34.03,20.76,1001.13,219.9,230.9,0,29,"$GNGGA,182914.000,4900.5126,N,00825.4761,E,1,9,0.99,166.1,M,47.9,M,,*40",,,,
2022-02-17T19:29:40+01:00,373,34,20.88,1001.13,227.3,238.7,0,29,"$GNGGA,182935.000,4900.5181,N,00825.4693,E,1,9,0.99,164.3,M,47.9,M,,*42",,,,
2022-02-17T19:30:01+01:00,374,33.98,21.01,1001.13,240.8,252.9,0,29,"$GNGGA,182956.000,4900.5173,N,00825.4661,E,1,8,1.04,160.5,M,47.9,M,,*41",,,,
2022-02-17T19:30:22+01:00,375,33.96,21.02,1001.1,248.5,261,0,29,"$GNGGA,183017.000,4900.5166,N,00825.4670,E,1,8,1.04,154.6,M,47.9,M,,*4C",,,,
2022-02-17T19:30:44+01:00,376,33.94,20.9,1001.1,241.9,254,0,29,"$GNGGA,183038.000,4900.5159,N,00825.4620,E,1,8,1.04,157.3,M,47.9,M,,*4E",,,,
2022-02-17T19:31:04+01:00,377,33.91,20.96,1001.13,230.3,241.9,0,29,"$GNGGA,183059.000,4900.5159,N,00825.4636,E,1,8,1.05,160.7,M,47.9,M,,*4F",,,,
2022-02-17T19:31:25+01:00,378,33.89,20.97,1001.14,234.7,246.5,0,28.5,"$GNGGA,183120.000,4900.5186,N,00825.4651,E,1,8,1.05,159.7,M,47.9,M,,*49",,,,
2022-02-17T19:31:46+01:00,379,33.87,21.1,1001.17,242.2,254.4,0,29,"$GNGGA,183141.000,4900.5159,N,00825.4780,E,1,8,1.05,160.3,M,47.9,M,,*4F",,,,
2022-02-17T19:32:07+01:00,380,33.86,21.22,1001.17,252.5,265.2,0,29,"$GNGGA,183202.000,4900.5123,N,00825.4932,E,1,8,1.28,171.2,M,47.9,M,,*4F",,,,
2022-02-17T19:32:28+01:00,381,33.84,21.26,1001.19,248.4,260.9,0,29,"$GNGGA,183223.000,4900.5107,N,00825.4770,E,1,8,1.14,174.3,M,47.9,M,,*49",,,,
2022-02-17T19:32:49+01:00,382,33.82,21.41,1001.2,243.5,255.7,0,29,"$GNGGA,183244.000,4900.5122,N,00825.4768,E,1,8,1.05,173.1,M,47.9,M,,*43",,,,
2022-02-17T19:33:10+01:00,383,33.8,21.43,1001.22,237.5,249.4,0,29,"$GNGGA,183305.000,4900.5133,N,00825.4819,E,1,9,1.36,171.5,M,47.9,M,,*49",,,,
2022-02-17T19:33:31+01:00,384,33.78,21.47,1001.23,234.6,246.4,0,29,"$GNGGA,183326.000,4900.5123,N,00825.4764,E,1,8,1.06,172.2,M,47.9,M,,*4A",,,,
2022-02-17T19:33:52+01:00,385,33.77,21.6,1001.24,232.8,244.5,0,29,"$GNGGA,183347.000,4900.5138,N,00825.4781,E,1,7,2.12,173.0,M,47.9,M,,*46",,,,
2022-02-17T19:34:13+01:00,386,33.75,21.64,1001.25,232.3,244,0,29,"$GNGGA,183408.000,4900.5152,N,00825.4828,E,1,7,2.12,171.5,M,47.9,M,,*4D",,,,
2022-02-17T19:34:34+01:00,387,33.73,21.73,1001.25,229.6,241.1,0,29,"$GNGGA,183429.000,4900.5124,N,00825.4719,E,1,7,2.13,166.1,M,47.9,M,,*41",,,,
2022-02-17T19:34:55+01:00,388,33.72,21.76,1001.25,232,243.7,0,29,"$GNGGA,183450.000,4900.5145,N,00825.4586,E,1,7,2.88,164.5,M,47.9,M,,*48",,,,
2022-02-17T19:35:16+01:00,389,33.7,21.72,1001.26,234.9,246.7,0,29,"$GNGGA,183511.000,4900.5216,N,00825.4424,E,1,7,2.89,154.7,M,47.9,M,,*40",,,,
2022-02-17T19:35:37+01:00,390,33.69,21.69,1001.25,238.6,250.6,0,29,"$GNGGA,183532.000,4900.5200,N,00825.4392,E,1,7,2.13,150.4,M,47.9,M,,*48",,,,
2022-02-17T19:35:58+01:00,391,33.67,21.77,1001.27,241.5,253.6,0,29,"$GNGGA,183553.000,4900.5218,N,00825.4466,E,1,7,2.89,144.8,M,47.9,M,,*40",,,,
2022-02-17T19:36:19+01:00,392,33.65,21.94,1001.26,242.8,255,0,29,"$GNGGA,183614.000,4900.5256,N,00825.4516,E,1,8,1.41,134.7,M,47.9,M,,*4C",,,,
2022-02-17T19:36:40+01:00,393,33.64,22.06,1001.25,246.8,259.2,0,28.5,"$GNGGA,183635.000,4900.5241,N,00825.4388,E,1,8,1.42,124.5,M,47.9,M,,*48",,,,
2022-02-17T19:37:01+01:00,394,33.62,22.15,1001.26,251.2,263.8,0,29,"$GNGGA,183656.000,4900.5239,N,00825.4284,E,1,7,2.13,115.1,M,47.9,M,,*41",,,,
2022-02-17T19:37:22+01:00,395,33.6,22.04,1001.27,254.6,267.4,0,28.5,"$GNGGA,183717.000,4900.5209,N,00825.4526,E,1,7,2.13,117.1,M,47.9,M,,*4B",,,,
2022-02-17T19:37:43+01:00,396,33.58,21.99,1001.29,255.5,268.3,0,28.5,"$GNGGA,183738.000,4900.5266,N,00825.4638,E,1,7,2.14,129.1,M,47.9,M,,*49",,,,
2022-02-17T19:38:04+01:00,397,33.55,22.39,1001.31,258.5,271.5,0,28.5,"$GNGGA,183759.000,4900.5200,N,00825.4702,E,1,9,1.06,137.1,M,47.9,M,,*47",,,,
2022-02-17T19:38:25+01:00,398,33.52,22.55,1001.3,262,275.2,0,28.5,"$GNGGA,183820.000,4900.5207,N,00825.4657,E,1,9,1.06,142.7,M,47.9,M,,*44",,,,
2022-02-17T19:38:46+01:00,399,33.5,22.58,1001.29,263.1,276.3,0,28.5,"$GNGGA,183841.000,4900.5207,N,00825.4723,E,1,9,1.07,148.9,M,47.9,M,,*44",,,,
2022-02-17T19:39:07+01:00,400,33.47,22.62,1001.29,259.8,272.8,0,29,"$GNGGA,183902.000,4900.5065,N,00825.5229,E,1,9,1.20,156.0,M,47.9,M,,*49",,,,
2022-02-17T19:39:28+01:00,401,33.45,22.5,1001.27,265.8,279.1,0,28.5,"$GNGGA,183923.000,4900.5088,N,00825.5015,E,1,9,1.07,155.5,M,47.9,M,,*47",,,,
2022-02-17T19:39:49+01:00,402,33.43,22.49,1001.26,269.9,283.4,0,28.5,"$GNGGA,183944.000,4900.5262,N,00825.4197,E,1,8,2.03,148.4,M,47.9,M,,*41",,,,
2022-02-17T19:40:10+01:00,403,33.41,22.48,1001.26,269.2,282.7,0,28.5,"$GNGGA,184005.000,4900.5188,N,00825.4374,E,1,8,2.04,145.6,M,47.9,M,,*4A",,,,
2022-02-17T19:40:31+01:00,404,33.39,22.45,1001.28,264.8,278.1,0,28.5,"$GNGGA,184026.000,4900.5135,N,00825.4582,E,1,9,1.07,148.8,M,47.9,M,,*40",,,,
2022-02-17T19:40:52+01:00,405,33.37,22.46,1001.28,264.8,278.1,0,28.5,"$GNGGA,184047.000,4900.5083,N,00825.4830,E,1,8,2.04,151.4,M,47.9,M,,*4A",,,,
2022-02-17T19:41:13+01:00,406,33.35,22.3,1001.29,273,286.7,0,28.5,"$GNGGA,184108.000,4900.5078,N,00825.5033,E,1,9,1.08,156.3,M,47.9,M,,*40",,,,
2022-02-17T19:41:34+01:00,407,33.32,22.24,1001.29,270.1,283.7,0,28.5,"$GNGGA,184129.000,4900.5118,N,00825.4838,E,1,9,1.08,150.0,M,47.9,M,,*43",,,,
2022-02-17T19:41:55+01:00,408,33.31,22.11,1001.31,265.2,278.5,0,28.5,"$GNGGA,184150.000,4900.5117,N,00825.4734,E,1,9,1.08,141.5,M,47.9,M,,*44",,,,
2022-02-17T19:42:16+01:00,409,33.28,21.97,1001.32,253.8,266.5,0,28.5,"$GNGGA,184211.000,4900.5115,N,00825.4663,E,1,8,2.05,138.3,M,47.9,M,,*44",,,,
2022-02-17T19:42:37+01:00,410,33.26,21.94,1001.32,251.5,264.1,0,28.5,"$GNGGA,184232.000,4900.5085,N,00825.4602,E,1,8,2.06,134.7,M,47.9,M,,*41",,,,
2022-02-17T19:42:58+01:00,411,33.23,21.84,1001.32,245.5,257.8,0,28.5,"$GNGGA,184253.000,4900.5072,N,00825.4686,E,1,9,1.09,136.7,M,47.9,M,,*4D",,,,
2022-02-17T19:43:19+01:00,412,33.21,21.82,1001.32,245.3,257.6,0,28.5,"$GNGGA,184314.000,4900.5086,N,00825.4665,E,1,9,1.09,131.2,M,47.9,M,,*4B",,,,
2022-02-17T19:43:40+01:00,413,33.18,21.91,1001.32,248.9,261.4,0,28.5,"$GNGGA,184335.000,4900.5135,N,00825.4696,E,1,9,1.09,132.2,M,47.9,M,,*4E",,,,
2022-02-17T19:44:01+01:00,414,33.16,21.91,1001.32,255.4,268.2,0,28.5,"$GNGGA,184356.000,4900.5203,N,00825.4498,E,1,9,1.09,129.3,M,47.9,M,,*4A",,,,
