created_at,entry_id,field1,field2,field3,field4,field5,field6,field7,field8,latitude,longitude,elevation,status
2022-03-14T14:34:16+01:00,1,23.69,32.57,1013.79,256.50,269.40,0,-127.00,"$GNGGA,133411.089,4924.1913,N,00840.5258,E,0,0,,125.9,M,48.0,M,,*5D",,,,
2022-03-14T14:34:36+01:00,2,24.06,31.10,1013.81,234.60,246.40,0,-127.00,"$GNGGA,133431.094,4931.5704,N,00853.2809,E,0,1,,133.9,M,48.0,M,,*56",,,,
2022-03-14T14:34:57+01:00,3,24.75,29.03,1013.83,215.30,226.10,0,-127.00,"$GNGGA,133452.094,4924.1935,N,00840.5296,E,0,1,,125.9,M,48.0,M,,*51",,,,
2022-03-14T14:35:17+01:00,4,25.57,27.37,1013.84,195.10,204.90,0,-127.00,"$GNGGA,133512.094,4900.5171,N,00825.4319,E,0,3,,133.0,M,47.9,M,,*50",,,,
2022-03-14T14:35:37+01:00,5,26.46,26.09,1013.87,187.00,196.40,0,-127.00,"$GNGGA,133532.094,4900.5142,N,00825.4280,E,0,3,,132.8,M,47.9,M,,*5A",,,,
2022-03-14T14:35:58+01:00,6,27.35,25.06,1013.88,188.10,197.60,0,-127.00,"$GNGGA,133553.094,4900.5103,N,00825.4144,E,0,3,,132.7,M,47.9,M,,*5C",,,,
2022-03-14T14:36:18+01:00,7,28.21,24.29,1013.89,193.00,202.70,0,-127.00,"$GNGGA,133613.094,4900.5161,N,00825.4297,E,0,3,,132.6,M,47.9,M,,*53",,,,
2022-03-14T14:36:39+01:00,8,29.03,23.61,1013.91,202.20,212.40,0,-127.00,"$GNGGA,133634.094,4900.5138,N,00825.4209,E,0,3,,132.5,M,47.9,M,,*5E",,,,
2022-03-14T14:37:00+01:00,9,29.80,23.02,1013.93,205.20,215.50,0,-127.00,"$GNGGA,133655.094,4900.5118,N,00825.4070,E,0,3,,132.4,M,47.9,M,,*56",,,,
2022-03-14T14:37:20+01:00,10,30.52,22.57,1013.94,205.70,216.00,0,-127.00,"$GNGGA,133715.094,4900.5194,N,00825.4188,E,0,3,,132.3,M,47.9,M,,*56",,,,
2022-03-14T14:37:40+01:00,11,31.20,22.15,1013.94,204.60,214.90,0,-127.00,"$GNGGA,133735.094,4900.5248,N,00825.4477,E,0,3,,132.2,M,47.9,M,,*52",,,,
2022-03-14T14:38:01+01:00,12,31.83,21.74,1013.96,201.10,211.20,0,-127.00,"$GNGGA,133756.094,4900.5223,N,00825.4429,E,0,3,,132.1,M,47.9,M,,*52",,,,
2022-03-14T14:38:21+01:00,13,32.41,21.40,1013.97,200.10,210.20,0,-127.00,"$GNGGA,133816.094,4900.5207,N,00825.4448,E,0,3,,132.0,M,47.9,M,,*59",,,,
2022-03-14T14:38:42+01:00,14,32.97,21.07,1013.96,198.80,208.80,0,-127.00,"$GNGGA,133837.094,4900.5214,N,00825.4522,E,0,3,,131.9,M,47.9,M,,*5F",,,,
2022-03-14T14:39:03+01:00,15,33.49,20.75,1013.95,198.40,208.40,0,-127.00,"$GNGGA,133858.094,4900.5196,N,00825.4418,E,0,3,,102.0,M,47.9,M,,*5E",,,,
2022-03-14T14:39:23+01:00,16,33.97,20.47,1013.93,199.30,209.30,0,-127.00,"$GNGGA,133918.094,4900.5143,N,00825.4226,E,0,3,,102.0,M,47.9,M,,*58",,,,
2022-03-14T14:39:43+01:00,17,34.43,20.22,1013.92,197.40,207.30,0,-127.00,"$GNGGA,133938.094,4900.5172,N,00825.4199,E,0,3,,102.1,M,47.9,M,,*5E",,,,
2022-03-14T14:40:04+01:00,18,34.86,19.94,1013.91,197.40,207.30,0,-127.00,"$GNGGA,133959.094,4900.5182,N,00825.4145,E,0,3,,102.0,M,47.9,M,,*56",,,,
2022-03-14T14:40:24+01:00,19,35.26,19.73,1013.89,194.60,204.40,0,-127.00,"$GNGGA,134019.094,4900.5248,N,00825.4365,E,0,3,,102.1,M,47.9,M,,*58",,,,
2022-03-14T14:40:44+01:00,20,35.65,19.50,1013.88,193.90,203.60,0,-127.00,"$GNGGA,134039.094,4900.5187,N,00825.4364,E,0,3,,102.1,M,47.9,M,,*5B",,,,
2022-03-14T14:41:05+01:00,21,36.01,19.28,1013.87,191.40,201.00,0,-127.00,"$GNGGA,134100.094,4900.5196,N,00825.4207,E,0,4,,98.0,M,47.9,M,,*60",,,,
2022-03-14T14:41:25+01:00,22,36.35,19.10,1013.87,195.00,204.80,0,-127.00,"$GNGGA,134120.000,4900.5221,N,00825.4540,E,1,5,1.54,125.0,M,47.9,M,,*4D",,,,
2022-03-14T14:41:45+01:00,23,36.68,18.86,1013.87,200.30,210.40,0,-127.00,"$GNGGA,134140.000,4900.5225,N,00825.4552,E,1,5,1.54,121.2,M,47.9,M,,*4A",,,,
2022-03-14T14:42:06+01:00,24,36.99,18.68,1013.87,212.10,222.80,0,-127.00,"$GNGGA,134201.000,4900.5182,N,00825.4460,E,1,5,1.53,122.7,M,47.9,M,,*43",,,,
2022-03-14T14:42:26+01:00,25,37.28,18.31,1013.87,212.20,222.90,0,-127.00,"$GNGGA,134221.000,4900.5216,N,00825.4525,E,1,5,1.53,123.8,M,47.9,M,,*41",,,,
2022-03-14T14:42:47+01:00,26,37.56,18.33,1013.87,201.00,211.10,0,-127.00,"$GNGGA,134242.000,4900.5226,N,00825.4468,E,1,5,1.53,117.0,M,47.9,M,,*40",,,,
2022-03-14T14:43:08+01:00,27,37.83,18.19,1013.88,190.30,199.90,0,-127.00,"$GNGGA,134303.000,4900.5218,N,00825.4447,E,1,5,1.53,112.2,M,47.9,M,,*43",,,,
2022-03-14T14:43:28+01:00,28,38.08,18.06,1013.90,193.10,202.80,0,-127.00,"$GNGGA,134323.000,4900.5233,N,00825.4463,E,1,5,1.52,114.3,M,47.9,M,,*48",,,,
2022-03-14T14:43:48+01:00,29,38.32,17.93,1013.89,207.30,217.70,0,-127.00,"$GNGGA,134343.000,4900.5252,N,00825.4354,E,1,5,1.52,113.2,M,47.9,M,,*4C",,,,
2022-03-14T14:44:09+01:00,30,38.56,17.77,1013.89,216.00,226.90,0,-127.00,"$GNGGA,134404.000,4900.5286,N,00825.4456,E,1,5,1.52,116.2,M,47.9,M,,*41",,,,
2022-03-14T14:44:29+01:00,31,38.78,17.63,1013.87,215.70,226.50,0,-127.00,"$GNGGA,134424.000,4900.5261,N,00825.4411,E,1,4,13.51,117.4,M,47.9,M,,*7F",,,,
2022-03-14T14:44:50+01:00,32,38.99,17.47,1013.86,216.90,227.80,0,-127.00,"$GNGGA,134445.000,4900.5212,N,00825.4452,E,1,5,1.51,120.2,M,47.9,M,,*4B",,,,
2022-03-14T14:45:11+01:00,33,39.20,17.32,1013.85,211.80,222.40,0,-127.00,"$GNGGA,134506.000,4900.5152,N,00825.4348,E,1,4,7.54,123.1,M,47.9,M,,*44",,,,
2022-03-14T14:45:31+01:00,34,39.40,17.22,1013.82,206.50,216.90,0,-127.00,"$GNGGA,134526.000,4900.5152,N,00825.4254,E,1,4,14.31,123.7,M,47.9,M,,*7D",,,,
2022-03-14T14:45:52+01:00,35,39.61,17.07,1013.81,198.10,208.10,0,-127.00,"$GNGGA,134547.000,4900.5177,N,00825.4405,E,1,4,7.53,124.0,M,47.9,M,,*49",,,,
2022-03-14T14:46:13+01:00,36,39.80,16.98,1013.79,199.50,209.50,0,-127.00,"$GNGGA,134608.000,4900.5162,N,00825.4364,E,1,4,7.53,124.5,M,47.9,M,,*40",,,,
2022-03-14T14:46:33+01:00,37,39.99,16.84,1013.79,199.10,209.10,0,-127.00,"$GNGGA,134628.000,4900.5177,N,00825.4442,E,1,4,7.53,124.7,M,47.9,M,,*47",,,,
2022-03-14T14:46:53+01:00,38,40.18,16.73,1013.79,201.40,211.50,0,-127.00,"$GNGGA,134648.000,4900.5154,N,00825.4364,E,1,4,14.66,125.3,M,47.9,M,,*72",,,,
2022-03-14T14:47:14+01:00,39,40.36,16.62,1013.79,207.40,217.80,0,-127.00,"$GNGGA,134709.000,4900.5147,N,00825.4394,E,1,4,7.53,127.4,M,47.9,M,,*4A",,,,
2022-03-14T14:47:34+01:00,40,40.53,16.50,1013.79,215.60,226.40,0,-127.00,"$GNGGA,134729.000,4900.5135,N,00825.4347,E,1,4,7.51,128.2,M,47.9,M,,*48",,,,
2022-03-14T14:47:54+01:00,41,40.70,16.40,1013.80,219.70,230.70,0,-127.00,"$GNGGA,134749.000,4900.5130,N,00825.4342,E,1,4,7.51,129.5,M,47.9,M,,*48",,,,
2022-03-14T14:48:15+01:00,42,40.86,16.31,1013.79,222.30,233.50,0,-127.00,"$GNGGA,134810.000,4900.5179,N,00825.4474,E,1,4,15.00,133.5,M,47.9,M,,*78",,,,
2022-03-14T14:48:35+01:00,43,41.02,16.22,1013.78,218.60,229.60,0,-127.00,"$GNGGA,134830.000,4900.5156,N,00825.4460,E,1,5,2.11,137.6,M,47.9,M,,*42",,,,
2022-03-14T14:48:55+01:00,44,41.18,16.13,1013.78,214.90,225.70,0,-127.00,"$GNGGA,134850.000,4900.5161,N,00825.4487,E,1,5,1.48,140.9,M,47.9,M,,*49",,,,
2022-03-14T14:49:16+01:00,45,41.33,16.02,1013.77,206.90,217.30,0,-127.00,"$GNGGA,134911.000,4900.5177,N,00825.4504,E,1,5,1.47,145.5,M,47.9,M,,*46",,,,
2022-03-14T14:49:36+01:00,46,41.48,15.95,1013.75,205.00,215.30,0,-127.00,"$GNGGA,134931.000,4900.5156,N,00825.4538,E,1,5,1.47,150.8,M,47.9,M,,*41",,,,
2022-03-14T14:49:57+01:00,47,41.63,15.88,1013.72,204.20,214.50,0,-127.00,"$GNGGA,134952.000,4900.5162,N,00825.4515,E,1,5,1.47,156.0,M,47.9,M,,*42",,,,
2022-03-14T14:50:18+01:00,48,41.77,15.81,1013.71,205.00,215.30,0,-127.00,"$GNGGA,135013.000,4900.5159,N,00825.4522,E,1,5,1.47,161.0,M,47.9,M,,*47",,,,
2022-03-14T14:50:38+01:00,49,41.90,15.71,1013.70,205.20,215.50,0,-127.00,"$GNGGA,135033.000,4900.5169,N,00825.4544,E,1,5,1.46,166.2,M,47.9,M,,*42",,,,
2022-03-14T14:50:59+01:00,50,42.04,15.62,1013.70,207.00,217.40,0,-127.00,"$GNGGA,135054.000,4900.5191,N,00825.4547,E,1,5,1.46,167.2,M,47.9,M,,*46",,,,
2022-03-14T14:51:20+01:00,51,42.17,15.52,1013.68,210.90,221.50,0,-127.00,"$GNGGA,135115.000,4900.5192,N,00825.4535,E,1,5,1.46,167.2,M,47.9,M,,*44",,,,
2022-03-14T14:51:41+01:00,52,42.30,15.46,1013.66,219.90,230.90,0,-127.00,"$GNGGA,135136.000,4900.5197,N,00825.4542,E,1,5,1.45,164.5,M,47.9,M,,*47",,,,
2022-03-14T14:52:01+01:00,53,42.43,15.42,1013.66,220.10,231.20,0,-127.00,"$GNGGA,135156.000,4900.5195,N,00825.4532,E,1,5,1.45,162.1,M,47.9,M,,*46",,,,
2022-03-14T14:52:22+01:00,54,42.55,15.35,1013.66,219.50,230.50,0,-127.00,"$GNGGA,135217.000,4900.5191,N,00825.4508,E,1,5,1.45,159.7,M,47.9,M,,*43",,,,
2022-03-14T14:52:42+01:00,55,42.67,15.23,1013.67,220.30,231.40,0,-127.00,"$GNGGA,135237.000,4900.5194,N,00825.4493,E,1,5,1.45,159.8,M,47.9,M,,*48",,,,
2022-03-14T14:53:02+01:00,56,42.79,15.17,1013.66,222.70,233.90,0,-127.00,"$GNGGA,135257.000,4900.5180,N,00825.4500,E,1,5,1.44,159.8,M,47.9,M,,*41",,,,
2022-03-14T14:53:23+01:00,57,42.90,15.12,1013.67,220.20,231.30,0,-127.00,"$GNGGA,135318.000,4900.5178,N,00825.4520,E,1,5,1.44,160.0,M,47.9,M,,*4C",,,,
2022-03-14T14:53:43+01:00,58,43.01,15.02,1013.66,216.90,227.80,0,-127.00,"$GNGGA,135338.000,4900.5187,N,00825.4538,E,1,5,1.44,159.2,M,47.9,M,,*4F",,,,
2022-03-14T14:54:03+01:00,59,43.13,14.95,1013.67,219.30,230.30,0,-127.00,"$GNGGA,135358.000,4900.5167,N,00825.4479,E,1,5,1.44,158.4,M,47.9,M,,*44",,,,
2022-03-14T14:54:24+01:00,60,43.24,14.90,1013.69,224.50,235.80,0,-127.00,"$GNGGA,135419.000,4900.5166,N,00825.4511,E,1,5,1.43,159.9,M,47.9,M,,*43",,,,
2022-03-14T14:54:44+01:00,61,43.35,14.85,1013.72,218.50,229.50,0,-127.00,"$GNGGA,135439.000,4900.5162,N,00825.4529,E,1,5,1.43,158.4,M,47.9,M,,*42",,,,
2022-03-14T14:55:04+01:00,62,43.46,14.76,1013.70,213.10,223.80,0,-127.00,"$GNGGA,135459.000,4900.5155,N,00825.4514,E,1,5,1.43,158.9,M,47.9,M,,*43",,,,
2022-03-14T14:55:25+01:00,63,43.56,14.70,1013.71,214.60,225.40,0,-127.00,"$GNGGA,135520.000,4900.5179,N,00825.4522,E,1,5,1.43,160.8,M,47.9,M,,*4D",,,,
2022-03-14T14:55:45+01:00,64,43.65,14.64,1013.71,222.00,233.20,0,-127.00,"$GNGGA,135540.000,4900.5201,N,00825.4501,E,1,5,1.43,162.2,M,47.9,M,,*4E",,,,
2022-03-14T14:56:05+01:00,65,43.75,14.58,1013.72,218.60,229.60,0,-127.00,"$GNGGA,135600.000,4900.5198,N,00825.4505,E,1,5,2.89,164.1,M,47.9,M,,*4E",,,,
2022-03-14T14:56:26+01:00,66,43.85,14.50,1013.72,207.60,218.00,0,-127.00,"$GNGGA,135621.000,4900.5181,N,00825.4522,E,1,5,1.42,166.6,M,47.9,M,,*41",,,,
2022-03-14T14:56:46+01:00,67,43.95,14.45,1013.71,198.30,208.30,0,-127.00,"$GNGGA,135641.000,4900.5184,N,00825.4517,E,1,5,1.42,168.6,M,47.9,M,,*4A",,,,
2022-03-14T14:57:06+01:00,68,44.05,14.39,1013.70,202.40,212.60,0,-127.00,"$GNGGA,135701.000,4900.5174,N,00825.4511,E,1,5,1.42,169.9,M,47.9,M,,*48",,,,
2022-03-14T14:57:27+01:00,69,44.14,14.35,1013.69,210.40,221.00,0,-127.00,"$GNGGA,135722.000,4900.5165,N,00825.4474,E,1,5,1.41,170.4,M,47.9,M,,*4D",,,,
2022-03-14T14:57:47+01:00,70,44.22,14.33,1013.69,218.60,229.60,0,-127.00,"$GNGGA,135742.000,4900.5168,N,00825.4500,E,1,5,1.41,171.3,M,47.9,M,,*42",,,,
2022-03-14T14:58:07+01:00,71,44.31,14.26,1013.69,215.00,225.80,0,-127.00,"$GNGGA,135802.000,4900.5190,N,00825.4499,E,1,5,3.56,173.5,M,47.9,M,,*4F",,,,
2022-03-14T14:58:28+01:00,72,44.40,14.17,1013.68,213.20,223.90,0,-127.00,"$GNGGA,135823.000,4900.5188,N,00825.4532,E,1,5,1.41,172.8,M,47.9,M,,*4D",,,,
2022-03-14T14:58:48+01:00,73,44.48,14.13,1013.68,210.80,221.40,0,-127.00,"$GNGGA,135843.000,4900.5170,N,00825.4532,E,1,5,1.41,173.0,M,47.9,M,,*45",,,,
2022-03-14T14:59:09+01:00,74,44.56,14.08,1013.68,213.50,224.20,0,-127.00,"$GNGGA,135904.000,4900.5179,N,00825.4556,E,1,5,1.40,173.1,M,47.9,M,,*4C",,,,
2022-03-14T14:59:30+01:00,75,44.64,14.06,1013.67,212.20,222.90,0,-127.00,"$GNGGA,135925.000,4900.5179,N,00825.4501,E,1,5,1.40,173.6,M,47.9,M,,*4A",,,,
2022-03-14T14:59:50+01:00,76,44.71,14.03,1013.68,209.90,220.40,0,-127.00,"$GNGGA,135945.000,4900.5172,N,00825.4523,E,1,5,1.40,174.9,M,47.9,M,,*4F",,,,
2022-03-14T15:00:11+01:00,77,44.79,13.96,1013.68,213.90,224.60,0,-127.00,"$GNGGA,140006.000,4900.5177,N,00825.4479,E,1,5,1.40,175.6,M,47.9,M,,*46",,,,
2022-03-14T15:00:32+01:00,78,44.85,13.93,1013.67,216.10,227.00,0,-127.00,"$GNGGA,140027.000,4900.5169,N,00825.4536,E,1,6,1.33,176.5,M,47.9,M,,*47",,,,
2022-03-14T15:00:52+01:00,79,44.92,13.84,1013.66,223.40,234.60,0,-127.00,"$GNGGA,140047.000,4900.5152,N,00825.4503,E,1,6,1.33,175.9,M,47.9,M,,*40",,,,
2022-03-14T15:01:13+01:00,80,45.00,13.78,1013.66,221.00,232.10,0,-127.00,"$GNGGA,140108.000,4900.5156,N,00825.4465,E,1,6,1.33,174.6,M,47.9,M,,*41",,,,
2022-03-14T15:01:33+01:00,81,45.07,13.75,1013.65,229.00,240.50,0,-127.00,"$GNGGA,140128.000,4900.5174,N,00825.4467,E,1,6,1.32,156.4,M,47.9,M,,*42",,,,
2022-03-14T15:01:54+01:00,82,45.16,13.68,1013.65,228.80,240.30,0,-127.00,"$GNGGA,140149.000,4900.5198,N,00825.4513,E,1,6,1.32,138.3,M,47.9,M,,*4A",,,,
2022-03-14T15:02:15+01:00,83,45.25,13.63,1013.64,232.20,243.90,0,-127.00,"$GNGGA,140210.000,4900.5227,N,00825.4539,E,1,6,1.32,120.7,M,47.9,M,,*47",,,,
2022-03-14T15:02:35+01:00,84,45.34,13.58,1013.65,223.80,235.00,0,-127.00,"$GNGGA,140230.000,4900.5238,N,00825.4539,E,1,6,1.32,109.6,M,47.9,M,,*41",,,,
2022-03-14T15:02:55+01:00,85,45.42,13.51,1013.65,218.60,229.60,0,-127.00,"$GNGGA,140250.000,4900.5227,N,00825.4522,E,1,6,1.33,105.7,M,47.9,M,,*4F",,,,
2022-03-14T15:03:16+01:00,86,45.49,13.47,1013.66,214.90,225.70,0,-127.00,"$GNGGA,140311.000,4900.5214,N,00825.4446,E,1,6,1.31,104.1,M,47.9,M,,*4D",,,,
2022-03-14T15:03:36+01:00,87,45.54,13.49,1013.65,215.80,226.60,0,-127.00,"$GNGGA,140331.000,4900.5205,N,00825.4359,E,1,6,1.32,103.4,M,47.9,M,,*47",,,,
2022-03-14T15:03:56+01:00,88,45.60,13.44,1013.64,218.30,229.30,0,-127.00,"$GNGGA,140351.000,4900.5195,N,00825.4343,E,1,6,1.32,102.3,M,47.9,M,,*46",,,,
2022-03-14T15:04:17+01:00,89,45.65,13.39,1013.63,218.90,229.90,0,-127.00,"$GNGGA,140412.000,4900.5202,N,00825.4412,E,1,6,1.30,100.5,M,47.9,M,,*4E",,,,
2022-03-14T15:04:37+01:00,90,45.70,13.37,1013.63,218.60,229.60,0,-127.00,"$GNGGA,140432.000,4900.5217,N,00825.4406,E,1,6,1.30,98.9,M,47.9,M,,*71",,,,
2022-03-14T15:04:58+01:00,91,45.75,13.33,1013.62,215.50,226.30,0,-127.00,"$GNGGA,140453.000,4900.5221,N,00825.4450,E,1,6,1.30,97.0,M,47.9,M,,*76",,,,
2022-03-14T15:05:18+01:00,92,45.81,13.33,1013.62,216.40,227.30,0,-127.00,"$GNGGA,140513.000,4900.5205,N,00825.4424,E,1,6,1.30,96.2,M,47.9,M,,*75",,,,
2022-03-14T15:05:38+01:00,93,45.87,13.30,1013.62,218.40,229.40,0,-127.00,"$GNGGA,140533.000,4900.5220,N,00825.4468,E,1,6,1.30,94.9,M,47.9,M,,*71",,,,
2022-03-14T15:05:59+01:00,94,45.92,13.23,1013.60,213.90,224.60,0,-127.00,"$GNGGA,140554.000,4900.5204,N,00825.4427,E,1,6,1.29,94.8,M,47.9,M,,*74",,,,
2022-03-14T15:06:20+01:00,95,45.97,13.19,1013.60,209.30,219.80,0,-127.00,"$GNGGA,140615.000,4900.5210,N,00825.4451,E,1,5,1.37,94.5,M,47.9,M,,*77",,,,
2022-03-14T15:06:40+01:00,96,46.02,13.18,1013.61,209.30,219.80,0,-127.00,"$GNGGA,140635.000,4900.5213,N,00825.4460,E,1,5,1.36,94.1,M,47.9,M,,*71",,,,
2022-03-14T15:07:01+01:00,97,46.07,13.14,1013.59,224.10,235.40,0,-127.00,"$GNGGA,140656.000,4900.5249,N,00825.4583,E,1,6,1.29,92.4,M,47.9,M,,*79",,,,
2022-03-14T15:07:22+01:00,98,46.12,13.15,1013.58,231.30,242.90,0,-127.00,"$GNGGA,140717.000,4900.5232,N,00825.4530,E,1,6,1.31,92.3,M,47.9,M,,*77",,,,
2022-03-14T15:07:42+01:00,99,46.17,13.09,1013.58,231.50,243.10,0,-127.00,"$GNGGA,140737.000,4900.5234,N,00825.4570,E,1,6,1.28,91.9,M,47.9,M,,*76",,,,
2022-03-14T15:08:03+01:00,100,46.22,13.05,1013.57,224.00,235.30,0,-127.00,"$GNGGA,140758.000,4900.5205,N,00825.4485,E,1,6,1.28,91.2,M,47.9,M,,*7D",,,,
2022-03-14T15:08:23+01:00,101,46.27,13.03,1013.57,219.20,230.20,0,-127.00,"$GNGGA,140818.000,4900.5201,N,00825.4448,E,1,6,1.28,89.3,M,47.9,M,,*7B",,,,
2022-03-14T15:08:44+01:00,102,46.32,13.00,1013.55,216.00,226.90,0,-127.00,"$GNGGA,140839.000,4900.5202,N,00825.4420,E,1,6,1.28,90.2,M,47.9,M,,*7C",,,,
2022-03-14T15:09:04+01:00,103,46.37,12.94,1013.55,214.00,224.80,0,-127.00,"$GNGGA,140859.000,4900.5207,N,00825.4450,E,1,6,1.27,92.7,M,47.9,M,,*70",,,,
2022-03-14T15:09:25+01:00,104,46.42,12.91,1013.53,216.30,227.20,0,-127.00,"$GNGGA,140920.000,4900.5204,N,00825.4439,E,1,6,1.27,94.8,M,47.9,M,,*7A",,,,
2022-03-14T15:09:46+01:00,105,46.46,12.93,1013.53,219.40,230.40,0,-127.00,"$GNGGA,140941.000,4900.5216,N,00825.4520,E,1,6,1.27,95.0,M,47.9,M,,*7E",,,,
2022-03-14T15:10:06+01:00,106,46.50,12.90,1013.54,224.80,236.10,0,-127.00,"$GNGGA,141001.000,4900.5218,N,00825.4499,E,1,6,1.27,97.9,M,47.9,M,,*74",,,,
2022-03-14T15:10:27+01:00,107,46.54,12.87,1013.54,222.20,233.40,0,-127.00,"$GNGGA,141022.000,4900.5212,N,00825.4490,E,1,6,1.26,99.1,M,47.9,M,,*71",,,,
2022-03-14T15:10:48+01:00,108,46.58,12.85,1013.54,219.60,230.60,0,-127.00,"$GNGGA,141043.000,4900.5219,N,00825.4515,E,1,6,1.26,100.4,M,47.9,M,,*45",,,,
2022-03-14T15:11:08+01:00,109,46.62,12.82,1013.53,216.30,227.20,0,-127.00,"$GNGGA,141103.000,4900.5218,N,00825.4482,E,1,6,1.26,100.6,M,47.9,M,,*4C",,,,
2022-03-14T15:11:29+01:00,110,46.66,12.77,1013.54,222.70,233.90,0,-127.00,"$GNGGA,141124.000,4900.5217,N,00825.4499,E,1,6,1.26,102.3,M,47.9,M,,*4B",,,,
2022-03-14T15:11:50+01:00,111,46.70,12.76,1013.54,225.10,236.40,0,-127.00,"$GNGGA,141145.000,4900.5224,N,00825.4535,E,1,6,1.26,103.6,M,47.9,M,,*4F",,,,
2022-03-14T15:12:11+01:00,112,46.73,12.74,1013.54,228.50,240.00,0,-127.00,"$GNGGA,141206.000,4900.5230,N,00825.4565,E,1,5,3.82,103.1,M,47.9,M,,*43",,,,
2022-03-14T15:12:32+01:00,113,46.77,12.71,1013.55,226.90,238.30,0,-127.00,"$GNGGA,141227.000,4900.5219,N,00825.4468,E,1,5,3.83,100.4,M,47.9,M,,*40",,,,
2022-03-14T15:12:52+01:00,114,46.80,12.66,1013.54,222.80,234.00,0,-127.00,"$GNGGA,141247.000,4900.5210,N,00825.4402,E,1,5,3.84,100.2,M,47.9,M,,*42",,,,
2022-03-14T15:13:12+01:00,115,46.84,12.65,1013.54,217.00,227.90,0,-127.00,"$GNGGA,141307.000,4900.5203,N,00825.4407,E,1,5,3.85,99.8,M,47.9,M,,*7A",,,,
2022-03-14T15:13:33+01:00,116,46.88,12.61,1013.54,215.90,226.70,0,-127.00,"$GNGGA,141328.000,4900.5239,N,00825.4590,E,1,5,3.86,99.1,M,47.9,M,,*7B",,,,
2022-03-14T15:13:53+01:00,117,46.91,12.60,1013.54,216.40,227.30,0,-127.00,"$GNGGA,141348.000,4900.5239,N,00825.4565,E,1,5,3.87,98.8,M,47.9,M,,*7E",,,,
2022-03-14T15:14:14+01:00,118,46.94,12.57,1013.55,217.30,228.20,0,-127.00,"$GNGGA,141409.000,4900.5215,N,00825.4456,E,1,5,3.87,99.1,M,47.9,M,,*7B",,,,
2022-03-14T15:14:35+01:00,119,46.97,12.54,1013.54,213.70,224.40,0,-127.00,"$GNGGA,141430.000,4900.5246,N,00825.4570,E,1,5,3.89,98.6,M,47.9,M,,*7A",,,,
2022-03-14T15:14:55+01:00,120,47.00,12.54,1013.55,210.20,220.80,0,-127.00,"$GNGGA,141450.000,4900.5282,N,00825.4729,E,1,5,3.89,97.3,M,47.9,M,,*70",,,,
2022-03-14T15:15:16+01:00,121,47.03,12.50,1013.55,209.40,219.90,0,-127.00,"$GNGGA,141511.000,4900.5260,N,00825.4662,E,1,5,3.90,97.2,M,47.9,M,,*7F",,,,
2022-03-14T15:15:37+01:00,122,47.06,12.49,1013.54,207.20,217.60,0,-127.00,"$GNGGA,141532.000,4900.5239,N,00825.4578,E,1,5,3.91,97.0,M,47.9,M,,*79",,,,
2022-03-14T15:15:57+01:00,123,47.08,12.47,1013.53,209.90,220.40,0,-127.00,"$GNGGA,141552.000,4900.5241,N,00825.4532,E,1,5,3.92,96.9,M,47.9,M,,*75",,,,
2022-03-14T15:16:18+01:00,124,47.11,12.44,1013.52,212.30,223.00,0,-127.00,"$GNGGA,141613.000,4900.5251,N,00825.4611,E,1,5,3.93,97.0,M,47.9,M,,*79",,,,
2022-03-14T15:16:39+01:00,125,47.14,12.43,1013.51,212.30,223.00,0,-127.00,"$GNGGA,141634.000,4900.5214,N,00825.4488,E,1,5,3.95,96.3,M,47.9,M,,*7B",,,,
2022-03-14T15:16:59+01:00,126,47.19,12.38,1013.50,209.00,219.50,0,-127.00,"$GNGGA,141654.000,4900.5210,N,00825.4474,E,1,5,3.96,94.4,M,47.9,M,,*7C",,,,
2022-03-14T15:17:20+01:00,127,47.23,12.35,1013.51,208.80,219.30,0,-127.00,"$GNGGA,141715.000,4900.5198,N,00825.4437,E,1,5,3.97,93.6,M,47.9,M,,*78",,,,
2022-03-14T15:17:40+01:00,128,47.26,12.31,1013.51,213.00,223.70,0,-127.00,"$GNGGA,141735.000,4900.5171,N,00825.4320,E,1,5,3.98,95.8,M,47.9,M,,*7B",,,,
2022-03-14T15:18:00+01:00,129,47.30,12.28,1013.50,215.60,226.40,0,-127.00,"$GNGGA,141755.000,4900.5134,N,00825.4190,E,1,5,3.99,98.1,M,47.9,M,,*70",,,,
2022-03-14T15:18:21+01:00,130,47.33,12.27,1013.48,215.80,226.60,0,-127.00,"$GNGGA,141816.000,4900.5218,N,00825.4523,E,1,4,7.31,99.7,M,47.9,M,,*79",,,,
2022-03-14T15:18:41+01:00,131,47.36,12.28,1013.47,215.10,225.90,0,-127.00,"$GNGGA,141836.000,4900.5244,N,00825.4587,E,1,5,4.01,99.9,M,47.9,M,,*73",,,,
2022-03-14T15:19:02+01:00,132,47.38,12.28,1013.47,215.70,226.50,0,-127.00,"$GNGGA,141857.000,4900.5225,N,00825.4588,E,1,4,7.31,99.9,M,47.9,M,,*7D",,,,
2022-03-14T15:19:23+01:00,133,47.41,12.24,1013.49,213.90,224.60,0,-127.00,"$GNGGA,141918.000,4900.5216,N,00825.4548,E,1,5,4.03,100.2,M,47.9,M,,*42",,,,
2022-03-14T15:19:44+01:00,134,47.44,12.22,1013.50,211.80,222.40,0,-127.00,"$GNGGA,141939.000,4900.5258,N,00825.4703,E,1,5,4.04,99.1,M,47.9,M,,*73",,,,
2022-03-14T15:20:05+01:00,135,47.47,12.17,1013.51,209.30,219.80,0,-127.00,"$GNGGA,142000.000,4900.5317,N,00825.4910,E,1,5,4.05,98.2,M,47.9,M,,*76",,,,
2022-03-14T15:20:25+01:00,136,47.50,12.14,1013.52,209.40,219.90,0,-127.00,"$GNGGA,142020.000,4900.5172,N,00825.4443,E,1,6,2.46,100.3,M,47.9,M,,*4D",,,,
2022-03-14T15:20:45+01:00,137,47.52,12.09,1013.52,206.40,216.80,0,-127.00,"$GNGGA,142040.000,4900.5210,N,00825.4422,E,1,5,7.68,101.4,M,47.9,M,,*47",,,,
2022-03-14T15:21:06+01:00,138,47.55,12.12,1013.52,205.20,215.50,0,-127.00,"$GNGGA,142101.000,4900.5248,N,00825.4386,E,1,5,7.56,104.6,M,47.9,M,,*4D",,,,
2022-03-14T15:21:27+01:00,139,47.57,12.11,1013.52,206.60,217.00,0,-127.00,"$GNGGA,142122.000,4900.5220,N,00825.4332,E,1,4,3.10,106.4,M,47.9,M,,*4A",,,,
2022-03-14T15:21:47+01:00,140,47.60,12.12,1013.52,210.30,220.90,0,-127.00,"$GNGGA,142142.000,4900.5236,N,00825.4476,E,1,5,2.62,108.2,M,47.9,M,,*41",,,,
2022-03-14T15:22:08+01:00,141,47.62,12.09,1013.52,208.80,219.30,0,-127.00,"$GNGGA,142203.000,4900.5245,N,00825.4591,E,1,5,2.63,109.3,M,47.9,M,,*4A",,,,
2022-03-14T15:22:28+01:00,142,47.64,12.07,1013.54,205.80,216.10,0,-127.00,"$GNGGA,142223.000,4900.5250,N,00825.4566,E,1,5,2.64,110.5,M,47.9,M,,*4D",,,,
2022-03-14T15:22:49+01:00,143,47.67,12.01,1013.55,209.10,219.60,0,-127.00,"$GNGGA,142244.000,4900.5234,N,00825.4502,E,1,5,2.65,112.0,M,47.9,M,,*4A",,,,
2022-03-14T15:23:10+01:00,144,47.69,11.98,1013.56,208.90,219.40,0,-127.00,"$GNGGA,142305.000,4900.5220,N,00825.4425,E,1,5,2.66,116.2,M,47.9,M,,*4A",,,,
2022-03-14T15:23:30+01:00,145,47.70,12.00,1013.56,208.60,219.10,0,-127.00,"$GNGGA,142325.000,4900.5228,N,00825.4470,E,1,5,2.66,119.1,M,47.9,M,,*4C",,,,
2022-03-14T15:23:51+01:00,146,47.71,12.02,1013.55,206.90,217.30,0,-127.00,"$GNGGA,142346.000,4900.5269,N,00825.4619,E,1,5,2.67,119.5,M,47.9,M,,*44",,,,
2022-03-14T15:24:11+01:00,147,47.72,12.03,1013.56,211.30,221.90,0,-127.00,"$GNGGA,142406.000,4900.5303,N,00825.4607,E,1,5,2.68,120.3,M,47.9,M,,*46",,,,
2022-03-14T15:24:31+01:00,148,47.73,11.99,1013.58,212.10,222.80,0,-127.00,"$GNGGA,142426.000,4900.5188,N,00825.4440,E,1,4,3.20,118.9,M,47.9,M,,*49",,,,
2022-03-14T15:24:52+01:00,149,47.74,11.98,1013.58,213.20,223.90,0,-127.00,"$GNGGA,142447.000,4900.5205,N,00825.4514,E,1,5,2.70,117.9,M,47.9,M,,*42",,,,
2022-03-14T15:25:12+01:00,150,47.74,11.96,1013.59,212.00,222.70,0,-127.00,"$GNGGA,142507.000,4900.5212,N,00825.4563,E,1,5,2.71,117.7,M,47.9,M,,*4E",,,,
2022-03-14T15:25:33+01:00,151,47.77,11.95,1013.59,211.70,222.30,0,-127.00,"$GNGGA,142528.000,4900.5293,N,00825.4687,E,1,5,2.72,121.0,M,47.9,M,,*42",,,,
2022-03-14T15:25:54+01:00,152,47.79,11.88,1013.58,210.70,221.30,0,-127.00,"$GNGGA,142549.000,4900.5341,N,00825.4589,E,1,5,2.73,123.0,M,47.9,M,,*45",,,,
2022-03-14T15:26:14+01:00,153,47.81,11.84,1013.57,210.10,220.70,0,-127.00,"$GNGGA,142609.000,4900.5339,N,00825.4594,E,1,4,4.52,123.3,M,47.9,M,,*46",,,,
2022-03-14T15:26:34+01:00,154,47.83,11.84,1013.57,208.10,218.60,0,-127.00,"$GNGGA,142629.000,4900.5346,N,00825.4768,E,1,4,4.53,122.3,M,47.9,M,,*4D",,,,
2022-03-14T15:26:55+01:00,155,47.85,11.81,1013.57,206.30,216.70,0,-127.00,"$GNGGA,142650.000,4900.5323,N,00825.4459,E,1,5,2.75,121.5,M,47.9,M,,*47",,,,
2022-03-14T15:27:15+01:00,156,47.86,11.82,1013.57,207.00,217.40,0,-127.00,"$GNGGA,142710.000,4900.5284,N,00825.4483,E,1,4,3.30,120.1,M,47.9,M,,*4D",,,,
2022-03-14T15:27:35+01:00,157,47.87,11.81,1013.57,207.80,218.20,0,-127.00,"$GNGGA,142730.000,4900.5323,N,00825.4474,E,1,5,2.77,118.7,M,47.9,M,,*45",,,,
2022-03-14T15:27:56+01:00,158,47.88,11.81,1013.57,205.60,215.90,0,-127.00,"$GNGGA,142751.000,4900.5376,N,00825.4770,E,1,4,3.32,117.5,M,47.9,M,,*49",,,,
2022-03-14T15:28:16+01:00,159,47.88,11.79,1013.57,199.40,209.40,0,-127.00,"$GNGGA,142811.000,4900.5365,N,00825.4784,E,1,5,2.79,115.0,M,47.9,M,,*43",,,,
2022-03-14T15:28:37+01:00,160,47.89,11.76,1013.56,195.30,205.10,0,-127.00,"$GNGGA,142832.000,4900.5320,N,00825.4627,E,1,5,2.80,114.9,M,47.9,M,,*45",,,,
2022-03-14T15:28:57+01:00,161,47.91,11.76,1013.56,194.70,204.50,0,-127.00,"$GNGGA,142852.000,4900.5225,N,00825.4643,E,1,4,3.36,115.2,M,47.9,M,,*42",,,,
2022-03-14T15:29:17+01:00,162,47.93,11.74,1013.56,197.10,207.00,0,-127.00,"$GNGGA,142912.000,4900.5270,N,00825.4702,E,1,4,3.37,114.8,M,47.9,M,,*49",,,,
2022-03-14T15:29:38+01:00,163,47.94,11.72,1013.57,197.20,207.10,0,-127.00,"$GNGGA,142933.000,4900.5296,N,00825.4730,E,1,5,2.84,113.6,M,47.9,M,,*42",,,,
2022-03-14T15:29:58+01:00,164,47.95,11.72,1013.58,199.60,209.60,0,-127.00,"$GNGGA,142953.000,4900.5341,N,00825.4762,E,1,5,2.85,113.7,M,47.9,M,,*48",,,,
2022-03-14T15:30:19+01:00,165,47.96,11.69,1013.58,198.10,208.10,0,-127.00,"$GNGGA,143014.000,4900.5302,N,00825.4730,E,1,4,3.42,112.4,M,47.9,M,,*4A",,,,
2022-03-14T15:30:40+01:00,166,47.97,11.67,1013.57,198.20,208.20,0,-127.00,"$GNGGA,143035.000,4900.5302,N,00825.4720,E,1,4,13.12,110.5,M,47.9,M,,*7F",,,,
2022-03-14T15:31:00+01:00,167,47.97,11.67,1013.57,196.70,206.60,0,-127.00,"$GNGGA,143055.000,4900.5220,N,00825.4556,E,1,4,3.44,109.4,M,47.9,M,,*40",,,,
2022-03-14T15:31:20+01:00,168,47.99,11.65,1013.57,202.70,212.90,0,-127.00,"$GNGGA,143115.000,4900.5260,N,00825.4528,E,1,5,2.89,111.0,M,47.9,M,,*44",,,,
2022-03-14T15:31:41+01:00,169,48.00,11.62,1013.57,204.10,214.40,0,-127.00,"$GNGGA,143136.000,4900.5315,N,00825.4308,E,1,5,2.91,116.6,M,47.9,M,,*4A",,,,
2022-03-14T15:32:01+01:00,170,48.00,11.63,1013.57,202.10,212.30,0,-127.00,"$GNGGA,143156.000,4900.5342,N,00825.4695,E,1,5,2.92,119.8,M,47.9,M,,*4D",,,,
2022-03-14T15:32:22+01:00,171,48.01,11.62,1013.57,200.40,210.50,0,-127.00,"$GNGGA,143217.000,4900.5266,N,00825.4704,E,1,5,5.22,118.9,M,47.9,M,,*49",,,,
2022-03-14T15:32:42+01:00,172,48.02,11.62,1013.58,199.20,209.20,0,-127.00,"$GNGGA,143237.000,4900.5269,N,00825.4790,E,1,5,2.94,117.9,M,47.9,M,,*4C",,,,
2022-03-14T15:33:02+01:00,173,48.04,11.59,1013.57,198.00,208.00,0,-127.00,"$GNGGA,143257.000,4900.5254,N,00825.4693,E,1,4,4.83,116.7,M,47.9,M,,*48",,,,
2022-03-14T15:33:23+01:00,174,48.05,11.56,1013.57,195.40,205.20,0,-127.00,"$GNGGA,143318.000,4900.5274,N,00825.4678,E,1,5,2.97,116.4,M,47.9,M,,*44",,,,
2022-03-14T15:33:43+01:00,175,48.06,11.57,1013.56,197.00,206.90,0,-127.00,"$GNGGA,143338.000,4900.5299,N,00825.4769,E,1,5,2.98,113.5,M,47.9,M,,*4F",,,,
2022-03-14T15:34:03+01:00,176,48.07,11.55,1013.56,199.70,209.70,0,-127.00,"$GNGGA,143358.000,4900.5270,N,00825.4679,E,1,5,2.99,111.3,M,47.9,M,,*4B",,,,
2022-03-14T15:34:24+01:00,177,48.08,11.55,1013.55,199.10,209.10,0,-127.00,"$GNGGA,143419.000,4900.5259,N,00825.4600,E,1,5,3.01,109.1,M,47.9,M,,*47",,,,
2022-03-14T15:34:44+01:00,178,48.09,11.55,1013.56,199.70,209.70,0,-127.00,"$GNGGA,143439.000,4900.5274,N,00825.4721,E,1,5,3.02,109.4,M,47.9,M,,*4E",,,,
2022-03-14T15:35:05+01:00,179,48.10,11.48,1013.56,198.40,208.40,0,-127.00,"$GNGGA,143500.000,4900.5309,N,00825.5005,E,1,5,3.04,109.9,M,47.9,M,,*45",,,,
2022-03-14T15:35:26+01:00,180,48.11,11.38,1013.57,196.10,206.00,0,-127.00,"$GNGGA,143521.000,4900.5295,N,00825.4658,E,1,5,3.05,115.2,M,47.9,M,,*4A",,,,
2022-03-14T15:35:46+01:00,181,48.10,11.20,1013.56,195.20,205.00,0,-127.00,"$GNGGA,143541.000,4900.5284,N,00825.4555,E,1,5,3.06,114.0,M,47.9,M,,*42",,,,
2022-03-14T15:36:07+01:00,182,48.09,10.80,1013.56,193.90,203.60,0,-127.00,"$GNGGA,143602.000,4900.5238,N,00825.4453,E,1,5,3.08,111.2,M,47.9,M,,*4F",,,,
2022-03-14T15:36:27+01:00,183,48.08,10.76,1013.56,195.20,205.00,0,-127.00,"$GNGGA,143622.000,4900.5208,N,00825.4519,E,1,5,3.09,108.9,M,47.9,M,,*43",,,,
2022-03-14T15:36:47+01:00,184,48.08,10.84,1013.56,193.40,203.10,0,-127.00,"$GNGGA,143642.000,4900.5215,N,00825.4503,E,1,4,6.16,107.9,M,47.9,M,,*47",,,,
2022-03-14T15:37:08+01:00,185,48.09,10.96,1013.56,192.30,202.00,0,-127.00,"$GNGGA,143703.000,4900.5242,N,00825.4661,E,1,4,5.04,107.0,M,47.9,M,,*4F",,,,
2022-03-14T15:37:28+01:00,186,48.08,10.90,1013.55,189.00,198.50,0,-127.00,"$GNGGA,143723.000,4900.5251,N,00825.4676,E,1,4,6.17,106.6,M,47.9,M,,*4F",,,,
2022-03-14T15:37:48+01:00,187,48.09,10.93,1013.55,188.30,197.80,0,-127.00,"$GNGGA,143743.000,4900.5184,N,00825.4406,E,1,4,5.08,105.6,M,47.9,M,,*49",,,,
2022-03-14T15:38:09+01:00,188,48.08,10.93,1013.55,185.80,195.10,0,-127.00,"$GNGGA,143804.000,4900.5202,N,00825.4547,E,1,4,5.10,104.4,M,47.9,M,,*46",,,,
2022-03-14T15:38:30+01:00,189,48.07,10.66,1013.55,185.80,195.10,0,-127.00,"$GNGGA,143825.000,4900.5125,N,00825.4689,E,1,4,5.11,103.7,M,47.9,M,,*47",,,,
2022-03-14T15:38:50+01:00,190,48.07,10.74,1013.54,184.40,193.70,0,-127.00,"$GNGGA,143845.000,4900.5133,N,00825.4460,E,1,5,3.20,107.8,M,47.9,M,,*4D",,,,
2022-03-14T15:39:11+01:00,191,48.06,10.79,1013.54,185.20,194.50,0,-127.00,"$GNGGA,143906.000,4900.5245,N,00825.4761,E,1,5,3.22,115.1,M,47.9,M,,*43",,,,
2022-03-14T15:39:31+01:00,192,48.04,10.80,1013.54,184.90,194.20,0,-127.00,"$GNGGA,143926.000,4900.5243,N,00825.4642,E,1,5,4.71,118.2,M,47.9,M,,*48",,,,
2022-03-14T15:39:51+01:00,193,48.04,10.70,1013.52,188.80,198.30,0,-127.00,"$GNGGA,143946.000,4900.5245,N,00825.4756,E,1,5,3.25,119.1,M,47.9,M,,*48",,,,
2022-03-14T15:40:12+01:00,194,48.03,10.71,1013.51,190.80,200.40,0,-127.00,"$GNGGA,144007.000,4900.5225,N,00825.4648,E,1,5,3.27,119.3,M,47.9,M,,*4B",,,,
2022-03-14T15:40:32+01:00,195,48.02,10.60,1013.50,193.40,203.10,0,-127.00,"$GNGGA,144027.000,4900.5225,N,00825.4785,E,1,5,3.29,118.8,M,47.9,M,,*4D",,,,
2022-03-14T15:40:53+01:00,196,48.02,10.48,1013.49,198.20,208.20,0,-127.00,"$GNGGA,144048.000,4900.5242,N,00825.4852,E,1,5,3.31,121.0,M,47.9,M,,*4B",,,,
2022-03-14T15:41:13+01:00,197,48.01,10.43,1013.49,202.00,212.20,0,-127.00,"$GNGGA,144108.000,4900.5213,N,00825.4771,E,1,5,3.33,120.3,M,47.9,M,,*44",,,,
2022-03-14T15:41:33+01:00,198,48.01,10.50,1013.49,207.70,218.10,0,-127.00,"$GNGGA,144128.000,4900.5206,N,00825.4414,E,1,5,3.34,120.9,M,47.9,M,,*4F",,,,
2022-03-14T15:41:54+01:00,199,48.01,10.45,1013.48,207.10,217.50,0,-127.00,"$GNGGA,144149.000,4900.5224,N,00825.4542,E,1,5,3.36,120.5,M,47.9,M,,*44",,,,
2022-03-14T15:42:14+01:00,200,47.99,10.44,1013.48,204.60,214.90,0,-127.00,"$GNGGA,144209.000,4900.5278,N,00825.4736,E,1,5,3.38,121.4,M,47.9,M,,*45",,,,
2022-03-14T15:42:34+01:00,201,47.99,10.34,1013.46,199.50,209.50,0,-127.00,"$GNGGA,144229.000,4900.5273,N,00825.4812,E,1,5,3.40,122.6,M,47.9,M,,*4B",,,,
2022-03-14T15:42:55+01:00,202,47.98,10.39,1013.46,196.20,206.10,0,-127.00,"$GNGGA,144250.000,4900.5227,N,00825.4896,E,1,4,12.73,121.7,M,47.9,M,,*7B",,,,
2022-03-14T15:43:15+01:00,203,47.97,10.39,1013.45,197.80,207.70,0,-127.00,"$GNGGA,144310.000,4900.5247,N,00825.4923,E,1,4,4.06,119.7,M,47.9,M,,*49",,,,
2022-03-14T15:43:35+01:00,204,47.96,10.38,1013.45,200.40,210.50,0,-127.00,"$GNGGA,144330.000,4900.5180,N,00825.4717,E,1,5,3.46,118.1,M,47.9,M,,*4F",,,,
2022-03-14T15:43:56+01:00,205,47.95,10.42,1013.44,198.20,208.20,0,-127.00,"$GNGGA,144351.000,4900.5130,N,00825.4585,E,1,4,3.59,116.0,M,47.9,M,,*4A",,,,
2022-03-14T15:44:16+01:00,206,47.94,10.44,1013.43,196.30,206.20,0,-127.00,"$GNGGA,144411.000,4900.5238,N,00825.4706,E,1,4,6.81,119.3,M,47.9,M,,*47",,,,
2022-03-14T15:44:36+01:00,207,47.94,10.42,1013.43,194.30,204.10,0,-127.00,"$GNGGA,144431.000,4900.5134,N,00825.4579,E,1,4,4.14,119.8,M,47.9,M,,*45",,,,
2022-03-14T15:44:57+01:00,208,47.94,10.40,1013.44,197.40,207.30,0,-127.00,"$GNGGA,144452.000,4900.5159,N,00825.4484,E,1,3,99.99,118.4,M,47.9,M,,*73",,,,
2022-03-14T15:45:17+01:00,209,47.93,10.50,1013.45,194.30,204.10,0,-127.00,"$GNGGA,144512.000,4900.5192,N,00825.4635,E,1,4,6.83,117.4,M,47.9,M,,*4C",,,,
2022-03-14T15:45:38+01:00,210,47.93,10.39,1013.45,191.30,200.90,0,-127.00,"$GNGGA,144533.000,4900.5209,N,00825.4654,E,1,4,5.51,117.5,M,47.9,M,,*44",,,,
2022-03-14T15:45:58+01:00,211,47.93,10.41,1013.45,187.30,196.70,0,-127.00,"$GNGGA,144553.000,4900.5246,N,00825.4783,E,1,4,5.53,116.9,M,47.9,M,,*4D",,,,
2022-03-14T15:46:18+01:00,212,47.93,10.34,1013.45,188.80,198.30,0,-127.00,"$GNGGA,144613.000,4900.5232,N,00825.4671,E,1,4,3.74,117.7,M,47.9,M,,*49",,,,
2022-03-14T15:46:39+01:00,213,47.93,10.50,1013.46,191.60,201.20,0,-127.00,"$GNGGA,144634.000,4900.5226,N,00825.4591,E,1,4,3.76,116.7,M,47.9,M,,*47",,,,
2022-03-14T15:46:59+01:00,214,47.92,10.45,1013.47,195.30,205.10,0,-127.00,"$GNGGA,144654.000,4900.5191,N,00825.4549,E,1,4,3.78,115.6,M,47.9,M,,*47",,,,
2022-03-14T15:47:19+01:00,215,47.92,10.46,1013.48,197.00,206.90,0,-127.00,"$GNGGA,144714.000,4900.5237,N,00825.4597,E,1,4,3.81,116.8,M,47.9,M,,*45",,,,
2022-03-14T15:47:40+01:00,216,47.92,10.45,1013.48,194.70,204.50,0,-127.00,"$GNGGA,144735.000,4900.5270,N,00825.4680,E,1,4,3.83,118.2,M,47.9,M,,*46",,,,
2022-03-14T15:48:00+01:00,217,47.91,10.48,1013.48,190.80,200.40,0,-127.00,"$GNGGA,144755.000,4900.5231,N,00825.4660,E,1,4,3.85,119.5,M,47.9,M,,*4B",,,,
2022-03-14T15:48:20+01:00,218,47.91,10.47,1013.49,186.40,195.80,0,-127.00,"$GNGGA,144815.000,4900.5235,N,00825.4603,E,1,4,3.88,119.9,M,47.9,M,,*40",,,,
2022-03-14T15:48:41+01:00,219,47.91,10.46,1013.50,185.50,194.80,0,-127.00,"$GNGGA,144836.000,4900.5283,N,00825.4711,E,1,4,3.90,123.3,M,47.9,M,,*44",,,,
2022-03-14T15:49:01+01:00,220,47.90,10.46,1013.52,189.80,199.30,0,-127.00,"$GNGGA,144856.000,4900.5278,N,00825.4731,E,1,4,3.93,126.4,M,47.9,M,,*45",,,,
2022-03-14T15:49:22+01:00,221,47.90,10.44,1013.53,191.30,200.90,0,-127.00,"$GNGGA,144917.000,4900.5249,N,00825.4647,E,1,4,3.96,126.7,M,47.9,M,,*45",,,,
2022-03-14T15:49:42+01:00,222,47.90,10.44,1013.53,191.00,200.60,0,-127.00,"$GNGGA,144937.000,4900.5271,N,00825.4750,E,1,4,3.98,127.8,M,47.9,M,,*4B",,,,
2022-03-14T15:50:02+01:00,223,47.91,10.43,1013.53,190.00,199.60,0,-127.00,"$GNGGA,144957.000,4900.5239,N,00825.4540,E,1,4,4.53,131.1,M,47.9,M,,*4C",,,,
2022-03-14T15:50:23+01:00,224,47.92,10.42,1013.54,192.70,202.40,0,-127.00,"$GNGGA,145018.000,4900.5314,N,00825.4833,E,1,4,4.03,133.3,M,47.9,M,,*4D",,,,
2022-03-14T15:50:43+01:00,225,47.91,10.43,1013.55,194.00,203.80,0,-127.00,"$GNGGA,145038.000,4900.5304,N,00825.4767,E,1,4,4.06,133.4,M,47.9,M,,*42",,,,
2022-03-14T15:51:03+01:00,226,47.92,10.40,1013.54,191.50,201.10,0,-127.00,"$GNGGA,145058.000,4900.5264,N,00825.4709,E,1,4,12.13,132.7,M,47.9,M,,*7A",,,,
2022-03-14T15:51:24+01:00,227,47.92,10.39,1013.54,191.70,201.30,0,-127.00,"$GNGGA,145119.000,4900.5287,N,00825.4826,E,1,4,4.64,132.1,M,47.9,M,,*40",,,,
2022-03-14T15:51:44+01:00,228,47.92,10.40,1013.54,193.60,203.30,0,-127.00,"$GNGGA,145139.000,4900.5212,N,00825.4674,E,1,4,4.67,132.2,M,47.9,M,,*47",,,,
2022-03-14T15:52:04+01:00,229,47.92,10.41,1013.54,195.30,205.10,0,-127.00,"$GNGGA,145159.000,4900.5263,N,00825.4739,E,1,4,4.17,135.2,M,47.9,M,,*4F",,,,
2022-03-14T15:52:27+01:00,230,47.93,10.41,1013.53,197.00,206.90,0,-127.00,"$GNGGA,145222.000,4900.5261,N,00825.4802,E,1,4,4.20,132.3,M,47.9,M,,*47",,,,
2022-03-14T15:52:48+01:00,231,47.95,10.39,1013.53,200.80,210.90,0,-127.00,"$GNGGA,145243.000,4900.5287,N,00825.4765,E,1,4,4.23,131.5,M,47.9,M,,*40",,,,
2022-03-14T15:57:07+01:00,232,39.61,10.98,1015.25,36.70,38.60,0,-127.00,"$GNGGA,145702.088,4900.3613,N,00825.5453,E,0,2,,127.2,M,47.9,M,,*54",,,,
2022-03-14T15:57:28+01:00,233,39.35,11.01,1015.26,35.10,36.90,0,-127.00,"$GNGGA,145723.088,4900.4907,N,00825.4956,E,0,2,,109.5,M,47.9,M,,*58",,,,
2022-03-14T15:57:48+01:00,234,39.12,10.96,1015.27,34.20,36.00,0,-127.00,"$GNGGA,145743.000,4900.5176,N,00825.4518,E,1,7,1.28,131.1,M,47.9,M,,*49",,,,
2022-03-14T15:58:09+01:00,235,38.92,10.93,1015.27,30.80,32.40,0,-127.00,"$GNGGA,145804.000,4900.5189,N,00825.4509,E,1,7,1.28,129.0,M,47.9,M,,*4D",,,,
2022-03-14T15:58:30+01:00,236,38.51,10.80,1015.27,30.80,32.40,0,-127.00,"$GNGGA,145825.000,4900.5212,N,00825.4369,E,1,6,1.45,129.5,M,47.9,M,,*40",,,,
2022-03-14T15:58:51+01:00,237,37.64,11.08,1015.29,30.70,32.30,0,-127.00,"$GNGGA,145846.000,4900.5087,N,00825.4094,E,1,7,1.46,131.5,M,47.9,M,,*41",,,,
2022-03-14T15:59:14+01:00,238,36.39,12.26,1015.33,32.10,33.80,0,-127.00,"$GNGGA,145906.000,4900.4816,N,00825.3756,E,1,8,1.14,130.8,M,47.9,M,,*4F",,,,
2022-03-14T15:59:34+01:00,239,34.36,13.97,1015.37,31.40,33.00,0,-127.00,"$GNGGA,145929.000,4900.4970,N,00825.2885,E,1,7,1.18,124.4,M,47.9,M,,*49",,,,
2022-03-14T15:59:55+01:00,240,31.96,16.65,1015.40,31.60,33.20,0,-127.00,"$GNGGA,145950.000,4900.5157,N,00825.1987,E,1,8,1.26,123.3,M,47.9,M,,*49",,,,
2022-03-14T16:00:15+01:00,241,29.78,18.78,1015.38,31.70,33.30,0,-127.00,"$GNGGA,150010.000,4900.5264,N,00825.1254,E,1,8,1.26,127.1,M,47.9,M,,*40",,,,
2022-03-14T16:00:36+01:00,242,28.16,20.10,1015.35,32.30,34.00,0,-127.00,"$GNGGA,150031.000,4900.5398,N,00825.0584,E,1,8,1.26,123.8,M,47.9,M,,*47",,,,
2022-03-14T16:00:57+01:00,243,27.10,20.20,1015.32,32.50,34.20,0,-127.00,"$GNGGA,150052.000,4900.5406,N,00825.0512,E,1,10,0.93,123.5,M,47.9,M,,*76",,,,
2022-03-14T16:01:18+01:00,244,26.20,20.09,1015.31,41.90,44.00,0,-127.00,"$GNGGA,150113.000,4900.5468,N,00825.0057,E,1,10,1.01,122.7,M,47.9,M,,*77",,,,
2022-03-14T16:01:39+01:00,245,25.57,20.56,1015.32,34.50,36.30,0,-127.00,"$GNGGA,150134.000,4900.5483,N,00824.9509,E,1,8,1.19,125.1,M,47.9,M,,*40",,,,
2022-03-14T16:02:01+01:00,246,25.08,20.45,1015.31,32.90,34.60,0,-127.00,"$GNGGA,150155.000,4900.5510,N,00824.8769,E,1,10,1.01,122.5,M,47.9,M,,*7A",,,,
2022-03-14T16:02:21+01:00,247,24.52,20.50,1015.35,30.30,31.90,0,-127.00,"$GNGGA,150216.000,4900.5751,N,00824.8323,E,1,10,0.93,130.3,M,47.9,M,,*7C",,,,
2022-03-14T16:02:47+01:00,248,23.96,21.09,1015.36,31.20,32.80,0,-127.00,"$GNGGA,150237.000,4900.5930,N,00824.7489,E,1,10,0.97,128.3,M,47.9,M,,*73",,,,
2022-03-14T17:10:31+01:00,249,22.95,23.62,1015.45,29.90,31.40,0,-127.00,"$GNGGA,161026.302,4900.5641,N,00824.5892,E,0,3,,102.0,M,47.9,M,,*57",,,,
2022-03-14T17:10:52+01:00,250,22.65,23.37,1015.45,28.10,29.60,0,-127.00,"$GNGGA,161047.000,4900.5428,N,00824.5695,E,1,6,1.36,144.7,M,47.9,M,,*4E",,,,
2022-03-14T17:11:12+01:00,251,22.37,23.33,1015.45,26.50,27.90,0,-127.00,"$GNGGA,161107.000,4900.5279,N,00824.5448,E,1,6,1.36,183.3,M,47.9,M,,*44",,,,
2022-03-14T17:11:34+01:00,252,22.03,23.92,1015.44,25.30,26.60,0,-127.00,"$GNGGA,161129.000,4900.5385,N,00824.4903,E,1,8,1.10,162.1,M,47.9,M,,*4E",,,,
2022-03-14T17:11:54+01:00,253,21.87,23.93,1015.44,26.20,27.60,0,-127.00,"$GNGGA,161149.000,4900.5324,N,00824.4749,E,1,8,1.10,148.7,M,47.9,M,,*4D",,,,
2022-03-14T17:12:15+01:00,254,21.83,23.62,1015.45,28.20,29.70,0,-127.00,"$GNGGA,161210.000,4900.5331,N,00824.4737,E,1,8,1.10,144.6,M,47.9,M,,*42",,,,
2022-03-14T17:12:36+01:00,255,21.88,23.46,1015.45,31.80,33.40,0,-127.00,"$GNGGA,161231.000,4900.5400,N,00824.4743,E,1,8,1.11,144.4,M,47.9,M,,*44",,,,
2022-03-14T17:12:57+01:00,256,21.97,23.29,1015.46,32.90,34.60,0,-127.00,"$GNGGA,161252.000,4900.5460,N,00824.4816,E,1,8,1.13,140.1,M,47.9,M,,*4B",,,,
2022-03-14T17:13:17+01:00,257,22.07,23.11,1015.46,33.20,34.90,0,-127.00,"$GNGGA,161312.000,4900.5460,N,00824.4848,E,1,10,1.04,130.7,M,47.9,M,,*7B",,,,
2022-03-14T17:13:38+01:00,258,22.17,22.87,1015.46,31.00,32.60,0,-127.00,"$GNGGA,161333.000,4900.5438,N,00824.4811,E,1,10,1.04,131.3,M,47.9,M,,*7C",,,,
2022-03-14T17:13:59+01:00,259,22.28,22.69,1015.46,30.40,32.00,0,-127.00,"$GNGGA,161354.000,4900.5406,N,00824.4774,E,1,10,1.04,130.0,M,47.9,M,,*7E",,,,
2022-03-14T17:14:20+01:00,260,22.38,22.74,1015.47,29.00,30.50,0,-127.00,"$GNGGA,161415.000,4900.5405,N,00824.4767,E,1,10,1.12,130.6,M,47.9,M,,*7C",,,,
2022-03-14T17:14:41+01:00,261,22.48,22.73,1015.48,29.30,30.80,0,-127.00,"$GNGGA,161436.000,4900.5371,N,00824.4765,E,1,10,1.22,130.6,M,47.9,M,,*78",,,,
2022-03-14T17:15:01+01:00,262,22.56,22.68,1015.49,29.00,30.50,0,-127.00,"$GNGGA,161456.000,4900.5374,N,00824.4774,E,1,9,1.48,130.1,M,47.9,M,,*48",,,,
2022-03-14T17:15:22+01:00,263,22.63,22.69,1015.49,29.10,30.60,0,-127.00,"$GNGGA,161517.000,4900.5398,N,00824.4806,E,1,11,1.13,129.8,M,47.9,M,,*72",,,,
2022-03-14T17:15:42+01:00,264,22.70,22.46,1015.49,29.00,30.50,0,-127.00,"$GNGGA,161537.000,4900.5371,N,00824.4803,E,1,11,0.80,132.1,M,47.9,M,,*7A",,,,
2022-03-14T17:16:03+01:00,265,22.76,22.39,1015.50,28.80,30.30,0,-127.00,"$GNGGA,161558.000,4900.5354,N,00824.4771,E,1,13,0.72,132.9,M,47.9,M,,*79",,,,
2022-03-14T17:16:24+01:00,266,22.81,22.39,1015.50,29.10,30.60,0,-127.00,"$GNGGA,161619.000,4900.5342,N,00824.4759,E,1,13,0.72,133.4,M,47.9,M,,*7E",,,,
2022-03-14T17:16:45+01:00,267,22.82,22.38,1015.51,29.20,30.70,0,-127.00,"$GNGGA,161640.000,4900.5338,N,00824.4754,E,1,13,0.73,132.7,M,47.9,M,,*71",,,,
2022-03-14T17:17:05+01:00,268,22.84,22.28,1015.51,30.30,31.90,0,-127.00,"$GNGGA,161700.000,4900.5345,N,00824.4768,E,1,13,0.73,131.2,M,47.9,M,,*77",,,,
2022-03-14T17:17:26+01:00,269,22.84,22.10,1015.50,30.00,31.60,0,-127.00,"$GNGGA,161721.000,4900.5346,N,00824.4777,E,1,13,0.72,129.6,M,47.9,M,,*75",,,,
2022-03-14T17:17:47+01:00,270,22.85,22.01,1015.49,29.60,31.10,0,-127.00,"$GNGGA,161742.000,4900.5348,N,00824.4761,E,1,12,0.73,130.6,M,47.9,M,,*71",,,,
2022-03-14T17:18:08+01:00,271,22.86,21.96,1015.48,28.30,29.80,0,-127.00,"$GNGGA,161803.000,4900.5346,N,00824.4761,E,1,13,0.73,132.1,M,47.9,M,,*71",,,,
2022-03-14T17:18:29+01:00,272,22.89,21.93,1015.48,27.80,29.20,0,-127.00,"$GNGGA,161824.000,4900.5325,N,00824.4754,E,1,13,0.73,136.0,M,47.9,M,,*72",,,,
2022-03-14T17:18:50+01:00,273,22.92,21.91,1015.48,27.20,28.60,0,-127.00,"$GNGGA,161845.000,4900.5328,N,00824.4730,E,1,13,0.73,135.7,M,47.9,M,,*7E",,,,
2022-03-14T17:19:11+01:00,274,22.96,21.90,1015.47,27.10,28.50,0,-127.00,"$GNGGA,161906.000,4900.5312,N,00824.4711,E,1,12,0.73,136.4,M,47.9,M,,*73",,,,
2022-03-14T17:19:31+01:00,275,22.99,22.01,1015.48,27.60,29.00,0,-127.00,"$GNGGA,161926.000,4900.5298,N,00824.4707,E,1,10,0.87,136.7,M,47.9,M,,*7F",,,,
2022-03-14T17:19:52+01:00,276,23.02,22.04,1015.47,27.40,28.80,0,-127.00,"$GNGGA,161947.000,4900.5325,N,00824.4705,E,1,13,0.73,136.9,M,47.9,M,,*7B",,,,
2022-03-14T17:20:13+01:00,277,23.04,21.93,1015.46,27.80,29.20,0,-127.00,"$GNGGA,162008.000,4900.5346,N,00824.4709,E,1,13,0.73,134.1,M,47.9,M,,*79",,,,
2022-03-14T17:20:33+01:00,278,23.08,21.89,1015.46,27.60,29.00,0,-127.00,"$GNGGA,162028.000,4900.5367,N,00824.4725,E,1,13,0.73,133.0,M,47.9,M,,*70",,,,
2022-03-14T17:20:54+01:00,279,23.12,22.27,1015.45,28.40,29.90,0,-127.00,"$GNGGA,162049.000,4900.5319,N,00824.4670,E,6,0,99.99,133.6,M,47.9,M,,*78",,,,
2022-03-14T17:21:15+01:00,280,23.17,23.18,1015.45,29.50,31.00,0,-127.00,"$GNGGA,162110.000,4900.5323,N,00824.4674,E,0,0,,133.6,M,47.9,M,,*50",,,,
2022-03-14T17:21:35+01:00,281,22.71,22.71,1015.44,29.70,31.20,0,-127.00,"$GNGGA,162130.000,4900.5154,N,00824.5466,E,1,13,0.73,117.0,M,47.9,M,,*79",,,,
2022-03-14T17:21:56+01:00,282,22.05,24.29,1015.44,27.90,29.30,0,-127.00,"$GNGGA,162151.000,4900.4768,N,00824.5818,E,1,13,0.73,115.6,M,47.9,M,,*77",,,,
2022-03-14T17:22:17+01:00,283,21.71,24.71,1015.44,24.90,26.20,0,-127.00,"$GNGGA,162212.000,4900.4765,N,00824.5861,E,1,12,0.96,117.8,M,47.9,M,,*76",,,,
2022-03-14T17:22:37+01:00,284,21.28,24.61,1015.44,23.40,24.60,0,-127.00,"$GNGGA,162232.000,4900.4642,N,00824.5921,E,1,13,0.73,117.0,M,47.9,M,,*77",,,,
2022-03-14T17:22:58+01:00,285,20.51,26.45,1015.46,22.90,24.10,0,-127.00,"$GNGGA,162253.000,4900.4005,N,00824.6056,E,2,13,0.73,130.1,M,47.9,M,,*78",,,,
2022-03-14T17:23:19+01:00,286,19.82,27.72,1015.46,24.30,25.60,0,-127.00,"$GNGGA,162314.000,4900.3536,N,00824.6072,E,2,13,0.73,133.1,M,47.9,M,,*7D",,,,
2022-03-14T17:23:43+01:00,287,19.35,28.13,1015.47,24.60,25.90,0,-127.00,"$GNGGA,162335.000,4900.3441,N,00824.6107,E,2,13,0.73,125.1,M,47.9,M,,*7B",,,,
2022-03-14T17:24:04+01:00,288,18.81,29.02,1015.49,26.40,27.80,0,-127.00,"$GNGGA,162359.000,4900.2842,N,00824.6249,E,2,11,0.78,138.0,M,47.9,M,,*72",,,,
2022-03-14T17:24:25+01:00,289,18.43,29.15,1015.48,26.60,28.00,0,-127.00,"$GNGGA,162420.000,4900.2645,N,00824.6161,E,2,13,0.73,140.5,M,47.9,M,,*78",,,,
2022-03-14T17:24:59+01:00,290,18.35,28.70,1015.49,26.30,27.70,0,-127.00,"$GNGGA,162441.000,4900.2590,N,00824.5323,E,2,13,0.73,127.1,M,47.9,M,,*76",,,,
2022-03-14T17:25:24+01:00,291,18.38,27.81,1015.51,24.60,25.90,0,-127.00,"$GNGGA,162515.000,4900.2514,N,00824.4240,E,2,13,0.73,119.3,M,47.9,M,,*70",,,,
2022-03-14T17:25:45+01:00,292,18.40,27.96,1015.53,23.30,24.50,0,-127.00,"$GNGGA,162539.000,4900.2418,N,00824.2975,E,2,13,0.73,116.5,M,47.9,M,,*71",,,,
2022-03-14T17:26:06+01:00,293,18.44,27.73,1015.55,21.80,22.90,0,-127.00,"$GNGGA,162601.000,4900.2388,N,00824.2197,E,2,13,0.73,116.2,M,47.9,M,,*74",,,,
2022-03-14T17:26:27+01:00,294,18.58,27.34,1015.56,21.10,22.20,0,-127.00,"$GNGGA,162622.000,4900.2378,N,00824.2218,E,2,13,0.80,114.3,M,47.9,M,,*71",,,,
2022-03-14T17:26:56+01:00,295,18.78,26.66,1015.58,21.90,23.00,0,-127.00,"$GNGGA,162650.000,4900.2378,N,00824.2225,E,2,14,0.70,114.4,M,47.9,M,,*75",,,,
2022-03-14T17:27:21+01:00,296,19.04,26.42,1015.58,22.80,24.00,0,-127.00,"$GNGGA,162716.000,4900.2378,N,00824.2226,E,2,14,0.70,114.4,M,47.9,M,,*75",,,,
2022-03-14T17:27:55+01:00,297,19.30,26.34,1015.59,23.90,25.10,0,-127.00,"$GNGGA,162737.000,4900.2378,N,00824.2225,E,2,14,0.70,114.4,M,47.9,M,,*75",,,,
2022-03-14T17:28:15+01:00,298,19.58,25.70,1015.59,24.30,25.60,0,-127.00,"$GNGGA,162810.000,4900.2379,N,00824.2222,E,2,14,0.70,114.4,M,47.9,M,,*79",,,,
2022-03-14T17:28:36+01:00,299,19.87,25.15,1015.60,25.10,26.40,0,-127.00,"$GNGGA,162831.000,4900.2379,N,00824.2219,E,2,14,0.70,114.3,M,47.9,M,,*75",,,,
2022-03-14T17:29:03+01:00,300,20.04,24.87,1015.62,24.60,25.90,0,-127.00,"$GNGGA,162852.000,4900.2088,N,00824.1912,E,2,14,0.70,113.3,M,47.9,M,,*79",,,,
2022-03-14T17:29:55+01:00,301,20.45,25.66,1015.56,24.00,36.70,0,-127.00,"$GNGGA,162950.000,4859.9876,N,00824.1853,E,1,9,1.06,142.4,M,47.9,M,,*4D",,,,
2022-03-14T17:30:16+01:00,302,20.26,26.05,1015.56,20.10,21.20,0,-127.00,"$GNGGA,163011.000,4859.9664,N,00824.1928,E,1,8,1.29,139.3,M,47.9,M,,*47",,,,
2022-03-14T17:30:37+01:00,303,20.12,26.15,1015.58,20.50,21.60,0,-127.00,"$GNGGA,163032.000,4859.9171,N,00824.2175,E,1,10,1.01,115.9,M,47.9,M,,*71",,,,
2022-03-14T17:30:59+01:00,304,20.03,26.05,1015.57,21.80,22.90,0,-127.00,"$GNGGA,163054.000,4859.8368,N,00824.2526,E,1,9,1.04,106.3,M,47.9,M,,*4D",,,,
2022-03-14T17:31:20+01:00,305,19.86,26.11,1015.56,21.70,22.80,0,-127.00,"$GNGGA,163115.000,4859.7810,N,00824.1885,E,1,10,1.22,108.3,M,47.9,M,,*77",,,,
2022-03-14T17:31:41+01:00,306,19.70,26.64,1015.52,20.80,21.90,0,-127.00,"$GNGGA,163136.000,4859.7284,N,00824.1112,E,1,10,0.95,118.9,M,47.9,M,,*70",,,,
2022-03-14T17:35:37+01:00,307,19.58,28.17,1015.42,22.30,23.50,0,-127.00,"$GNGGA,163532.000,4859.5955,N,00823.7051,E,1,4,2.11,137.9,M,47.9,M,,*44",,,,
2022-03-14T17:36:02+01:00,308,19.36,28.19,1015.46,23.90,25.10,0,-127.00,"$GNGGA,163553.000,4859.5555,N,00823.6804,E,1,4,2.10,138.9,M,47.9,M,,*48",,,,
2022-03-14T17:36:23+01:00,309,19.10,28.92,1015.50,24.50,25.80,0,-127.00,"$GNGGA,163618.000,4859.4807,N,00823.5981,E,1,5,1.78,124.9,M,47.9,M,,*41",,,,
2022-03-14T17:36:44+01:00,310,18.89,29.73,1015.50,22.80,24.00,0,-127.00,"$GNGGA,163639.000,4859.4318,N,00823.5455,E,1,5,1.78,120.2,M,47.9,M,,*4C",,,,
2022-03-14T17:37:04+01:00,311,18.74,29.74,1015.42,21.70,22.80,0,-127.00,"$GNGGA,163659.000,4859.4141,N,00823.4738,E,1,5,1.78,124.9,M,47.9,M,,*42",,,,
2022-03-14T17:37:25+01:00,312,18.67,28.82,1015.29,21.90,23.00,0,-127.00,"$GNGGA,163720.000,4859.3906,N,00823.4029,E,1,7,1.54,121.9,M,47.9,M,,*4F",,,,
2022-03-14T17:37:46+01:00,313,18.59,28.31,1015.29,22.60,23.80,0,-127.00,"$GNGGA,163741.000,4859.3772,N,00823.3198,E,1,8,1.35,109.8,M,47.9,M,,*4A",,,,
2022-03-14T17:38:12+01:00,314,18.46,28.77,1015.37,23.60,24.80,0,-127.00,"$GNGGA,163807.000,4859.3982,N,00823.1873,E,1,8,1.32,109.2,M,47.9,M,,*45",,,,
2022-03-14T17:38:33+01:00,315,18.35,28.87,1015.42,23.40,24.60,0,-127.00,"$GNGGA,163828.000,4859.4256,N,00823.0958,E,1,8,1.34,114.8,M,47.9,M,,*44",,,,
2022-03-14T17:38:54+01:00,316,18.27,28.85,1015.45,23.30,24.50,0,-127.00,"$GNGGA,163849.000,4859.3864,N,00823.0575,E,1,8,1.34,119.1,M,47.9,M,,*48",,,,
2022-03-14T17:39:15+01:00,317,18.01,29.24,1015.47,23.30,24.50,0,-127.00,"$GNGGA,163910.000,4859.3441,N,00822.9886,E,1,8,1.32,119.8,M,47.9,M,,*48",,,,
2022-03-14T17:39:36+01:00,318,17.67,30.08,1015.46,23.30,24.50,0,-127.00,"$GNGGA,163931.000,4859.3121,N,00822.9023,E,1,8,1.33,121.9,M,47.9,M,,*44",,,,
2022-03-14T17:39:57+01:00,319,17.39,30.94,1015.44,22.50,23.70,0,-127.00,"$GNGGA,163952.000,4859.2711,N,00822.8532,E,1,8,1.33,117.7,M,47.9,M,,*4A",,,,
2022-03-14T17:40:17+01:00,320,17.25,31.09,1015.43,21.80,22.90,0,-127.00,"$GNGGA,164012.000,4859.2283,N,00822.8004,E,1,8,1.33,117.4,M,47.9,M,,*4D",,,,
2022-03-14T17:40:38+01:00,321,17.19,30.79,1015.46,21.30,22.40,0,-127.00,"$GNGGA,164033.000,4859.1674,N,00822.7534,E,1,8,1.31,114.0,M,47.9,M,,*4D",,,,
2022-03-14T17:41:00+01:00,322,17.17,30.22,1015.47,21.50,22.60,0,-127.00,"$GNGGA,164054.000,4859.1125,N,00822.6921,E,1,8,1.30,119.6,M,47.9,M,,*4C",,,,
2022-03-14T17:41:20+01:00,323,17.20,30.16,1015.46,21.90,23.00,0,-127.00,"$GNGGA,164115.000,4859.0776,N,00822.6172,E,1,8,1.32,117.1,M,47.9,M,,*4C",,,,
2022-03-14T17:41:41+01:00,324,17.20,30.50,1015.44,21.70,22.80,0,-127.00,"$GNGGA,164136.000,4859.0436,N,00822.5236,E,1,9,1.09,110.5,M,47.9,M,,*40",,,,
2022-03-14T17:42:04+01:00,325,17.22,30.58,1015.43,21.20,22.30,0,-127.00,"$GNGGA,164157.000,4858.9919,N,00822.4556,E,1,9,1.09,108.2,M,47.9,M,,*41",,,,
2022-03-14T17:42:24+01:00,326,17.31,30.45,1015.42,20.50,21.60,0,-127.00,"$GNGGA,164219.000,4858.9493,N,00822.4334,E,1,9,1.09,112.7,M,47.9,M,,*4B",,,,
2022-03-14T17:42:45+01:00,327,17.43,29.97,1015.42,20.10,21.20,0,-127.00,"$GNGGA,164240.000,4858.9148,N,00822.4348,E,1,10,1.01,112.8,M,47.9,M,,*70",,,,
2022-03-14T17:43:06+01:00,328,17.62,29.92,1015.42,20.70,21.80,0,-127.00,"$GNGGA,164301.000,4858.9150,N,00822.4344,E,1,11,0.97,112.2,M,47.9,M,,*74",,,,
2022-03-14T17:43:30+01:00,329,17.84,29.48,1015.43,21.60,22.70,0,-127.00,"$GNGGA,164325.000,4858.9151,N,00822.4347,E,1,14,0.72,111.9,M,47.9,M,,*76",,,,
2022-03-14T17:43:52+01:00,330,18.09,29.09,1015.45,22.80,24.00,0,-127.00,"$GNGGA,164347.000,4858.9152,N,00822.4348,E,1,12,0.83,111.8,M,47.9,M,,*77",,,,
2022-03-14T17:44:14+01:00,331,18.34,28.67,1015.45,22.70,23.90,0,-127.00,"$GNGGA,164408.000,4858.9152,N,00822.4349,E,1,14,0.74,111.9,M,47.9,M,,*75",,,,
2022-03-14T17:44:35+01:00,332,18.59,28.37,1015.46,22.00,23.20,0,-127.00,"$GNGGA,164430.000,4858.9152,N,00822.4353,E,1,15,0.72,111.9,M,47.9,M,,*72",,,,
2022-03-14T17:44:56+01:00,333,18.81,27.98,1015.46,21.00,22.10,0,-127.00,"$GNGGA,164451.000,4858.9152,N,00822.4360,E,1,14,0.73,112.0,M,47.9,M,,*7F",,,,
2022-03-14T17:45:17+01:00,334,19.00,27.65,1015.47,20.90,22.00,0,-127.00,"$GNGGA,164512.000,4858.9416,N,00822.4387,E,1,14,0.73,109.5,M,47.9,M,,*7A",,,,
2022-03-14T17:45:38+01:00,335,19.15,27.11,1015.48,21.10,22.20,0,-127.00,"$GNGGA,164533.000,4858.9514,N,00822.4221,E,1,14,0.74,105.4,M,47.9,M,,*7D",,,,
2022-03-14T17:45:59+01:00,336,19.26,27.01,1015.50,21.50,22.60,0,-127.00,"$GNGGA,164554.000,4858.9550,N,00822.3622,E,1,14,0.73,104.0,M,47.9,M,,*7E",,,,
2022-03-14T17:46:20+01:00,337,19.12,27.36,1015.49,21.90,23.00,0,-127.00,"$GNGGA,164615.000,4858.9492,N,00822.2914,E,1,13,0.80,106.9,M,47.9,M,,*7C",,,,
2022-03-14T17:46:41+01:00,338,19.10,27.73,1015.46,22.50,23.70,0,-127.00,"$GNGGA,164636.000,4858.9504,N,00822.2557,E,1,14,0.73,107.6,M,47.9,M,,*7D",,,,
2022-03-14T17:47:02+01:00,339,19.16,27.67,1015.46,23.10,24.30,0,-127.00,"$GNGGA,164657.000,4858.9502,N,00822.2557,E,1,14,0.76,107.3,M,47.9,M,,*7C",,,,
2022-03-14T17:47:23+01:00,340,19.26,27.49,1015.45,23.60,24.80,0,-127.00,"$GNGGA,164718.000,4858.9497,N,00822.2513,E,1,16,0.68,107.2,M,47.9,M,,*77",,,,
2022-03-14T17:47:44+01:00,341,19.35,27.32,1015.44,23.70,24.90,0,-127.00,"$GNGGA,164739.000,4858.9491,N,00822.2066,E,1,15,0.73,108.6,M,47.9,M,,*77",,,,
2022-03-14T17:48:05+01:00,342,19.36,27.25,1015.44,23.20,24.40,0,-127.00,"$GNGGA,164800.000,4858.9477,N,00822.1331,E,1,15,0.73,115.2,M,47.9,M,,*70",,,,
2022-03-14T17:48:26+01:00,343,19.39,27.21,1015.45,22.60,23.80,0,-127.00,"$GNGGA,164821.000,4858.9494,N,00822.0708,E,1,16,0.71,109.6,M,47.9,M,,*79",,,,
2022-03-14T17:48:48+01:00,344,19.43,27.15,1015.46,22.30,23.50,0,-127.00,"$GNGGA,164842.000,4858.9577,N,00822.0445,E,2,16,0.68,110.2,M,47.9,M,,*7D",,,,
2022-03-14T17:49:08+01:00,345,19.48,26.81,1015.46,23.00,24.20,0,-127.00,"$GNGGA,164903.000,4858.9406,N,00822.0330,E,2,15,0.77,107.5,M,47.9,M,,*77",,,,
2022-03-14T17:49:29+01:00,346,19.49,26.55,1015.47,23.00,24.20,0,-127.00,"$GNGGA,164924.000,4858.8975,N,00822.0224,E,2,15,0.77,115.1,M,47.9,M,,*79",,,,
2022-03-14T17:49:50+01:00,347,19.49,26.99,1015.49,22.70,23.90,0,-127.00,"$GNGGA,164945.000,4858.8648,N,00822.0268,E,2,16,0.71,124.7,M,47.9,M,,*76",,,,
2022-03-14T17:50:11+01:00,348,19.46,26.92,1015.50,22.10,23.30,0,-127.00,"$GNGGA,165006.000,4858.8261,N,00822.0255,E,2,16,0.71,119.2,M,47.9,M,,*73",,,,
2022-03-14T17:50:32+01:00,349,19.45,27.02,1015.51,22.20,23.40,0,-127.00,"$GNGGA,165027.000,4858.7855,N,00822.0187,E,2,16,0.71,117.0,M,47.9,M,,*72",,,,
2022-03-14T17:50:53+01:00,350,19.48,27.46,1015.49,22.50,23.70,0,-127.00,"$GNGGA,165048.000,4858.7878,N,00822.0200,E,2,16,0.69,123.1,M,47.9,M,,*77",,,,
2022-03-14T17:51:14+01:00,351,19.56,27.33,1015.50,21.80,22.90,0,-127.00,"$GNGGA,165109.000,4858.7922,N,00822.0209,E,2,16,0.69,122.3,M,47.9,M,,*77",,,,
2022-03-14T17:51:35+01:00,352,19.68,27.26,1015.51,23.10,24.30,0,-127.00,"$GNGGA,165130.000,4858.7901,N,00822.0185,E,2,16,0.73,120.6,M,47.9,M,,*77",,,,
2022-03-14T17:51:57+01:00,353,19.81,26.89,1015.53,24.50,25.80,0,-127.00,"$GNGGA,165151.000,4858.7892,N,00822.0182,E,2,17,0.74,121.3,M,47.9,M,,*7E",,,,
2022-03-14T17:52:18+01:00,354,19.95,26.62,1015.55,26.80,28.20,0,-127.00,"$GNGGA,165212.000,4858.7888,N,00822.0190,E,2,17,0.67,122.1,M,47.9,M,,*71",,,,
2022-03-14T17:52:39+01:00,355,20.10,26.31,1015.56,27.70,29.10,0,-127.00,"$GNGGA,165233.000,4858.7884,N,00822.0194,E,2,17,0.67,122.6,M,47.9,M,,*7D",,,,
2022-03-14T17:53:00+01:00,356,20.24,26.06,1015.56,28.40,29.90,0,-127.00,"$GNGGA,165254.000,4858.7882,N,00822.0200,E,2,17,0.67,122.7,M,47.9,M,,*75",,,,
2022-03-14T17:53:20+01:00,357,20.38,26.07,1015.56,27.70,29.10,0,-127.00,"$GNGGA,165315.000,4858.7881,N,00822.0207,E,2,16,0.70,124.1,M,47.9,M,,*72",,,,
2022-03-14T17:53:41+01:00,358,20.48,25.82,1015.56,25.70,27.00,0,-127.00,"$GNGGA,165336.000,4858.8170,N,00822.0277,E,2,17,0.70,125.4,M,47.9,M,,*79",,,,
2022-03-14T17:54:02+01:00,359,20.51,25.76,1015.56,24.20,25.50,0,-127.00,"$GNGGA,165357.000,4858.8752,N,00822.0277,E,2,16,0.72,123.9,M,47.9,M,,*70",,,,
2022-03-14T17:54:23+01:00,360,20.48,25.96,1015.55,23.90,25.10,0,-127.00,"$GNGGA,165418.000,4858.9278,N,00822.0291,E,2,17,0.70,124.4,M,47.9,M,,*71",,,,
2022-03-14T17:54:45+01:00,361,20.43,25.82,1015.55,25.20,26.50,0,-127.00,"$GNGGA,165439.000,4858.9564,N,00822.0581,E,2,16,0.73,118.6,M,47.9,M,,*71",,,,
2022-03-14T17:55:05+01:00,362,20.37,25.89,1015.56,25.30,26.60,0,-127.00,"$GNGGA,165500.000,4858.9457,N,00822.1278,E,2,16,0.74,119.7,M,47.9,M,,*7C",,,,
2022-03-14T17:55:27+01:00,363,20.31,25.91,1015.56,26.10,27.50,0,-127.00,"$GNGGA,165521.000,4858.9461,N,00822.2234,E,2,16,0.74,117.9,M,47.9,M,,*71",,,,
2022-03-14T17:55:48+01:00,364,20.27,25.95,1015.56,25.60,26.90,0,-127.00,"$GNGGA,165542.000,4858.9462,N,00822.3135,E,2,17,0.70,115.2,M,47.9,M,,*78",,,,
2022-03-14T17:56:45+01:00,365,19.34,28.13,1015.48,27.30,30.20,0,-127.00,"$GNGGA,165640.000,4858.9362,N,00822.4633,E,1,9,0.98,120.6,M,47.9,M,,*40",,,,
2022-03-14T17:57:06+01:00,366,19.17,28.05,1015.50,26.90,28.30,0,-127.00,"$GNGGA,165701.000,4858.9195,N,00822.5372,E,1,10,0.99,122.6,M,47.9,M,,*74",,,,
2022-03-14T17:57:26+01:00,367,19.07,27.79,1015.52,26.30,27.70,0,-127.00,"$GNGGA,165721.000,4858.9186,N,00822.5429,E,1,10,1.00,124.4,M,47.9,M,,*78",,,,
2022-03-14T17:57:46+01:00,368,19.01,27.98,1015.52,26.80,28.20,0,-127.00,"$GNGGA,165741.000,4858.9416,N,00822.4526,E,1,10,1.00,125.7,M,47.9,M,,*7F",,,,
2022-03-14T17:58:07+01:00,369,18.98,28.24,1015.52,25.60,26.90,0,-127.00,"$GNGGA,165802.000,4858.9687,N,00822.4529,E,1,8,1.24,125.9,M,47.9,M,,*43",,,,
2022-03-14T17:58:27+01:00,370,18.96,28.64,1015.53,25.40,26.70,0,-127.00,"$GNGGA,165822.000,4859.0170,N,00822.4898,E,1,9,1.11,126.6,M,47.9,M,,*4A",,,,
2022-03-14T17:58:48+01:00,371,18.94,28.44,1015.54,24.70,26.00,0,-127.00,"$GNGGA,165843.000,4859.0566,N,00822.5791,E,1,10,0.96,125.3,M,47.9,M,,*79",,,,
2022-03-14T17:59:11+01:00,372,18.90,28.39,1015.53,25.10,26.40,0,-127.00,"$GNGGA,165905.000,4859.0900,N,00822.6674,E,1,9,1.11,118.3,M,47.9,M,,*47",,,,
2022-03-14T17:59:34+01:00,373,18.88,28.18,1015.56,24.20,25.50,0,-127.00,"$GNGGA,165928.000,4859.1464,N,00822.7384,E,1,10,1.06,116.8,M,47.9,M,,*76",,,,
2022-03-14T17:59:55+01:00,374,18.89,28.25,1015.57,24.20,25.50,0,-127.00,"$GNGGA,165950.000,4859.1927,N,00822.7779,E,1,10,1.06,117.0,M,47.9,M,,*7C",,,,
2022-03-14T18:00:16+01:00,375,18.91,27.96,1015.56,24.40,25.70,0,-127.00,"$GNGGA,170011.000,4859.2424,N,00822.8236,E,1,9,1.18,118.0,M,47.9,M,,*40",,,,
2022-03-14T18:00:37+01:00,376,18.92,28.03,1015.54,24.50,25.80,0,-127.00,"$GNGGA,170032.000,4859.2900,N,00822.8774,E,1,8,1.34,119.4,M,47.9,M,,*43",,,,
2022-03-14T18:00:58+01:00,377,18.90,28.14,1015.54,25.10,26.40,0,-127.00,"$GNGGA,170053.000,4859.3283,N,00822.9505,E,1,10,1.03,117.0,M,47.9,M,,*77",,,,
2022-03-14T18:01:19+01:00,378,18.86,28.40,1015.54,24.20,25.50,0,-127.00,"$GNGGA,170114.000,4859.3637,N,00823.0314,E,1,9,1.18,117.2,M,47.9,M,,*40",,,,
2022-03-14T18:01:40+01:00,379,18.86,28.39,1015.59,115.00,120.80,0,-127.00,"$GNGGA,170135.000,4859.4129,N,00823.0790,E,1,9,1.14,114.6,M,47.9,M,,*4F",,,,
2022-03-14T18:02:02+01:00,380,18.88,28.40,1015.63,63.80,67.00,0,-127.00,"$GNGGA,170157.000,4859.4078,N,00823.1501,E,1,11,0.95,114.5,M,47.9,M,,*77",,,,
2022-03-14T18:02:23+01:00,381,18.91,28.11,1015.65,25.30,26.60,0,-127.00,"$GNGGA,170218.000,4859.3782,N,00823.2402,E,1,11,0.95,110.9,M,47.9,M,,*73",,,,
2022-03-14T18:02:44+01:00,382,18.93,27.83,1015.52,24.60,25.90,0,-127.00,"$GNGGA,170239.000,4859.3772,N,00823.3539,E,1,11,0.95,112.9,M,47.9,M,,*75",,,,
2022-03-14T18:03:05+01:00,383,18.98,27.35,1015.41,24.90,26.20,0,-127.00,"$GNGGA,170300.000,4859.3965,N,00823.4238,E,1,11,0.95,115.2,M,47.9,M,,*7B",,,,
2022-03-14T18:03:26+01:00,384,19.04,27.62,1015.46,24.10,25.40,0,-127.00,"$GNGGA,170321.000,4859.4247,N,00823.5007,E,1,12,0.89,110.3,M,47.9,M,,*71",,,,
2022-03-14T18:03:47+01:00,385,19.12,28.08,1015.52,46.70,49.10,0,-127.00,"$GNGGA,170342.000,4859.4300,N,00823.5376,E,1,12,0.88,109.4,M,47.9,M,,*7D",,,,
2022-03-14T18:04:09+01:00,386,19.22,27.97,1015.60,40.60,42.70,0,-127.00,"$GNGGA,170403.000,4859.4240,N,00823.5436,E,1,12,0.98,109.3,M,47.9,M,,*7F",,,,
2022-03-14T18:04:30+01:00,387,19.26,28.37,1015.63,35.90,37.70,0,-127.00,"$GNGGA,170424.000,4859.3757,N,00823.6018,E,1,13,0.87,108.1,M,47.9,M,,*79",,,,
2022-03-14T18:04:50+01:00,388,19.24,27.80,1015.47,27.90,29.30,0,-127.00,"$GNGGA,170445.000,4859.3718,N,00823.6903,E,1,13,0.87,113.4,M,47.9,M,,*79",,,,
2022-03-14T18:05:11+01:00,389,19.23,27.11,1015.28,25.70,27.00,0,-127.00,"$GNGGA,170506.000,4859.3589,N,00823.7320,E,1,12,0.95,115.3,M,47.9,M,,*7C",,,,
2022-03-14T18:05:32+01:00,390,19.25,26.79,1015.13,41.20,43.30,0,-127.00,"$GNGGA,170527.000,4859.3347,N,00823.7510,E,1,15,0.69,113.5,M,47.9,M,,*7A",,,,
2022-03-14T18:05:53+01:00,391,19.29,26.82,1015.03,30.80,32.40,0,-127.00,"$GNGGA,170548.000,4859.3243,N,00823.7534,E,1,15,0.69,110.9,M,47.9,M,,*7F",,,,
2022-03-14T18:06:15+01:00,392,19.29,26.59,1014.96,58.50,61.50,0,-127.00,"$GNGGA,170609.000,4859.3589,N,00823.7348,E,1,14,0.73,110.6,M,47.9,M,,*70",,,,
2022-03-14T18:06:35+01:00,393,19.31,26.75,1015.03,31.70,33.30,0,-127.00,"$GNGGA,170630.000,4859.3808,N,00823.7824,E,1,15,0.69,107.0,M,47.9,M,,*75",,,,
2022-03-14T18:06:56+01:00,394,19.28,27.48,1015.21,29.70,31.20,0,-127.00,"$GNGGA,170651.000,4859.4086,N,00823.8890,E,1,15,0.69,101.9,M,47.9,M,,*74",,,,
2022-03-14T18:07:18+01:00,395,19.26,28.08,1015.34,24.50,25.80,0,-127.00,"$GNGGA,170712.000,4859.4365,N,00823.9466,E,1,15,0.69,103.5,M,47.9,M,,*76",,,,
2022-03-14T18:08:58+01:00,396,19.30,28.22,1015.10,31.80,59.30,0,-127.00,"$GNGGA,170853.000,4859.5275,N,00824.2297,E,1,7,1.20,150.9,M,47.9,M,,*4C",,,,
2022-03-14T18:09:19+01:00,397,19.15,28.24,1015.11,26.50,27.90,0,-127.00,"$GNGGA,170914.000,4859.5274,N,00824.2277,E,1,8,1.14,135.0,M,47.9,M,,*43",,,,
