
SmartAQnet Scooter Sensors!
Initializing A9G...
Resp:

+CREG: 2

^STN: 37
+CTZV:22/01/14,14:25:43,+01
+CIEV: "Complete the Charge",100%


+CREG: 1

A9/A9G
V02.02.20190915R
Ai_Thinker_Co._Ltd.
READY
----
Init Ready Done!
Resp:

----
Resp:
AT

OK
----
key : Error_No_0 value: 29

Reading NVS done...
Resp:
AT+CPIN?

+CPIN:READY
----
Msg: SIM PIN is ready!
Resp:
AT+CREG=1

OK
----
Msg: Netwoek Set!
Resp:
AT+CREG?

+CREG: 1
----
Msg: Network Registered!
Resp:
AT+GPS=1

OK
----
Msg: GPS Set!
Resp:
AT+CGATT=1

+CGATT:1

OK
----
Msg: PS Attached!
Resp:
AT+CGDCONT?

OK
----
Msg: Context Set!
Resp:
AT+CGDCONT=1,"IP","pinternet.interkom.de"

OK
----
Msg: Context Changed!
Resp:
AT+CGACT=1,1

OK
----
Msg: Context Selected!
Resp:
AT+CGACT?

+CGACT: 1, 1
----
Msg: Context is Correct!
Resp:
AT+CIPSTATUS
+CIPSTATUS:
STATE:IP INITIAL
----
Msg: Status INITIAL!
Resp:
AT+CIPSTART="TCP","api.thingspeak.com",80
CONNECT OK
----
Msg: Connected!
Resp:
AT+GPSRD=5

OK
----
Msg: GPS Read Set!
Msg: Getting data from GPS using AT Cmd
Resp:
$GNGGA,142600.000,4900.5297,N,00825.4407,E,0,3,,66.1,M,47.9,M,,*68
$GPGSA,A,1,19,06,02,,,,,,,,,,,,*12
$BDGSA,A,1,,,,,,,,,,,,,,,*0F
$GPGSV,3,1,09,12,75,260,,25,36,253,,19,32,051,33,06,16,086,25*74
$GPGSV,3,2,09,17,13,038,20,15,11,179,,02,08,128,23,11,04,123,*73
$GPGSV,3,3,09,29,01,197,*45
$BDGSV,1,1,00*68
$GNRMC,142600.000,V,4900.5297,N,00825.4407,E,1.576,214.96,140122,,,N*5C
$GNVTG,214.96,T,,M,1.576,N,2.919,K,N*22
---
Msg: Getting data from GPS using AT done
Resp:
AT+GPSRD=0

OK
----
Msg: GPS Read Off!
Msg: Getting data from Sensors
Resp:
AT+CIPSEND

>
----
Msg: Send Started!
Resp:
GET https://api.thingspeak.com/update?api_key=AYKVFH212TKGNW2B&field1=32.59&field2=19.25&field3=1019.87&field4=482.10&field5=506.30&field6=0&field7=0&field8=$GNGGA,142600.000,4900.5297,N,00825.4407,E,0,3,,66.1,M,47.9,M,,*68

----
Resp:

OK



+CIPRCV,1:1
CLOSED
----
Msg: Send Completed!
Resp:
AT+CIPSTATUS
+CIPSTATUS:
STATE:CLOSED
----
Resp:
AT+CIPSTART="TCP","api.thingspeak.com",80
CONNECT OK
----
Msg: Connected!
Resp:
AT+GPSRD=5

OK
----
Msg: GPS Read Set!
Msg: Getting data from GPS using AT Cmd
Resp:
$GNGGA,142620.000,4900.5211,N,00825.4397,E,1,4,4.55,115.4,M,47.9,M,,*46
$GPGSA,A,3,19,06,02,17,,,,,,,,,4.65,4.55,0.97*05
$BDGSA,A,3,,,,,,,,,,,,,4.65,4.55,0.97*1E
$GPGSV,3,1,09,12,75,260,,25,36,253,,19,32,051,31,06,16,086,23*70
$GPGSV,3,2,09,17,13,037,19,15,10,179,,02,08,128,23,11,04,122,*76
$GPGSV,3,3,09,29,01,197,*45
$BDGSV,1,1,00*68
$GNRMC,142620.000,A,4900.5211,N,00825.4397,E,3.822,259.26,140122,,,A*4A
$GNVTG,259.26,T,,M,3.822,N,7.081,K,A*2C
---
Msg: Getting data from GPS using AT done
Resp:
AT+GPSRD=0

OK
----
Msg: GPS Read Off!
Msg: Getting data from Sensors
Resp:
AT+CIPSEND

>
----
Msg: Send Started!
Resp:
GET https://api.thingspeak.com/update?api_key=AYKVFH212TKGNW2B&field1=32.37&field2=19.60&field3=1019.87&field4=415.50&field5=436.30&field6=0&field7=0&field8=$GNGGA,142620.000,4900.5211,N,00825.4397,E,1,4,4.55,115.4,M,47.9,M,,*46

----
Resp:

OK

+CIPRCV,1:2


CLOSED
----
Msg: Send Completed!
Resp:
AT+CIPSTATUS
+CIPSTATUS:
STATE:CLOSED
----
Resp:
AT+CIPSTART="TCP","api.thingspeak.com",80
CONNECT OK
----
Msg: Connected!
Resp:
AT+GPSRD=5

OK
----
Msg: GPS Read Set!
Msg: Getting data from GPS using AT Cmd
Resp:
$GNGGA,142640.000,4900.5228,N,00825.4627,E,1,4,4.55,119.3,M,47.9,M,,*4F
$GPGSA,A,3,19,06,02,17,,,,,,,,,4.66,4.55,0.97*06
$BDGSA,A,3,,,,,,,,,,,,,4.66,4.55,0.97*1D
$GPGSV,3,1,10,12,75,260,,25,36,253,,19,32,051,31,37,32,162,*76
$GPGSV,3,2,10,06,16,086,22,17,13,037,19,15,10,179,,02,08,128,25*72
$GPGSV,3,3,10,11,04,122,,29,01,197,*78
$BDGSV,1,1,01,11,,,30*6A
$GNRMC,142640.000,A,4900.5228,N,00825.4627,E,1.108,57.85,140122,,,A*7E
$GNVTG,57.85,T,,M,1.108,N,2.053,K,A*10
---
Msg: Getting data from GPS using AT done
Resp:
AT+GPSRD=0

OK
----
Msg: GPS Read Off!
Msg: Getting data from Sensors
Resp:
AT+CIPSEND

>
----
Msg: Send Started!
Resp:
GET https://api.thingspeak.com/update?api_key=AYKVFH212TKGNW2B&field1=32.27&field2=19.48&field3=1019.88&field4=361.90&field5=380.00&field6=0&field7=0&field8=$GNGGA,142640.000,4900.5228,N,00825.4627,E,1,4,4.55,119.3,M,47.9,M,,*4F

----
Resp:

OK



+CIPRCV,1:3
CLOSED
----
Msg: Send Completed!
Resp:
AT+CIPSTATUS
+CIPSTATUS:
STATE:CLOSED
----
Resp:
AT+CIPSTART="TCP","api.thingspeak.com",80
CONNECT OK
----
Msg: Connected!
Resp:
AT+GPSRD=5

OK
----
Msg: GPS Read Set!
Msg: Getting data from GPS using AT Cmd
Resp:
$GNGGA,142701.000,4900.5200,N,00825.4595,E,1,4,4.56,122.5,M,47.9,M,,*46
$GPGSA,A,3,19,06,02,17,,,,,,,,,4.67,4.56,0.97*04
$BDGSA,A,3,,,,,,,,,,,,,4.67,4.56,0.97*1F
$GPGSV,3,1,10,12,75,260,,25,36,253,,19,32,051,32,39,31,158,25*76
$GPGSV,3,2,10,06,16,086,25,17,13,037,20,15,10,179,,02,08,128,24*7E
$GPGSV,3,3,10,11,04,122,,29,01,197,*78
$BDGSV,1,1,01,11,,,27*6C
$GNRMC,142701.000,A,4900.5200,N,00825.4595,E,2.458,258.89,140122,,,A*48
$GNVTG,258.89,T,,M,2.458,N,4.554,K,A*26
---
Msg: Getting data from GPS using AT done
Resp:
AT+GPSRD=0

OK
----
Msg: GPS Read Off!
Msg: Getting data from Sensors
Resp:
AT+CIPSEND

>
----
Msg: Send Started!
Resp:
GET https://api.thingspeak.com/update?api_key=AYKVFH212TKGNW2B&field1=32.25&field2=19.30&field3=1019.89&field4=340.50&field5=357.60&field6=0&field7=0&field8=$GNGGA,142701.000,4900.5200,N,00825.4595,E,1,4,4.56,122.5,M,47.9,M,,*46

----
Resp:

OK



+CIPRCV,1:4
CLOSED
----
Msg: Send Completed!
Resp:
AT+CIPSTATUS
+CIPSTATUS:
STATE:CLOSED
----
Resp:
AT+CIPSTART="TCP","api.thingspeak.com",80
CONNECT OK
----
Msg: Connected!
Resp:
AT+GPSRD=5

OK
----
Msg: GPS Read Set!
Msg: Getting data from GPS using AT Cmd
Resp:
$GNGGA,142721.000,4900.5212,N,00825.4528,E,1,5,3.42,124.4,M,47.9,M,,*45
$GPGSA,A,3,19,06,02,17,,,,,,,,,3.55,3.42,0.94*03
$BDGSA,A,3,11,,,,,,,,,,,,3.55,3.42,0.94*18
$GPGSV,3,1,12,12,75,260,,25,36,253,,19,32,051,29,32,28,311,15*71
$GPGSV,3,2,12,06,16,085,24,17,13,037,17,40,13,117,,15,10,179,*7C
$GPGSV,3,3,12,02,09,128,21,10,06,266,,11,04,122,,29,01,197,*7C
$BDGSV,1,1,01,11,39,131,24*56
$GNRMC,142721.000,A,4900.5212,N,00825.4528,E,1.205,20.28,140122,,,A*74
$GNVTG,20.28,T,,M,1.205,N,2.232,K,A*1C
---
Msg: Getting data from GPS using AT done
Resp:
AT+GPSRD=0

OK
----
Msg: GPS Read Off!
Msg: Getting data from Sensors
Resp:
AT+CIPSEND

>
----
Msg: Send Started!
Resp:
GET https://api.thingspeak.com/update?api_key=AYKVFH212TKGNW2B&field1=32.28&field2=19.12&field3=1019.88&field4=350.00&field5=367.60&field6=0&field7=0&field8=$GNGGA,142721.000,4900.5212,N,00825.4528,E,1,5,3.42,124.4,M,47.9,M,,*45

----
Resp:

OK



+CIPRCV,1:5
CLOSED
----
Msg: Send Completed!
Resp:
AT+CIPSTATUS
+CIPSTATUS:
STATE:CLOSED
----
Resp:
AT+CIPSTART="TCP","api.thingspeak.com",80
CONNECT OK
----
Msg: Connected!
Resp:
AT+GPSRD=5

OK
----
Msg: GPS Read Set!
Msg: Getting data from GPS using AT Cmd
Resp:
$GNGGA,142741.000,4900.5214,N,00825.4550,E,1,5,3.85,124.9,M,47.9,M,,*4C
$GPGSA,A,3,19,06,02,17,,,,,,,,,4.76,3.85,2.80*09
$BDGSA,A,3,11,,,,,,,,,,,,4.76,3.85,2.80*12
$GPGSV,3,1,12,12,75,261,,25,37,254,,19,32,050,30,37,32,162,*73
$GPGSV,3,2,12,32,28,311,15,06,16,085,24,17,13,037,16,15,10,179,*70
$GPGSV,3,3,12,02,09,128,23,10,06,266,,11,04,122,,29,01,197,*7E
$BDGSV,1,1,01,11,39,131,24*56
$GNRMC,142741.000,A,4900.5214,N,00825.4550,E,0.512,82.53,140122,,,A*7F
$GNVTG,82.53,T,,M,0.512,N,0.949,K,A*1D
---
Msg: Getting data from GPS using AT done
Resp:
AT+GPSRD=0

OK
----
Msg: GPS Read Off!
Msg: Getting data from Sensors
Resp:
AT+CIPSEND

>
----
Msg: Send Started!
Resp:
GET https://api.thingspeak.com/update?api_key=AYKVFH212TKGNW2B&field1=32.33&field2=18.98&field3=1019.87&field4=354.50&field5=372.30&field6=0&field7=0&field8=$GNGGA,142741.000,4900.5214,N,00825.4550,E,1,5,3.85,124.9,M,47.9,M,,*4C

----
Resp:

OK



+CIPRCV,1:6
CLOSED
----
Msg: Send Completed!
Resp:
AT+CIPSTATUS
+CIPSTATUS:
STATE:CLOSED
----
Resp:
AT+CIPSTART="TCP","api.thingspeak.com",80
CONNECT OK
----
Msg: Connected!
Resp:
AT+GPSRD=5

OK
----
Msg: GPS Read Set!
Msg: Getting data from GPS using AT Cmd
Resp:
$GNGGA,142802.000,4900.5183,N,00825.4537,E,1,5,3.42,124.7,M,47.9,M,,*4D
$GPGSA,A,3,19,06,02,17,,,,,,,,,3.55,3.42,0.94*03
$BDGSA,A,3,11,,,,,,,,,,,,3.55,3.42,0.94*18
$GPGSV,3,1,11,12,75,261,,25,37,254,,19,32,050,29,32,28,310,17*77
$GPGSV,3,2,11,06,16,085,26,17,13,037,15,40,13,117,,15,10,179,*7F
$GPGSV,3,3,11,02,09,128,23,10,06,266,,29,02,197,*4B
$BDGSV,1,1,01,11,39,131,23*51
$GNRMC,142802.000,A,4900.5183,N,00825.4537,E,0.330,178.05,140122,,,A*4A
$GNVTG,178.05,T,,M,0.330,N,0.611,K,A*2E
---
Msg: Getting data from GPS using AT done
Resp:
AT+GPSRD=0

OK
----
Msg: GPS Read Off!
Msg: Getting data from Sensors
Resp:
AT+CIPSEND

>
----
Msg: Send Started!
Resp:
GET https://api.thingspeak.com/update?api_key=AYKVFH212TKGNW2B&field1=32.39&field2=18.88&field3=1019.88&field4=350.80&field5=368.40&field6=0&field7=0&field8=$GNGGA,142802.000,4900.5183,N,00825.4537,E,1,5,3.42,124.7,M,47.9,M,,*4D

----
Resp:

OK

+CIPRCV,1:7


CLOSED
----
Msg: Send Completed!
Resp:
AT+CIPSTATUS
+CIPSTATUS:
STATE:CLOSED
----
Resp:
AT+CIPSTART="TCP","api.thingspeak.com",80
CONNECT OK
----
Msg: Connected!
Resp:
AT+GPSRD=5

OK
----
Msg: GPS Read Set!
Msg: Getting data from GPS using AT Cmd
Resp:
$GNGGA,142822.000,4900.5181,N,00825.4482,E,1,5,3.42,123.7,M,47.9,M,,*45
$GPGSA,A,3,19,06,02,17,,,,,,,,,3.55,3.42,0.94*03
$BDGSA,A,3,11,,,,,,,,,,,,3.55,3.42,0.94*18
$GPGSV,3,1,11,12,75,261,,25,37,254,,19,32,050,26,32,28,310,14*7B
$GPGSV,3,2,11,06,16,085,26,17,13,037,13,15,10,179,,02,09,128,22*78
$GPGSV,3,3,11,10,06,266,,29,02,197,,34,,,*7D
$BDGSV,1,1,01,11,39,131,26*54
$GNRMC,142822.000,A,4900.5181,N,00825.4482,E,0.503,309.34,140122,,,A*45
$GNVTG,309.34,T,,M,0.503,N,0.932,K,A*20
---
Msg: Getting data from GPS using AT done
Resp:
AT+GPSRD=0

OK
----
Msg: GPS Read Off!
Msg: Getting data from Sensors
Resp:
AT+CIPSEND

>
----
Msg: Send Started!
Resp:
GET https://api.thingspeak.com/update?api_key=AYKVFH212TKGNW2B&field1=32.45&field2=18.83&field3=1019.88&field4=354.30&field5=372.10&field6=0&field7=0&field8=$GNGGA,142822.000,4900.5181,N,00825.4482,E,1,5,3.42,123.7,M,47.9,M,,*45

----
Resp:

OK



+CIPRCV,1:8
CLOSED
----
Msg: Send Completed!
Resp:
AT+CIPSTATUS
+CIPSTATUS:
STATE:CLOSED
----
Resp:
AT+CIPSTART="TCP","api.thingspeak.com",80
CONNECT OK
----
Msg: Connected!
Resp:
AT+GPSRD=5

OK
----
Msg: GPS Read Set!
Msg: Getting data from GPS using AT Cmd
Resp:
$GNGGA,142842.000,4900.5239,N,00825.4458,E,1,5,3.43,122.7,M,47.9,M,,*44
$GPGSA,A,3,19,06,02,17,,,,,,,,,3.56,3.43,0.94*01
$BDGSA,A,3,11,,,,,,,,,,,,3.56,3.43,0.94*1A
$GPGSV,3,1,11,12,75,261,,25,37,254,,19,32,050,20,32,28,310,13*7A
$GPGSV,3,2,11,06,17,085,23,17,13,037,17,15,10,179,,02,09,128,25*7F
$GPGSV,3,3,11,10,06,266,,29,02,197,,38,,,*71
$BDGSV,1,1,01,11,39,131,30*53
$GNRMC,142842.000,A,4900.5239,N,00825.4458,E,1.189,291.86,140122,,,A*4A
$GNVTG,291.86,T,,M,1.189,N,2.204,K,A*22
---
Msg: Getting data from GPS using AT done
Resp:
AT+GPSRD=0

OK
----
Msg: GPS Read Off!
Msg: Getting data from Sensors
Resp:
AT+CIPSEND

>
----
Msg: Send Started!
Resp:
GET https://api.thingspeak.com/update?api_key=AYKVFH212TKGNW2B&field1=32.52&field2=18.77&field3=1019.88&field4=349.50&field5=367.00&field6=0&field7=0&field8=$GNGGA,142842.000,4900.5239,N,00825.4458,E,1,5,3.43,122.7,M,47.9,M,,*44

----
Resp:

OK



+CIPRCV,1:9
CLOSED
----
Msg: Send Completed!
Resp:
AT+CIPSTATUS
+CIPSTATUS:
STATE:CLOSED
----
Resp:
AT+CIPSTART="TCP","api.thingspeak.com",80
CONNECT OK
----
Msg: Connected!
Resp:
AT+GPSRD=5

OK
----
Msg: GPS Read Set!
Msg: Getting data from GPS using AT Cmd
Resp:
$GNGGA,142903.000,4900.5240,N,00825.4446,E,1,5,3.43,119.4,M,47.9,M,,*4A
$GPGSA,A,3,19,06,02,17,,,,,,,,,3.56,3.43,0.94*01
$BDGSA,A,3,11,,,,,,,,,,,,3.56,3.43,0.94*1A
$GPGSV,3,1,11,12,76,262,,25,37,254,,19,31,050,25,32,28,310,*7E
$GPGSV,3,2,11,06,17,085,24,17,12,037,13,02,09,128,24,15,09,179,*74
$GPGSV,3,3,11,10,06,266,,29,02,197,,45,,,*7B
$BDGSV,1,1,02,11,39,131,27,10,12,061,17*65
$GNRMC,142903.000,A,4900.5240,N,00825.4446,E,0.859,119.90,140122,,,A*4E
$GNVTG,119.90,T,,M,0.859,N,1.592,K,A*28
---
Msg: Getting data from GPS using AT done
Resp:
AT+GPSRD=0

OK
----
Msg: GPS Read Off!
Msg: Getting data from Sensors
Resp:
AT+CIPSEND

>
----
Msg: Send Started!
Resp:
GET https://api.thingspeak.com/update?api_key=AYKVFH212TKGNW2B&field1=32.57&field2=18.70&field3=1019.88&field4=351.10&field5=368.70&field6=0&field7=0&field8=$GNGGA,142903.000,4900.5240,N,00825.4446,E,1,5,3.43,119.4,M,47.9,M,,*4A

----
Resp:

OK



+CIPRCV,2:10
CLOSED
----
Msg: Send Completed!
Resp:
AT+CIPSTATUS
+CIPSTATUS:
STATE:CLOSED
----
Resp:
AT+CIPSTART="TCP","api.thingspeak.com",80
CONNECT OK
----
Msg: Connected!
Resp:
AT+GPSRD=5

OK
----
Msg: GPS Read Set!
Msg: Getting data from GPS using AT Cmd
Resp:
$GNGGA,142923.000,4900.5250,N,00825.4450,E,1,5,3.43,118.1,M,47.9,M,,*4A
$GPGSA,A,3,19,06,02,17,,,,,,,,,3.56,3.43,0.94*01
$BDGSA,A,3,11,,,,,,,,,,,,3.56,3.43,0.94*1A
$GPGSV,3,1,11,12,76,262,17,25,37,254,,19,31,050,25,32,29,310,*79
$GPGSV,3,2,11,06,17,085,26,17,12,037,10,02,09,128,24,15,09,179,*75
$GPGSV,3,3,11,10,06,266,,29,02,197,,49,,,*77
$BDGSV,1,1,02,11,40,130,24,10,12,061,17*69
$GNRMC,142923.000,A,4900.5250,N,00825.4450,E,0.965,300.84,140122,,,A*4B
$GNVTG,300.84,T,,M,0.965,N,1.789,K,A*21
---
Msg: Getting data from GPS using AT done
Resp:
AT+GPSRD=0

OK
----
Msg: GPS Read Off!
Msg: Getting data from Sensors
Resp:
AT+CIPSEND

>
----
Msg: Send Started!
Resp:
GET https://api.thingspeak.com/update?api_key=AYKVFH212TKGNW2B&field1=32.63&field2=18.67&field3=1019.87&field4=357.20&field5=375.10&field6=0&field7=0&field8=$GNGGA,142923.000,4900.5250,N,00825.4450,E,1,5,3.43,118.1,M,47.9,M,,*4A

----
Resp:

OK



+CIPRCV,2:11
CLOSED
----
Msg: Send Completed!
Resp:
AT+CIPSTATUS
+CIPSTATUS:
STATE:CLOSED
----
Resp:
AT+CIPSTART="TCP","api.thingspeak.com",80
CONNECT OK
----
Msg: Connected!
Resp:
AT+GPSRD=5

OK
----
Msg: GPS Read Set!
Msg: Getting data from GPS using AT Cmd
Resp:
$GNGGA,142943.000,4900.5232,N,00825.4333,E,1,5,3.44,116.8,M,47.9,M,,*4A
$GPGSA,A,3,19,06,02,17,,,,,,,,,3.56,3.44,0.94*06
$BDGSA,A,3,11,,,,,,,,,,,,3.56,3.44,0.94*1D
$GPGSV,3,1,12,12,76,262,18,25,37,254,,19,31,050,27,32,29,310,*77
$GPGSV,3,2,12,33,29,210,,06,17,085,26,17,12,037,13,02,09,128,26*7D
$GPGSV,3,3,12,15,09,179,,10,06,266,,29,02,197,,24,,,28*47
$BDGSV,1,1,02,11,40,130,29,10,12,061,18*6B
$GNRMC,142943.000,A,4900.5232,N,00825.4333,E,1.224,271.28,140122,,,A*45
$GNVTG,271.28,T,,M,1.224,N,2.269,K,A*27
---
Msg: Getting data from GPS using AT done
Resp:
AT+GPSRD=0

OK
----
Msg: GPS Read Off!
Msg: Getting data from Sensors
Resp:
AT+CIPSEND

>
----
Msg: Send Started!
Resp:
GET https://api.thingspeak.com/update?api_key=AYKVFH212TKGNW2B&field1=32.68&field2=18.69&field3=1019.87&field4=371.50&field5=390.10&field6=0&field7=0&field8=$GNGGA,142943.000,4900.5232,N,00825.4333,E,1,5,3.44,116.8,M,47.9,M,,*4A

----
Resp:

OK



+CIPRCV,2:12
CLOSED
----
Msg: Send Completed!
Resp:
AT+CIPSTATUS
+CIPSTATUS:
STATE:CLOSED
----
Resp:
AT+CIPSTART="TCP","api.thingspeak.com",80
CONNECT OK
----
Msg: Connected!
Resp:
AT+GPSRD=5

OK
----
Msg: GPS Read Set!
Msg: Getting data from GPS using AT Cmd
Resp:
$GNGGA,143004.000,4900.5225,N,00825.4363,E,1,5,3.44,116.6,M,47.9,M,,*4C
$GPGSA,A,3,19,06,02,17,,,,,,,,,3.56,3.44,0.94*06
$BDGSA,A,3,11,,,,,,,,,,,,3.56,3.44,0.94*1D
$GPGSV,3,1,12,12,76,264,16,25,37,254,,19,31,050,26,32,29,310,*7E
$GPGSV,3,2,12,06,17,084,26,17,12,037,17,44,12,116,,02,10,127,25*71
$GPGSV,3,3,12,15,09,179,,10,05,265,,29,02,197,,24,,,24*4B
$BDGSV,1,1,03,11,40,130,28,12,36,062,24,10,12,061,14*53
$GNRMC,143004.000,A,4900.5225,N,00825.4363,E,0.419,112.57,140122,,,A*4A
$GNVTG,112.57,T,,M,0.419,N,0.776,K,A*29
---
Msg: Getting data from GPS using AT done
Resp:
AT+GPSRD=0

OK
----
Msg: GPS Read Off!
Msg: Getting data from Sensors
Resp:
AT+CIPSEND

>
----
Msg: Send Started!
Resp:
GET https://api.thingspeak.com/update?api_key=AYKVFH212TKGNW2B&field1=32.72&field2=18.67&field3=1019.86&field4=367.40&field5=385.80&field6=0&field7=0&field8=$GNGGA,143004.000,4900.5225,N,00825.4363,E,1,5,3.44,116.6,M,47.9,M,,*4C

----
Resp:

OK



+CIPRCV,2:13
CLOSED
----
Msg: Send Completed!
Resp:
AT+CIPSTATUS
+CIPSTATUS:
STATE:CLOSED
----
Resp:
AT+CIPSTART="TCP","api.thingspeak.com",80
CONNECT OK
----
Msg: Connected!
Resp:
AT+GPSRD=5

OK
----
Msg: GPS Read Set!
Msg: Getting data from GPS using AT Cmd
Resp:
$GNGGA,143025.000,4900.5221,N,00825.4288,E,1,5,3.44,116.3,M,47.9,M,,*4A
$GPGSA,A,3,19,06,02,17,,,,,,,,,3.57,3.44,0.94*07
$BDGSA,A,3,11,,,,,,,,,,,,3.57,3.44,0.94*1C
$GPGSV,3,1,12,12,76,264,12,25,38,255,,19,31,049,27,32,29,310,*7D
$GPGSV,3,2,12,06,17,084,28,17,12,037,17,02,10,127,24,15,09,179,*79
$GPGSV,3,3,12,10,05,265,,29,03,197,,36,,,,24,,,16*7C
$BDGSV,1,1,04,11,40,130,27,12,36,062,23,10,12,061,17,13,05,089,25*6E
$GNRMC,143025.000,A,4900.5221,N,00825.4288,E,0.650,214.18,140122,,,A*48
$GNVTG,214.18,T,,M,0.650,N,1.205,K,A*28
---
Msg: Getting data from GPS using AT done
Resp:
AT+GPSRD=0

OK
----
Msg: GPS Read Off!
Msg: Getting data from Sensors
Resp:
AT+CIPSEND

>
----
Msg: Send Started!
Resp:
GET https://api.thingspeak.com/update?api_key=AYKVFH212TKGNW2B&field1=32.77&field2=18.66&field3=1019.86&field4=353.30&field5=371.00&field6=0&field7=0&field8=$GNGGA,143025.000,4900.5221,N,00825.4288,E,1,5,3.44,116.3,M,47.9,M,,*4A

----
Resp:

OK



+CIPRCV,2:14
CLOSED
----
Msg: Send Completed!
Resp:
AT+CIPSTATUS
+CIPSTATUS:
STATE:CLOSED
----
Resp:
AT+CIPSTART="TCP","api.thingspeak.com",80
CONNECT OK
----
Msg: Connected!
Resp:
AT+GPSRD=5

OK
----
Msg: GPS Read Set!
Msg: Getting data from GPS using AT Cmd
Resp:
$GNGGA,143045.000,4900.5221,N,00825.4268,E,1,5,3.44,115.4,M,47.9,M,,*46
$GPGSA,A,3,19,06,02,17,,,,,,,,,3.57,3.44,0.94*07
$BDGSA,A,3,11,,,,,,,,,,,,3.57,3.44,0.94*1C
$GPGSV,3,1,12,12,76,264,14,25,38,255,,19,31,049,27,32,29,310,*7B
$GPGSV,3,2,12,06,17,084,28,17,12,037,17,02,10,127,25,15,09,179,*78
$GPGSV,3,3,12,10,05,265,,29,03,197,,43,,,,24,,,23*78
$BDGSV,1,1,04,11,40,130,28,12,36,062,22,10,11,061,16,13,05,089,25*62
$GNRMC,143045.000,A,4900.5221,N,00825.4268,E,4.396,97.07,140122,,,A*7C
$GNVTG,97.07,T,,M,4.396,N,8.147,K,A*18
---
Msg: Getting data from GPS using AT done
Resp:
AT+GPSRD=0

OK
----
Msg: GPS Read Off!
Msg: Getting data from Sensors
Resp:
AT+CIPSEND

>
----
Msg: Send Started!
Resp:
GET https://api.thingspeak.com/update?api_key=AYKVFH212TKGNW2B&field1=32.80&field2=18.64&field3=1019.85&field4=347.10&field5=364.50&field6=0&field7=0&field8=$GNGGA,143045.000,4900.5221,N,00825.4268,E,1,5,3.44,115.4,M,47.9,M,,*46

----
Resp:

OK



+CIPRCV,2:15
CLOSED
----
Msg: Send Completed!
Resp:
AT+CIPSTATUS
+CIPSTATUS:
STATE:CLOSED
----
Resp:
AT+CIPSTART="TCP","api.thingspeak.com",80
CONNECT OK
----
Msg: Connected!
Resp:
AT+GPSRD=5

OK
----
Msg: GPS Read Set!
Msg: Getting data from GPS using AT Cmd
Resp:
$GNGGA,143106.000,4900.5240,N,00825.4369,E,1,6,2.39,105.5,M,47.9,M,,*4F
$GPGSA,A,3,19,06,02,17,24,,,,,,,,2.56,2.39,0.93*0D
$BDGSA,A,3,11,,,,,,,,,,,,2.56,2.39,0.93*10
$GPGSV,3,1,12,12,76,264,16,24,67,130,28,25,38,255,,19,31,049,26*7F
$GPGSV,3,2,12,32,29,310,,06,17,084,30,17,12,037,18,02,10,127,24*75
$GPGSV,3,3,12,15,09,179,,10,05,265,,29,03,197,,47,,,*49
$BDGSV,1,1,04,11,40,130,28,12,36,062,24,10,11,061,17,13,05,089,26*66
$GNRMC,143106.000,A,4900.5240,N,00825.4369,E,1.067,80.54,140122,,,A*75
$GNVTG,80.54,T,,M,1.067,N,1.978,K,A*1D
---
Msg: Getting data from GPS using AT done
Resp:
AT+GPSRD=0

OK
----
Msg: GPS Read Off!
Msg: Getting data from Sensors
Resp:
AT+CIPSEND

>
----
Msg: Send Started!
Resp:
GET https://api.thingspeak.com/update?api_key=AYKVFH212TKGNW2B&field1=32.84&field2=18.63&field3=1019.86&field4=353.20&field5=370.90&field6=0&field7=0&field8=$GNGGA,143106.000,4900.5240,N,00825.4369,E,1,6,2.39,105.5,M,47.9,M,,*4F

----
Resp:

OK



+CIPRCV,2:16
CLOSED
----
Msg: Send Completed!
Resp:
AT+CIPSTATUS
+CIPSTATUS:
STATE:CLOSED
----
Resp:
AT+CIPSTART="TCP","api.thingspeak.com",80
CONNECT OK
----
Msg: Connected!
Resp:
AT+GPSRD=5

OK
----
Msg: GPS Read Set!
Msg: Getting data from GPS using AT Cmd
Resp:
$GNGGA,143126.000,4900.5234,N,00825.4319,E,1,7,2.11,93.0,M,47.9,M,,*79
$GPGSA,A,3,19,06,02,17,24,,,,,,,,2.31,2.11,0.93*06
$BDGSA,A,3,13,11,,,,,,,,,,,2.31,2.11,0.93*19
$GPGSV,3,1,12,12,77,265,,24,67,130,25,25,38,255,,19,31,049,25*76
$GPGSV,3,2,12,32,29,310,,06,17,084,29,17,12,037,18,02,10,127,24*7D
$GPGSV,3,3,12,15,09,179,,10,05,265,,29,03,197,,42,,,*4C
$BDGSV,1,1,04,11,40,130,24,12,36,062,24,10,11,061,17,13,05,089,26*6A
$GNRMC,143126.000,A,4900.5234,N,00825.4319,E,0.592,118.66,140122,,,A*4C
$GNVTG,118.66,T,,M,0.592,N,1.098,K,A*25
---
Msg: Getting data from GPS using AT done
Resp:
AT+GPSRD=0

OK
----
Msg: GPS Read Off!
Msg: Getting data from Sensors
Resp:
AT+CIPSEND

>
----
Msg: Send Started!
Resp:
GET https://api.thingspeak.com/update?api_key=AYKVFH212TKGNW2B&field1=32.86&field2=18.58&field3=1019.85&field4=360.40&field5=378.50&field6=0&field7=0&field8=$GNGGA,143126.000,4900.5234,N,00825.4319,E,1,7,2.11,93.0,M,47.9,M,,*79

----
Resp:

OK



+CIPRCV,2:17
CLOSED
----
Msg: Send Completed!
Resp:
AT+CIPSTATUS
+CIPSTATUS:
STATE:CLOSED
----
Resp:
AT+CIPSTART="TCP","api.thingspeak.com",80
CONNECT OK
----
Msg: Connected!
Resp:
AT+GPSRD=5

OK
----
Msg: GPS Read Set!
Msg: Getting data from GPS using AT Cmd
Resp:
$GNGGA,143147.000,4900.5227,N,00825.4224,E,1,7,2.11,88.9,M,47.9,M,,*70
$GPGSA,A,3,19,06,02,17,24,,,,,,,,2.31,2.11,0.93*06
$BDGSA,A,3,13,11,,,,,,,,,,,2.31,2.11,0.93*19
$GPGSV,3,1,12,12,77,265,,24,67,130,25,25,38,255,,37,32,162,*76
$GPGSV,3,2,12,19,31,049,24,32,29,309,,06,17,084,29,17,11,037,19*77
$GPGSV,3,3,12,02,10,127,26,15,08,178,,10,05,265,,29,03,197,*79
$BDGSV,1,1,04,11,40,130,20,12,36,062,22,10,11,061,16,13,05,089,25*6A
$GNRMC,143147.000,A,4900.5227,N,00825.4224,E,0.205,197.97,140122,,,A*46
$GNVTG,197.97,T,,M,0.205,N,0.381,K,A*2F
---
Msg: Getting data from GPS using AT done
Resp:
AT+GPSRD=0

OK
----
Msg: GPS Read Off!
Msg: Getting data from Sensors
Resp:
AT+CIPSEND

>
----
Msg: Send Started!
Resp:
GET https://api.thingspeak.com/update?api_key=AYKVFH212TKGNW2B&field1=32.89&field2=18.52&field3=1019.85&field4=360.80&field5=378.90&field6=0&field7=0&field8=$GNGGA,143147.000,4900.5227,N,00825.4224,E,1,7,2.11,88.9,M,47.9,M,,*70

----
Resp:

OK



+CIPRCV,2:18
CLOSED
----
Msg: Send Completed!
Resp:
AT+CIPSTATUS
+CIPSTATUS:
STATE:CLOSED
----
Resp:
AT+CIPSTART="TCP","api.thingspeak.com",80
CONNECT OK
----
Msg: Connected!
Resp:
AT+GPSRD=5

OK
----
Msg: GPS Read Set!
Msg: Getting data from GPS using AT Cmd
Resp:
$GNGGA,143208.000,4900.5224,N,00825.4217,E,1,7,3.49,90.3,M,47.9,M,,*74
$GPGSA,A,3,19,06,02,17,24,,,,,,,,4.40,3.49,2.68*0C
$BDGSA,A,3,13,11,,,,,,,,,,,4.40,3.49,2.68*13
$GPGSV,3,1,12,12,77,265,,24,67,130,18,25,38,255,,19,31,049,21*7C
$GPGSV,3,2,12,32,29,309,,33,29,210,,06,17,084,29,17,11,037,21*75
$GPGSV,3,3,12,02,10,127,25,15,08,178,,10,05,265,,29,03,197,*7A
$BDGSV,1,1,04,11,41,129,25,12,36,061,24,10,11,062,16,13,06,089,27*61
$GNRMC,143208.000,A,4900.5224,N,00825.4217,E,0.166,216.63,140122,,,A*4A
$GNVTG,216.63,T,,M,0.166,N,0.307,K,A*26
---
Msg: Getting data from GPS using AT done
Resp:
AT+GPSRD=0

OK
----
Msg: GPS Read Off!
Msg: Getting data from Sensors
Resp:
AT+CIPSEND

>
----
Msg: Send Started!
Resp:
GET https://api.thingspeak.com/update?api_key=AYKVFH212TKGNW2B&field1=32.91&field2=18.45&field3=1019.84&field4=357.80&field5=375.70&field6=0&field7=0&field8=$GNGGA,143208.000,4900.5224,N,00825.4217,E,1,7,3.49,90.3,M,47.9,M,,*74

----
Resp:

OK



+CIPRCV,2:19
CLOSED
----
Msg: Send Completed!
Resp:
AT+CIPSTATUS
+CIPSTATUS:
STATE:CLOSED
----
Resp:
AT+CIPSTART="TCP","api.thingspeak.com",80
CONNECT OK
----
Msg: Connected!
Resp:
AT+GPSRD=5

OK
----
Msg: GPS Read Set!
Msg: Getting data from GPS using AT Cmd
Resp:
$GNGGA,143228.000,4900.5221,N,00825.4176,E,1,7,2.11,93.0,M,47.9,M,,*7B
$GPGSA,A,3,19,06,02,17,24,,,,,,,,2.31,2.11,0.93*06
$BDGSA,A,3,13,11,,,,,,,,,,,2.31,2.11,0.93*19
$GPGSV,3,1,12,12,77,265,,24,67,130,22,25,38,255,,37,32,162,*71
$GPGSV,3,2,12,19,31,049,21,32,29,309,,06,17,084,28,17,11,037,22*7B
$GPGSV,3,3,12,02,10,127,27,15,08,178,,10,05,265,,29,03,197,*78
$BDGSV,1,1,04,11,41,129,25,12,36,061,23,10,11,062,16,13,06,089,26*67
$GNRMC,143228.000,A,4900.5221,N,00825.4176,E,3.189,94.65,140122,,,A*75
$GNVTG,94.65,T,,M,3.189,N,5.910,K,A*13
---
Msg: Getting data from GPS using AT done
Resp:
AT+GPSRD=0

OK
----
Msg: GPS Read Off!
Msg: Getting data from Sensors
Resp:
AT+CIPSEND

>
----
Msg: Send Started!
Resp:
GET https://api.thingspeak.com/update?api_key=AYKVFH212TKGNW2B&field1=32.93&field2=18.45&field3=1019.85&field4=358.70&field5=376.70&field6=0&field7=0&field8=$GNGGA,143228.000,4900.5221,N,00825.4176,E,1,7,2.11,93.0,M,47.9,M,,*7B

----
Resp:

OK



+CIPRCV,2:20
CLOSED
----
Msg: Send Completed!
Resp:
AT+CIPSTATUS
+CIPSTATUS:
STATE:CLOSED
----
Resp:
AT+CIPSTART="TCP","api.thingspeak.com",80
CONNECT OK
----
Msg: Connected!
Resp:
AT+GPSRD=5

OK
----
Msg: GPS Read Set!
Msg: Getting data from GPS using AT Cmd
Resp:
$GNGGA,143249.000,4900.5251,N,00825.4315,E,1,7,2.45,95.8,M,47.9,M,,*73
$GPGSA,A,3,19,06,02,17,24,,,,,,,,2.62,2.45,0.94*06
$BDGSA,A,3,13,11,,,,,,,,,,,2.62,2.45,0.94*19
$GPGSV,3,1,12,12,78,267,,24,67,130,28,25,38,255,,19,31,049,22*71
$GPGSV,3,2,12,32,29,309,,33,29,210,,06,17,083,27,02,11,126,28*70
$GPGSV,3,3,12,17,11,037,20,15,08,178,,10,04,264,,29,03,197,*7A
$BDGSV,1,1,04,11,41,129,27,12,36,061,22,10,11,062,16,13,06,089,29*6B
$GNRMC,143249.000,A,4900.5251,N,00825.4315,E,1.142,110.67,140122,,,A*48
$GNVTG,110.67,T,,M,1.142,N,2.117,K,A*21
---
Msg: Getting data from GPS using AT done
Resp:
AT+GPSRD=0

OK
----
Msg: GPS Read Off!
Msg: Getting data from Sensors
Resp:
AT+CIPSEND

>
----
Msg: Send Started!
Resp:
GET https://api.thingspeak.com/update?api_key=AYKVFH212TKGNW2B&field1=32.95&field2=18.38&field3=1019.85&field4=362.60&field5=380.80&field6=0&field7=0&field8=$GNGGA,143249.000,4900.5251,N,00825.4315,E,1,7,2.45,95.8,M,47.9,M,,*73

----
Resp:

OK



+CIPRCV,2:21
CLOSED
----
Msg: Send Completed!
Resp:
AT+CIPSTATUS
+CIPSTATUS:
STATE:CLOSED
----
Resp:
AT+CIPSTART="TCP","api.thingspeak.com",80
CONNECT OK
----
Msg: Connected!
Resp:
AT+GPSRD=5

OK
----
Msg: GPS Read Set!
Msg: Getting data from GPS using AT Cmd
Resp:
$GNGGA,143310.000,4900.5236,N,00825.4322,E,1,7,2.12,97.0,M,47.9,M,,*73
$GPGSA,A,3,19,06,02,17,24,,,,,,,,2.32,2.12,0.93*06
$BDGSA,A,3,13,11,,,,,,,,,,,2.32,2.12,0.93*19
$GPGSV,3,1,12,12,78,267,,24,66,131,27,25,39,255,,19,30,049,21*7D
$GPGSV,3,2,12,32,30,309,,06,17,083,28,44,12,116,,02,11,126,27*75
$GPGSV,3,3,12,17,11,037,23,15,08,178,,29,04,197,,10,04,264,*7E
$BDGSV,1,1,04,11,41,129,26,12,36,061,22,10,11,062,16,13,06,089,26*65
$GNRMC,143310.000,A,4900.5236,N,00825.4322,E,0.332,170.44,140122,,,A*43
$GNVTG,170.44,T,,M,0.332,N,0.616,K,A*26
---
Msg: Getting data from GPS using AT done
Resp:
AT+GPSRD=0

OK
----
Msg: GPS Read Off!
Msg: Getting data from Sensors
Resp:
AT+CIPSEND

>
----
Msg: Send Started!
Resp:
GET https://api.thingspeak.com/update?api_key=AYKVFH212TKGNW2B&field1=32.97&field2=18.33&field3=1019.86&field4=367.40&field5=385.80&field6=0&field7=0&field8=$GNGGA,143310.000,4900.5236,N,00825.4322,E,1,7,2.12,97.0,M,47.9,M,,*73

----
Resp:

OK



+CIPRCV,2:22
CLOSED
----
Msg: Send Completed!
Resp:
AT+CIPSTATUS
+CIPSTATUS:
STATE:CLOSED
----
Resp:
AT+CIPSTART="TCP","api.thingspeak.com",80
CONNECT OK
----
Msg: Connected!
Resp:
AT+GPSRD=5

OK
----
Msg: GPS Read Set!
Msg: Getting data from GPS using AT Cmd
Resp:
$GNGGA,143330.000,4900.5216,N,00825.4325,E,1,7,2.12,96.5,M,47.9,M,,*70
$GPGSA,A,3,19,06,02,17,24,,,,,,,,2.32,2.12,0.93*06
$BDGSA,A,3,13,11,,,,,,,,,,,2.32,2.12,0.93*19
$GPGSV,3,1,12,12,78,267,,24,66,131,28,25,39,255,,19,30,049,23*70
$GPGSV,3,2,12,32,30,309,,06,17,083,28,02,11,126,28,17,11,037,23*7C
$GPGSV,3,3,12,15,08,178,,29,04,197,,10,04,264,,36,,,*48
$BDGSV,1,1,04,11,41,129,23,12,36,060,23,10,11,062,17,13,06,089,25*62
$GNRMC,143330.000,A,4900.5216,N,00825.4325,E,1.188,133.79,140122,,,A*4F
$GNVTG,133.79,T,,M,1.188,N,2.202,K,A*2E
---
Msg: Getting data from GPS using AT done
Resp:
AT+GPSRD=0

OK
----
Msg: GPS Read Off!
Msg: Getting data from Sensors
Resp:
AT+CIPSEND

>
----
Msg: Send Started!
Resp:
GET https://api.thingspeak.com/update?api_key=AYKVFH212TKGNW2B&field1=32.99&field2=18.35&field3=1019.86&field4=364.50&field5=382.80&field6=0&field7=0&field8=$GNGGA,143330.000,4900.5216,N,00825.4325,E,1,7,2.12,96.5,M,47.9,M,,*70

----
Resp:

OK



+CIPRCV,2:23
CLOSED
----
Msg: Send Completed!
Resp:
AT+CIPSTATUS
+CIPSTATUS:
STATE:CLOSED
----
Resp:
AT+CIPSTART="TCP","api.thingspeak.com",80
CONNECT OK
----
Msg: Connected!
Resp:
AT+GPSRD=5

OK
----
Msg: GPS Read Set!
Msg: Getting data from GPS using AT Cmd
Resp:
$GNGGA,143351.000,4900.5234,N,00825.4271,E,1,7,2.46,96.3,M,47.9,M,,*70
$GPGSA,A,3,19,06,02,17,24,,,,,,,,2.63,2.46,0.94*04
$BDGSA,A,3,13,11,,,,,,,,,,,2.63,2.46,0.94*1B
$GPGSV,3,1,12,12,78,267,17,24,66,131,25,25,39,255,,19,30,049,23*7B
$GPGSV,3,2,12,32,30,309,,06,17,083,26,02,11,126,28,17,11,037,23*72
$GPGSV,3,3,12,15,08,178,,29,04,197,,10,04,264,,43,,,*4A
$BDGSV,1,1,04,11,41,129,24,12,36,060,23,10,11,062,16,13,06,089,26*67
$GNRMC,143351.000,A,4900.5234,N,00825.4271,E,0.499,277.39,140122,,,A*4B
$GNVTG,277.39,T,,M,0.499,N,0.924,K,A*20
---
Msg: Getting data from GPS using AT done
Resp:
AT+GPSRD=0

OK
----
Msg: GPS Read Off!
Msg: Getting data from Sensors
Resp:
AT+CIPSEND

>
----
Msg: Send Started!
Resp:
GET https://api.thingspeak.com/update?api_key=AYKVFH212TKGNW2B&field1=33.00&field2=18.35&field3=1019.86&field4=346.30&field5=363.70&field6=0&field7=0&field8=$GNGGA,143351.000,4900.5234,N,00825.4271,E,1,7,2.46,96.3,M,47.9,M,,*70

----
Resp:

OK



+CIPRCV,2:24
CLOSED
----
Msg: Send Completed!
Resp:
AT+CIPSTATUS
+CIPSTATUS:
STATE:CLOSED
----
Resp:
AT+CIPSTART="TCP","api.thingspeak.com",80
CONNECT OK
----
Msg: Connected!
Resp:
AT+GPSRD=5

OK
----
Msg: GPS Read Set!
Msg: Getting data from GPS using AT Cmd
Resp:
$GNGGA,143412.000,4900.5224,N,00825.4207,E,1,7,2.12,95.8,M,47.9,M,,*79
$GPGSA,A,3,19,06,02,17,24,,,,,,,,2.32,2.12,0.93*06
$BDGSA,A,3,13,11,,,,,,,,,,,2.32,2.12,0.93*19
$GPGSV,3,1,12,12,78,269,14,24,66,131,24,25,39,255,,19,30,048,24*71
$GPGSV,3,2,12,32,30,309,,06,18,083,24,02,11,126,27,17,10,037,23*71
$GPGSV,3,3,12,15,07,178,,29,04,197,,10,04,264,,47,,,*41
$BDGSV,1,1,04,11,41,129,27,12,36,060,24,10,11,062,16,13,06,089,25*60
$GNRMC,143412.000,A,4900.5224,N,00825.4207,E,0.852,83.55,140122,,,A*73
$GNVTG,83.55,T,,M,0.852,N,1.579,K,A*1D
---
Msg: Getting data from GPS using AT done
Resp:
AT+GPSRD=0

OK
----
Msg: GPS Read Off!
Msg: Getting data from Sensors
Resp:
AT+CIPSEND

>
----
Msg: Send Started!
Resp:
GET https://api.thingspeak.com/update?api_key=AYKVFH212TKGNW2B&field1=33.01&field2=18.36&field3=1019.85&field4=340.80&field5=357.90&field6=0&field7=0&field8=$GNGGA,143412.000,4900.5224,N,00825.4207,E,1,7,2.12,95.8,M,47.9,M,,*79

----
Resp:

OK



+CIPRCV,2:25
CLOSED
----
Msg: Send Completed!
Resp:
AT+CIPSTATUS
+CIPSTATUS:
STATE:CLOSED
----
Resp:
AT+CIPSTART="TCP","api.thingspeak.com",80
CONNECT OK
----
Msg: Connected!
Resp:
AT+GPSRD=5

OK
----
Msg: GPS Read Set!
Msg: Getting data from GPS using AT Cmd
Resp:
$GNGGA,143432.000,4900.5214,N,00825.4204,E,1,7,2.13,96.8,M,47.9,M,,*79
$GPGSA,A,3,19,06,02,17,24,,,,,,,,2.32,2.13,0.94*00
$BDGSA,A,3,13,11,,,,,,,,,,,2.32,2.13,0.94*1F
$GPGSV,3,1,12,12,78,269,13,24,66,131,28,25,39,256,,39,31,158,*7C
$GPGSV,3,2,12,19,30,048,23,32,30,308,,06,18,083,25,02,11,126,27*75
$GPGSV,3,3,12,17,10,037,21,15,07,178,,29,04,197,,10,04,264,*72
$BDGSV,1,1,04,11,41,129,27,12,36,060,24,10,11,062,17,13,06,089,25*61
$GNRMC,143432.000,A,4900.5214,N,00825.4204,E,0.734,187.16,140122,,,A*4C
$GNVTG,187.16,T,,M,0.734,N,1.360,K,A*2E
---
Msg: Getting data from GPS using AT done
Resp:
AT+GPSRD=0

OK
----
Msg: GPS Read Off!
Msg: Getting data from Sensors
Resp:
AT+CIPSEND

>
----
Msg: Send Started!
Resp:
GET https://api.thingspeak.com/update?api_key=AYKVFH212TKGNW2B&field1=33.02&field2=18.36&field3=1019.84&field4=342.30&field5=359.50&field6=0&field7=0&field8=$GNGGA,143432.000,4900.5214,N,00825.4204,E,1,7,2.13,96.8,M,47.9,M,,*79

----
Resp:

OK



+CIPRCV,2:26
CLOSED
----
Msg: Send Completed!
Resp:
AT+CIPSTATUS
+CIPSTATUS:
STATE:CLOSED
----
Resp:
AT+CIPSTART="TCP","api.thingspeak.com",80
CONNECT OK
----
Msg: Connected!
Resp:
AT+GPSRD=5

OK
----
Msg: GPS Read Set!
Msg: Getting data from GPS using AT Cmd
Resp:
$GNGGA,143453.000,4900.5220,N,00825.4281,E,1,7,2.47,97.5,M,47.9,M,,*79
$GPGSA,A,3,19,06,02,17,24,,,,,,,,2.64,2.47,0.94*02
$BDGSA,A,3,13,11,,,,,,,,,,,2.64,2.47,0.94*1D
$GPGSV,3,1,12,12,78,269,,24,66,131,28,25,39,256,,19,30,048,24*7B
$GPGSV,3,2,12,32,30,308,,06,18,083,22,40,13,117,,02,11,126,24*76
$GPGSV,3,3,12,17,10,037,19,15,07,178,,29,04,197,,10,04,264,*79
$BDGSV,1,1,04,11,42,129,24,12,36,060,24,10,11,062,18,13,06,089,27*6C
$GNRMC,143453.000,A,4900.5220,N,00825.4281,E,0.410,255.48,140122,,,A*43
$GNVTG,255.48,T,,M,0.410,N,0.760,K,A*29
---
Msg: Getting data from GPS using AT done
Resp:
AT+GPSRD=0

OK
----
Msg: GPS Read Off!
Msg: Getting data from Sensors
Resp:
AT+CIPSEND

>
----
Msg: Send Started!
Resp:
GET https://api.thingspeak.com/update?api_key=AYKVFH212TKGNW2B&field1=33.02&field2=18.37&field3=1019.84&field4=343.10&field5=360.30&field6=0&field7=0&field8=$GNGGA,143453.000,4900.5220,N,00825.4281,E,1,7,2.47,97.5,M,47.9,M,,*79

----
Resp:

OK



+CIPRCV,2:27
CLOSED
----
Msg: Send Completed!
Resp:
AT+CIPSTATUS
+CIPSTATUS:
STATE:CLOSED
----
Resp:
AT+CIPSTART="TCP","api.thingspeak.com",80
CONNECT OK
----
Msg: Connected!
Resp:
AT+GPSRD=5

OK
----
Msg: GPS Read Set!
Msg: Getting data from GPS using AT Cmd
Resp:
$GNGGA,143514.000,4900.5206,N,00825.4311,E,1,7,2.47,98.0,M,47.9,M,,*7D
$GPGSA,A,3,19,06,02,17,24,,,,,,,,2.64,2.47,0.94*02
$BDGSA,A,3,13,11,,,,,,,,,,,2.64,2.47,0.94*1D
$GPGSV,3,1,12,12,78,269,,24,66,131,27,25,39,256,,19,30,048,24*74
$GPGSV,3,2,12,32,30,308,,06,18,082,20,02,11,126,24,17,10,037,18*7E
$GPGSV,3,3,12,15,07,178,,29,04,197,,10,04,264,,34,,,*45
$BDGSV,1,1,04,11,42,129,21,12,36,060,25,10,11,062,19,13,06,089,28*66
$GNRMC,143514.000,A,4900.5206,N,00825.4311,E,0.478,144.44,140122,,,A*4C
$GNVTG,144.44,T,,M,0.478,N,0.885,K,A*2C
---
Msg: Getting data from GPS using AT done
Resp:
AT+GPSRD=0

OK
----
Msg: GPS Read Off!
Msg: Getting data from Sensors
Resp:
AT+CIPSEND

>
----
Msg: Send Started!
Resp:
GET https://api.thingspeak.com/update?api_key=AYKVFH212TKGNW2B&field1=33.02&field2=18.35&field3=1019.83&field4=340.30&field5=357.40&field6=0&field7=0&field8=$GNGGA,143514.000,4900.5206,N,00825.4311,E,1,7,2.47,98.0,M,47.9,M,,*7D

----
Resp:

OK



+CIPRCV,2:28
CLOSED
----
Msg: Send Completed!
Resp:
AT+CIPSTATUS
+CIPSTATUS:
STATE:CLOSED
----
Resp:
AT+CIPSTART="TCP","api.thingspeak.com",80
CONNECT OK
----
Msg: Connected!
Resp:
AT+GPSRD=5

OK
----
Msg: GPS Read Set!
Msg: Getting data from GPS using AT Cmd
Resp:
$GNGGA,143534.000,4900.5207,N,00825.4452,E,1,7,2.13,100.3,M,47.9,M,,*4C
$GPGSA,A,3,19,06,02,17,24,,,,,,,,2.33,2.13,0.94*01
$BDGSA,A,3,13,11,,,,,,,,,,,2.33,2.13,0.94*1E
$GPGSV,3,1,12,12,79,271,,24,65,131,27,25,40,256,,32,30,308,*79
$GPGSV,3,2,12,19,29,048,26,06,18,082,17,02,11,126,21,17,10,036,20*77
$GPGSV,3,3,12,15,07,178,,29,04,197,,10,04,264,,38,,,*49
$BDGSV,2,1,05,23,62,292,,11,42,129,23,12,36,060,24,10,11,062,19*64
$BDGSV,2,2,05,13,06,089,26*5C
$GNRMC,143534.000,A,4900.5207,N,00825.4452,E,0.717,142.09,140122,,,A*4A
$GNVTG,142.09,T,,M,0.717,N,1.329,K,A*25
---
Msg: Getting data from GPS using AT done
Resp:
AT+GPSRD=0

OK
----
Msg: GPS Read Off!
Msg: Getting data from Sensors
Resp:
AT+CIPSEND

>
----
Msg: Send Started!
Resp:
GET https://api.thingspeak.com/update?api_key=AYKVFH212TKGNW2B&field1=33.02&field2=18.34&field3=1019.83&field4=340.50&field5=357.60&field6=0&field7=0&field8=$GNGGA,143534.000,4900.5207,N,00825.4452,E,1,7,2.13,100.3,M,47.9,M,,*4C

----
Resp:

OK



+CIPRCV,2:29
CLOSED
----
Msg: Send Completed!
Resp:
AT+CIPSTATUS
+CIPSTATUS:
STATE:CLOSED
----
Resp:
AT+CIPSTART="TCP","api.thingspeak.com",80
CONNECT OK
----
Msg: Connected!
Resp:
AT+GPSRD=5

OK
----
Msg: GPS Read Set!
Msg: Getting data from GPS using AT Cmd
Resp:
$GNGGA,143554.000,4900.5192,N,00825.4510,E,1,7,2.48,101.5,M,47.9,M,,*4B
$GPGSA,A,3,19,06,02,17,24,,,,,,,,2.65,2.48,0.94*0C
$BDGSA,A,3,13,11,,,,,,,,,,,2.65,2.48,0.94*13
$GPGSV,3,1,12,12,79,271,,24,65,131,25,25,40,256,,32,30,308,*7B
$GPGSV,3,2,12,19,29,048,25,06,18,082,14,02,11,126,21,17,10,036,23*74
$GPGSV,3,3,12,15,07,178,,29,05,197,,10,04,264,,45,,,*42
$BDGSV,2,1,06,23,62,292,,11,42,129,23,12,36,060,21,10,11,062,19*62
$BDGSV,2,2,06,13,06,089,22,24,06,100,25*6D
$GNRMC,143554.000,A,4900.5192,N,00825.4510,E,0.613,156.09,140122,,,A*44
$GNVTG,156.09,T,,M,0.613,N,1.136,K,A*29
---
Msg: Getting data from GPS using AT done
Resp:
AT+GPSRD=0

OK
----
Msg: GPS Read Off!
Msg: Getting data from Sensors
Resp:
AT+CIPSEND

>
----
Msg: Send Started!
Resp:
GET https://api.thingspeak.com/update?api_key=AYKVFH212TKGNW2B&field1=33.02&field2=18.33&field3=1019.83&field4=356.70&field5=374.60&field6=0&field7=0&field8=$GNGGA,143554.000,4900.5192,N,00825.4510,E,1,7,2.48,101.5,M,47.9,M,,*4B

----
Resp:

OK



+CIPRCV,2:30
CLOSED
----
Msg: Send Completed!
Resp:
AT+CIPSTATUS
+CIPSTATUS:
STATE:CLOSED
----
Resp:
AT+CIPSTART="TCP","api.thingspeak.com",80
CONNECT OK
----
Msg: Connected!
Resp:
AT+GPSRD=5

OK
----
Msg: GPS Read Set!
Msg: Getting data from GPS using AT Cmd
Resp:
$GNGGA,143615.000,4900.5152,N,00825.4495,E,1,7,2.48,103.9,M,47.9,M,,*43
$GPGSA,A,3,19,06,02,17,24,,,,,,,,2.65,2.48,0.94*0C
$BDGSA,A,3,13,11,,,,,,,,,,,2.65,2.48,0.94*13
$GPGSV,3,1,12,12,79,271,14,24,65,131,26,25,40,256,,32,30,308,*7D
$GPGSV,3,2,12,19,29,048,28,06,18,082,17,02,11,126,19,17,10,036,24*76
$GPGSV,3,3,12,15,07,178,,29,05,197,,10,04,264,,51,,,*47
$BDGSV,2,1,06,23,62,293,,11,42,128,23,12,35,059,21,10,11,062,16*64
$BDGSV,2,2,06,13,07,089,25,24,06,100,*6C
$GNRMC,143615.000,A,4900.5152,N,00825.4495,E,0.311,24.53,140122,,,A*7E
$GNVTG,24.53,T,,M,0.311,N,0.577,K,A*15
---
Msg: Getting data from GPS using AT done
Resp:
AT+GPSRD=0

OK
----
Msg: GPS Read Off!
Msg: Getting data from Sensors
Resp:
AT+CIPSEND

>
----
Msg: Send Started!
Resp:
GET https://api.thingspeak.com/update?api_key=AYKVFH212TKGNW2B&field1=33.03&field2=18.34&field3=1019.83&field4=370.20&field5=388.80&field6=0&field7=0&field8=$GNGGA,143615.000,4900.5152,N,00825.4495,E,1,7,2.48,103.9,M,47.9,M,,*43

----
Resp:

OK



+CIPRCV,2:31
CLOSED
----
Msg: Send Completed!
Resp:
AT+CIPSTATUS
+CIPSTATUS:
STATE:CLOSED
----
Resp:
AT+CIPSTART="TCP","api.thingspeak.com",80
CONNECT OK
----
Msg: Connected!
Resp:
AT+GPSRD=5

OK
----
Msg: GPS Read Set!
Msg: Getting data from GPS using AT Cmd
Resp:
$GNGGA,143635.000,4900.5174,N,00825.4468,E,1,7,2.49,104.1,M,47.9,M,,*49
$GPGSA,A,3,19,06,02,17,24,,,,,,,,2.66,2.49,0.94*0E
$BDGSA,A,3,13,11,,,,,,,,,,,2.66,2.49,0.94*11
$GPGSV,3,1,12,12,79,271,,24,65,131,28,25,40,256,,32,30,308,*76
$GPGSV,3,2,12,19,29,048,28,06,18,082,17,02,12,125,20,17,10,036,24*7C
$GPGSV,3,3,12,15,07,178,,29,05,197,,10,04,264,,48,,,*4F
$BDGSV,2,1,06,23,62,293,,11,42,128,25,12,35,059,23,10,11,062,18*6E
$BDGSV,2,2,06,13,07,089,24,24,06,100,*6D
$GNRMC,143635.000,A,4900.5174,N,00825.4468,E,0.551,137.17,140122,,,A*4B
$GNVTG,137.17,T,,M,0.551,N,1.022,K,A*20
---
Msg: Getting data from GPS using AT done
Resp:
AT+GPSRD=0

OK
----
Msg: GPS Read Off!
Msg: Getting data from Sensors
Resp:
AT+CIPSEND

>
----
Msg: Send Started!
Resp:
GET https://api.thingspeak.com/update?api_key=AYKVFH212TKGNW2B&field1=33.03&field2=18.26&field3=1019.82&field4=369.40&field5=387.90&field6=0&field7=0&field8=$GNGGA,143635.000,4900.5174,N,00825.4468,E,1,7,2.49,104.1,M,47.9,M,,*49

----
Resp:

OK

+CIPRCV,2:32


CLOSED
----
Msg: Send Completed!
Resp:
AT+CIPSTATUS
+CIPSTATUS:
STATE:CLOSED
----
Resp:
AT+CIPSTART="TCP","api.thingspeak.com",80
CONNECT OK
----
Msg: Connected!
Resp:
AT+GPSRD=5

OK
----
Msg: GPS Read Set!
Msg: Getting data from GPS using AT Cmd
Resp:
$GNGGA,143655.000,4900.5197,N,00825.4553,E,1,8,2.12,103.9,M,47.9,M,,*45
$GPGSA,A,3,19,06,02,17,24,,,,,,,,2.31,2.12,0.92*04
$BDGSA,A,3,13,12,11,,,,,,,,,,2.31,2.12,0.92*18
$GPGSV,3,1,12,12,79,273,,24,64,132,29,25,40,257,,39,31,158,*7B
$GPGSV,3,2,12,32,30,308,,19,29,047,29,06,18,082,17,02,12,125,18*74
$GPGSV,3,3,12,17,09,036,25,15,06,178,,29,05,197,,10,03,263,*7F
$BDGSV,2,1,06,23,62,293,,11,42,128,25,12,35,059,22,10,11,062,16*61
$BDGSV,2,2,06,13,07,089,24,24,06,100,*6D
$GNRMC,143655.000,A,4900.5197,N,00825.4553,E,0.828,93.48,140122,,,A*7F
$GNVTG,93.48,T,,M,0.828,N,1.533,K,A*13
---
Msg: Getting data from GPS using AT done
Resp:
AT+GPSRD=0

OK
----
Msg: GPS Read Off!
Msg: Getting data from Sensors
Resp:
AT+CIPSEND

>
----
Msg: Send Started!
Resp:
GET https://api.thingspeak.com/update?api_key=AYKVFH212TKGNW2B&field1=33.03&field2=18.25&field3=1019.81&field4=353.00&field5=370.70&field6=0&field7=0&field8=$GNGGA,143655.000,4900.5197,N,00825.4553,E,1,8,2.12,103.9,M,47.9,M,,*45

----
Resp:

OK



+CIPRCV,2:33
CLOSED
----
Msg: Send Completed!
Resp:
AT+CIPSTATUS
+CIPSTATUS:
STATE:CLOSED
----
Resp:
AT+CIPSTART="TCP","api.thingspeak.com",80
CONNECT OK
----
Msg: Connected!
Resp:
AT+GPSRD=5

OK
----
Msg: GPS Read Set!
Msg: Getting data from GPS using AT Cmd
Resp:
$GNGGA,143716.000,4900.5202,N,00825.4478,E,1,8,2.12,104.7,M,47.9,M,,*4D
$GPGSA,A,3,19,06,02,17,24,,,,,,,,2.31,2.12,0.92*04
$BDGSA,A,3,13,12,11,,,,,,,,,,2.31,2.12,0.92*18
$GPGSV,3,1,12,12,79,273,,24,64,132,27,25,40,257,,32,31,307,*76
$GPGSV,3,2,12,19,29,047,29,06,18,082,16,40,13,117,,02,12,125,17*72
$GPGSV,3,3,12,17,09,036,26,29,06,197,,15,06,178,,10,03,263,*7F
$BDGSV,2,1,06,23,62,293,,11,43,127,19,12,35,059,24,10,11,062,16*66
$BDGSV,2,2,06,13,07,089,26,24,06,100,*6F
$GNRMC,143716.000,A,4900.5202,N,00825.4478,E,0.129,186.02,140122,,,A*4D
$GNVTG,186.02,T,,M,0.129,N,0.239,K,A*2C
---
Msg: Getting data from GPS using AT done
Resp:
AT+GPSRD=0

OK
----
Msg: GPS Read Off!
Msg: Getting data from Sensors
Resp:
AT+CIPSEND

>
----
Msg: Send Started!
Resp:
GET https://api.thingspeak.com/update?api_key=AYKVFH212TKGNW2B&field1=33.04&field2=18.25&field3=1019.81&field4=346.00&field5=363.40&field6=0&field7=0&field8=$GNGGA,143716.000,4900.5202,N,00825.4478,E,1,8,2.12,104.7,M,47.9,M,,*4D

----
Resp:

OK



+CIPRCV,2:34
CLOSED
----
Msg: Send Completed!
Resp:
AT+CIPSTATUS
+CIPSTATUS:
STATE:CLOSED
----
Resp:
AT+CIPSTART="TCP","api.thingspeak.com",80
CONNECT OK
----
Msg: Connected!
Resp:
AT+GPSRD=5

OK
----
Msg: GPS Read Set!
Msg: Getting data from GPS using AT Cmd
Resp:
$GNGGA,143737.000,4900.5164,N,00825.4477,E,1,8,2.12,108.7,M,47.9,M,,*4E
$GPGSA,A,3,19,06,02,17,24,,,,,,,,2.31,2.12,0.92*04
$BDGSA,A,3,13,12,11,,,,,,,,,,2.31,2.12,0.92*18
$GPGSV,3,1,12,12,79,273,,24,64,132,25,25,40,257,,32,31,307,*74
$GPGSV,3,2,12,39,31,158,,19,29,047,31,06,18,082,17,02,12,125,18*70
$GPGSV,3,3,12,17,09,036,27,29,06,197,,15,06,178,,10,03,263,*7E
$BDGSV,2,1,06,23,63,293,,11,43,127,23,12,35,059,22,10,11,062,16*68
$BDGSV,2,2,06,13,07,089,26,24,06,100,*6F
$GNRMC,143737.000,A,4900.5164,N,00825.4477,E,0.658,63.01,140122,,,A*7A
$GNVTG,63.01,T,,M,0.658,N,1.220,K,A*1D
---
Msg: Getting data from GPS using AT done
Resp:
AT+GPSRD=0

OK
----
Msg: GPS Read Off!
Msg: Getting data from Sensors
Resp:
AT+CIPSEND

>
----
Msg: Send Started!
Resp:
GET https://api.thingspeak.com/update?api_key=AYKVFH212TKGNW2B&field1=33.04&field2=18.21&field3=1019.81&field4=357.20&field5=375.10&field6=0&field7=0&field8=$GNGGA,143737.000,4900.5164,N,00825.4477,E,1,8,2.12,108.7,M,47.9,M,,*4E

----
Resp:

OK



+CIPRCV,2:35
CLOSED
----
Msg: Send Completed!
Resp:
AT+CIPSTATUS
+CIPSTATUS:
STATE:CLOSED
----
Resp:
AT+CIPSTART="TCP","api.thingspeak.com",80
CONNECT OK
----
Msg: Connected!
Resp:
AT+GPSRD=5

OK
----
Msg: GPS Read Set!
Msg: Getting data from GPS using AT Cmd
Resp:
$GNGGA,143757.000,4900.5172,N,00825.4433,E,1,8,2.13,111.5,M,47.9,M,,*44
$GPGSA,A,3,19,06,02,17,24,,,,,,,,2.31,2.13,0.92*05
$BDGSA,A,3,13,12,11,,,,,,,,,,2.31,2.13,0.92*19
$GPGSV,3,1,12,12,79,273,,24,64,132,27,25,40,257,,32,31,307,*76
$GPGSV,3,2,12,19,29,047,30,06,19,081,16,40,13,117,,02,12,125,16*79
$GPGSV,3,3,12,17,09,036,27,29,06,197,,15,06,178,,10,03,263,*7E
$BDGSV,2,1,06,23,63,293,,11,43,127,23,12,35,059,19,10,11,062,15*63
$BDGSV,2,2,06,13,07,089,22,24,06,100,*6B
$GNRMC,143757.000,A,4900.5172,N,00825.4433,E,0.662,86.34,140122,,,A*7F
$GNVTG,86.34,T,,M,0.662,N,1.226,K,A*1F
---
Msg: Getting data from GPS using AT done
Resp:
AT+GPSRD=0

OK
----
Msg: GPS Read Off!
Msg: Getting data from Sensors
Resp:
AT+CIPSEND

>
----
Msg: Send Started!
Resp:
GET https://api.thingspeak.com/update?api_key=AYKVFH212TKGNW2B&field1=33.04&field2=18.22&field3=1019.81&field4=374.80&field5=393.60&field6=0&field7=0&field8=$GNGGA,143757.000,4900.5172,N,00825.4433,E,1,8,2.13,111.5,M,47.9,M,,*44

----
Resp:

OK



+CIPRCV,2:36
CLOSED
----
Msg: Send Completed!
Resp:
AT+CIPSTATUS
+CIPSTATUS:
STATE:CLOSED
----
Resp:
AT+CIPSTART="TCP","api.thingspeak.com",80
CONNECT OK
----
Msg: Connected!
Resp:
AT+GPSRD=5

OK
----
Msg: GPS Read Set!
Msg: Getting data from GPS using AT Cmd
Resp:
$GNGGA,143818.000,4900.5198,N,00825.4512,E,1,8,3.48,112.7,M,47.9,M,,*48
$GPGSA,A,3,19,06,02,17,24,,,,,,,,4.42,3.48,2.73*05
$BDGSA,A,3,13,12,11,,,,,,,,,,4.42,3.48,2.73*19
$GPGSV,3,1,12,12,80,275,,24,64,132,28,25,41,257,,32,31,307,*78
$GPGSV,3,2,12,19,28,047,30,06,19,081,17,02,12,125,19,17,09,036,28*77
$GPGSV,3,3,12,29,06,197,,15,06,178,,10,03,263,,34,,,*46
$BDGSV,2,1,06,23,63,293,,11,43,127,21,12,35,059,19,10,11,062,16*62
$BDGSV,2,2,06,13,07,089,26,24,06,100,26*6B
$GNRMC,143818.000,A,4900.5198,N,00825.4512,E,0.581,349.09,140122,,,A*4D
$GNVTG,349.09,T,,M,0.581,N,1.076,K,A*28
---
Msg: Getting data from GPS using AT done
Resp:
AT+GPSRD=0

OK
----
Msg: GPS Read Off!
Msg: Getting data from Sensors
Resp:
AT+CIPSEND

>
----
Msg: Send Started!
Resp:
GET https://api.thingspeak.com/update?api_key=AYKVFH212TKGNW2B&field1=33.02&field2=18.24&field3=1019.80&field4=367.50&field5=385.90&field6=0&field7=0&field8=$GNGGA,143818.000,4900.5198,N,00825.4512,E,1,8,3.48,112.7,M,47.9,M,,*48

----
Resp:

OK



+CIPRCV,2:37
CLOSED
----
Msg: Send Completed!
Resp:
AT+CIPSTATUS
+CIPSTATUS:
STATE:CLOSED
----
Resp:
AT+CIPSTART="TCP","api.thingspeak.com",80
CONNECT OK
----
Msg: Connected!
Resp:
AT+GPSRD=5

OK
----
Msg: GPS Read Set!
Msg: Getting data from GPS using AT Cmd
Resp:
$GNGGA,143838.000,4900.5211,N,00825.4563,E,1,8,2.13,114.9,M,47.9,M,,*49
$GPGSA,A,3,19,06,02,17,24,,,,,,,,2.32,2.13,0.92*06
$BDGSA,A,3,13,12,11,,,,,,,,,,2.32,2.13,0.92*1A
$GPGSV,3,1,12,12,80,275,,24,64,132,27,25,41,257,,32,31,307,15*73
$GPGSV,3,2,12,19,28,047,29,06,19,081,21,02,12,125,18,17,09,036,26*75
$GPGSV,3,3,12,29,06,197,,15,06,178,,10,03,263,,38,,,*4A
$BDGSV,2,1,07,23,63,293,,11,43,127,20,12,35,058,19,05,15,123,*60
$BDGSV,2,2,07,10,11,062,15,13,07,089,27,24,06,100,26*5A
$GNRMC,143838.000,A,4900.5211,N,00825.4563,E,0.565,81.65,140122,,,A*7C
$GNVTG,81.65,T,,M,0.565,N,1.047,K,A*1D
---
Msg: Getting data from GPS using AT done
Resp:
AT+GPSRD=0

OK
----
Msg: GPS Read Off!
Msg: Getting data from Sensors
Resp:
AT+CIPSEND

>
----
Msg: Send Started!
Resp:
GET https://api.thingspeak.com/update?api_key=AYKVFH212TKGNW2B&field1=33.00&field2=18.26&field3=1019.79&field4=364.70&field5=383.00&field6=0&field7=0&field8=$GNGGA,143838.000,4900.5211,N,00825.4563,E,1,8,2.13,114.9,M,47.9,M,,*49

----
Resp:

OK



+CIPRCV,2:38
CLOSED
----
Msg: Send Completed!
Resp:
AT+CIPSTATUS
+CIPSTATUS:
STATE:CLOSED
----
Resp:
AT+CIPSTART="TCP","api.thingspeak.com",80
CONNECT OK
----
Msg: Connected!
Resp:
AT+GPSRD=5

OK
----
Msg: GPS Read Set!
Msg: Getting data from GPS using AT Cmd
Resp:
$GNGGA,143859.000,4900.5212,N,00825.4463,E,1,9,2.01,115.1,M,47.9,M,,*47
$GPGSA,A,3,19,06,02,17,24,,,,,,,,2.21,2.01,0.91*04
$BDGSA,A,3,13,12,11,24,,,,,,,,,2.21,2.01,0.91*1E
$GPGSV,3,1,12,12,80,275,,24,64,132,28,25,41,257,,32,31,307,16*7F
$GPGSV,3,2,12,19,28,047,29,06,19,081,25,02,12,125,20,17,09,036,26*7A
$GPGSV,3,3,12,29,06,197,,15,06,178,,10,03,263,,46,,,*43
$BDGSV,2,1,07,23,63,293,,11,43,127,23,12,35,058,18,05,15,123,*62
$BDGSV,2,2,07,10,11,062,16,13,07,088,26,24,06,101,27*59
$GNRMC,143859.000,A,4900.5212,N,00825.4463,E,1.156,259.89,140122,,,A*49
$GNVTG,259.89,T,,M,1.156,N,2.142,K,A*2A
---
Msg: Getting data from GPS using AT done
Resp:
AT+GPSRD=0

OK
----
Msg: GPS Read Off!
Msg: Getting data from Sensors
Resp:
AT+CIPSEND

>
----
Msg: Send Started!
Resp:
GET https://api.thingspeak.com/update?api_key=AYKVFH212TKGNW2B&field1=32.99&field2=18.21&field3=1019.79&field4=352.90&field5=370.60&field6=0&field7=0&field8=$GNGGA,143859.000,4900.5212,N,00825.4463,E,1,9,2.01,115.1,M,47.9,M,,*47

----
Resp:

OK



+CIPRCV,2:39
CLOSED
----
Msg: Send Completed!
Resp:
AT+CIPSTATUS
+CIPSTATUS:
STATE:CLOSED
----
Resp:
AT+CIPSTART="TCP","api.thingspeak.com",80
CONNECT OK
----
Msg: Connected!
Resp:
AT+GPSRD=5

OK
----
Msg: GPS Read Set!
Msg: Getting data from GPS using AT Cmd
Resp:
$GNGGA,143920.000,4900.5215,N,00825.4386,E,1,9,2.01,115.4,M,47.9,M,,*46
$GPGSA,A,3,19,06,02,17,24,,,,,,,,2.21,2.01,0.91*04
$BDGSA,A,3,13,12,11,24,,,,,,,,,2.21,2.01,0.91*1E
$GPGSV,3,1,12,12,80,275,,24,64,132,24,25,41,257,,37,32,162,*73
$GPGSV,3,2,12,32,31,307,15,19,28,047,26,06,19,080,23,02,13,125,17*7A
$GPGSV,3,3,12,17,09,036,28,29,06,197,,15,06,178,,10,02,262,*71
$BDGSV,2,1,07,23,63,293,,11,43,127,24,12,35,058,21,05,15,123,*6F
$BDGSV,2,2,07,10,11,062,15,13,07,088,23,24,06,101,28*50
$GNRMC,143920.000,A,4900.5215,N,00825.4386,E,0.910,77.57,140122,,,A*7B
$GNVTG,77.57,T,,M,0.910,N,1.686,K,A*10
---
Msg: Getting data from GPS using AT done
Resp:
AT+GPSRD=0

OK
----
Msg: GPS Read Off!
Msg: Getting data from Sensors
Resp:
AT+CIPSEND

>
----
Msg: Send Started!
Resp:
GET https://api.thingspeak.com/update?api_key=AYKVFH212TKGNW2B&field1=32.96&field2=18.20&field3=1019.78&field4=342.50&field5=359.70&field6=0&field7=0&field8=$GNGGA,143920.000,4900.5215,N,00825.4386,E,1,9,2.01,115.4,M,47.9,M,,*46

----
Resp:

OK



+CIPRCV,2:40
CLOSED
----
Msg: Send Completed!
Resp:
AT+CIPSTATUS
+CIPSTATUS:
STATE:CLOSED
----
Resp:
AT+CIPSTART="TCP","api.thingspeak.com",80
CONNECT OK
----
Msg: Connected!
Resp:
AT+GPSRD=5

OK
----
Msg: GPS Read Set!
Msg: Getting data from GPS using AT Cmd
Resp:
$GNGGA,143940.000,4900.5175,N,00825.4315,E,1,9,2.02,117.0,M,47.9,M,,*4A
$GPGSA,A,3,19,06,02,17,24,,,,,,,,2.21,2.02,0.91*07
$BDGSA,A,3,13,12,11,24,,,,,,,,,2.21,2.02,0.91*1D
$GPGSV,3,1,12,12,80,277,,24,63,132,24,25,42,258,,32,31,307,13*7F
$GPGSV,3,2,12,33,29,210,,19,28,047,26,06,19,080,22,02,13,125,17*70
$GPGSV,3,3,12,17,08,036,28,29,07,198,,15,05,178,,10,02,262,*7D
$BDGSV,2,1,07,23,63,293,,11,43,127,23,12,35,058,18,05,15,123,*62
$BDGSV,2,2,07,10,11,062,17,13,07,088,24,24,06,101,27*5A
$GNRMC,143940.000,A,4900.5175,N,00825.4315,E,0.707,64.79,140122,,,A*74
$GNVTG,64.79,T,,M,0.707,N,1.309,K,A*14
---
Msg: Getting data from GPS using AT done
Resp:
AT+GPSRD=0

OK
----
Msg: GPS Read Off!
Msg: Getting data from Sensors
Resp:
AT+CIPSEND

>
----
Msg: Send Started!
Resp:
GET https://api.thingspeak.com/update?api_key=AYKVFH212TKGNW2B&field1=32.94&field2=18.22&field3=1019.78&field4=337.10&field5=354.00&field6=0&field7=0&field8=$GNGGA,143940.000,4900.5175,N,00825.4315,E,1,9,2.02,117.0,M,47.9,M,,*4A

----
Resp:

OK



+CIPRCV,2:41
CLOSED
----
Msg: Send Completed!
Resp:
AT+CIPSTATUS
+CIPSTATUS:
STATE:CLOSED
----
Resp:
AT+CIPSTART="TCP","api.thingspeak.com",80
CONNECT OK
----
Msg: Connected!
Resp:
AT+GPSRD=5

OK
----
Msg: GPS Read Set!
Msg: Getting data from GPS using AT Cmd
Resp:
$GNGGA,144000.000,4900.5193,N,00825.4478,E,1,9,2.02,118.5,M,47.9,M,,*4E
$GPGSA,A,3,19,06,02,17,24,,,,,,,,2.22,2.02,0.91*04
$BDGSA,A,3,13,12,11,24,,,,,,,,,2.22,2.02,0.91*1E
$GPGSV,3,1,12,12,80,277,,24,63,132,30,25,42,258,,32,31,306,14*7C
$GPGSV,3,2,12,19,28,047,26,06,19,080,22,02,13,125,15,44,12,116,*7F
$GPGSV,3,3,12,17,08,036,25,29,07,198,,15,05,178,,10,02,262,*70
$BDGSV,2,1,08,23,63,293,,11,44,126,18,12,35,057,17,05,15,123,*63
$BDGSV,2,2,08,08,10,079,,10,10,063,15,13,08,088,25,24,06,101,24*6D
$GNRMC,144000.000,A,4900.5193,N,00825.4478,E,0.766,176.10,140122,,,A*40
$GNVTG,176.10,T,,M,0.766,N,1.420,K,A*22
---
Msg: Getting data from GPS using AT done
Resp:
AT+GPSRD=0

OK
----
Msg: GPS Read Off!
Msg: Getting data from Sensors
Resp:
AT+CIPSEND

>
----
Msg: Send Started!
Resp:
GET https://api.thingspeak.com/update?api_key=AYKVFH212TKGNW2B&field1=32.93&field2=18.21&field3=1019.78&field4=351.00&field5=368.60&field6=0&field7=0&field8=$GNGGA,144000.000,4900.5193,N,00825.4478,E,1,9,2.02,118.5,M,47.9,M,,*4E

----
Resp:

OK

+CIPRCV,2:42


CLOSED
----
Msg: Send Completed!
Resp:
AT+CIPSTATUS
+CIPSTATUS:
STATE:CLOSED
----
Resp:
AT+CIPSTART="TCP","api.thingspeak.com",80
CONNECT OK
----
Msg: Connected!
Resp:
AT+GPSRD=5

OK
----
Msg: GPS Read Set!
Msg: Getting data from GPS using AT Cmd
Resp:
$GNGGA,144021.000,4900.5225,N,00825.4425,E,1,9,2.53,119.3,M,47.9,M,,*48
$GPGSA,A,3,19,06,02,17,24,,,,,,,,2.70,2.53,0.94*02
$BDGSA,A,3,13,12,11,24,,,,,,,,,2.70,2.53,0.94*18
$GPGSV,3,1,12,12,80,277,,24,63,132,29,25,42,258,,32,31,306,16*76
$GPGSV,3,2,12,19,28,047,26,06,19,080,24,02,13,125,17,17,08,036,24*73
$GPGSV,3,3,12,29,07,198,,15,05,178,,10,02,262,,36,,,*49
$BDGSV,2,1,08,23,64,294,,11,44,126,18,12,35,057,19,05,15,123,*6D
$BDGSV,2,2,08,08,10,079,,10,10,063,16,13,08,088,27,24,05,101,25*6E
$GNRMC,144021.000,A,4900.5225,N,00825.4425,E,1.570,258.41,140122,,,A*4A
$GNVTG,258.41,T,,M,1.570,N,2.908,K,A*29
---
Msg: Getting data from GPS using AT done
Resp:
AT+GPSRD=0

OK
----
Msg: GPS Read Off!
Msg: Getting data from Sensors
Resp:
AT+CIPSEND

>
----
Msg: Send Started!
Resp:
GET https://api.thingspeak.com/update?api_key=AYKVFH212TKGNW2B&field1=32.93&field2=18.22&field3=1019.78&field4=368.70&field5=387.20&field6=0&field7=0&field8=$GNGGA,144021.000,4900.5225,N,00825.4425,E,1,9,2.53,119.3,M,47.9,M,,*48

----
Resp:

OK



+CIPRCV,2:43
CLOSED
----
Msg: Send Completed!
Resp:
AT+CIPSTATUS
+CIPSTATUS:
STATE:CLOSED
----
Resp:
AT+CIPSTART="TCP","api.thingspeak.com",80
CONNECT OK
----
Msg: Connected!
Resp:
AT+GPSRD=5

OK
----
Msg: GPS Read Set!
Msg: Getting data from GPS using AT Cmd
Resp:
$GNGGA,144041.000,4900.5220,N,00825.4417,E,1,9,2.02,119.4,M,47.9,M,,*49
$GPGSA,A,3,19,06,02,17,24,,,,,,,,2.22,2.02,0.91*04
$BDGSA,A,3,13,12,11,24,,,,,,,,,2.22,2.02,0.91*1E
$GPGSV,3,1,12,12,81,280,,24,63,132,26,25,42,258,,32,31,306,18*7E
$GPGSV,3,2,12,19,28,047,25,06,19,080,26,02,13,124,16,17,08,036,25*73
$GPGSV,3,3,12,29,07,198,,15,05,178,,10,02,262,,43,,,*4B
$BDGSV,2,1,08,23,64,294,,11,44,126,23,12,35,057,21,05,15,123,*6E
$BDGSV,2,2,08,08,10,079,,10,10,063,16,13,08,088,26,24,05,101,22*68
$GNRMC,144041.000,A,4900.5220,N,00825.4417,E,0.442,285.47,140122,,,A*4F
$GNVTG,285.47,T,,M,0.442,N,0.819,K,A*2D
---
Msg: Getting data from GPS using AT done
Resp:
AT+GPSRD=0

OK
----
Msg: GPS Read Off!
Msg: Getting data from Sensors
Resp:
AT+CIPSEND

>
----
Msg: Send Started!
Resp:
GET https://api.thingspeak.com/update?api_key=AYKVFH212TKGNW2B&field1=32.93&field2=18.19&field3=1019.79&field4=381.20&field5=400.30&field6=0&field7=0&field8=$GNGGA,144041.000,4900.5220,N,00825.4417,E,1,9,2.02,119.4,M,47.9,M,,*49

----
Resp:

OK



+CIPRCV,2:44
CLOSED
----
Msg: Send Completed!
Resp:
AT+CIPSTATUS
+CIPSTATUS:
STATE:CLOSED
----
Resp:
AT+CIPSTART="TCP","api.thingspeak.com",80
CONNECT OK
----
Msg: Connected!
Resp:
AT+GPSRD=5

OK
----
Msg: GPS Read Set!
Msg: Getting data from GPS using AT Cmd
Resp:
$GNGGA,144102.000,4900.5218,N,00825.4433,E,1,8,2.54,118.9,M,47.9,M,,*4C
$GPGSA,A,3,19,06,02,17,24,,,,,,,,2.71,2.54,0.94*04
$BDGSA,A,3,13,12,11,,,,,,,,,,2.71,2.54,0.94*18
$GPGSV,3,1,12,12,81,280,,24,62,133,26,25,42,258,,32,32,306,18*7D
$GPGSV,3,2,12,19,27,046,27,06,19,080,24,02,13,124,18,17,08,036,25*73
$GPGSV,3,3,12,29,07,198,,15,05,178,,10,02,262,,47,,,*4F
$BDGSV,2,1,08,23,64,294,,11,44,126,24,12,35,057,20,05,15,123,*68
$BDGSV,2,2,08,08,10,079,,10,10,063,16,13,08,088,25,24,05,101,*6B
$GNRMC,144102.000,A,4900.5218,N,00825.4433,E,0.806,65.52,140122,,,A*70
$GNVTG,65.52,T,,M,0.806,N,1.493,K,A*16
---
Msg: Getting data from GPS using AT done
Resp:
AT+GPSRD=0

OK
----
Msg: GPS Read Off!
Msg: Getting data from Sensors
Resp:
AT+CIPSEND

>
----
Msg: Send Started!
Resp:
GET https://api.thingspeak.com/update?api_key=AYKVFH212TKGNW2B&field1=32.93&field2=18.16&field3=1019.79&field4=377.90&field5=396.80&field6=0&field7=0&field8=$GNGGA,144102.000,4900.5218,N,00825.4433,E,1,8,2.54,118.9,M,47.9,M,,*4C

----
Resp:

OK



+CIPRCV,2:45
CLOSED
----
Msg: Send Completed!
Resp:
AT+CIPSTATUS
+CIPSTATUS:
STATE:CLOSED
----
Resp:
AT+CIPSTART="TCP","api.thingspeak.com",80
CONNECT OK
----
Msg: Connected!
Resp:
AT+GPSRD=5

OK
----
Msg: GPS Read Set!
Msg: Getting data from GPS using AT Cmd
Resp:
$GNGGA,144123.000,4900.5200,N,00825.4497,E,1,9,2.03,119.5,M,47.9,M,,*46
$GPGSA,A,3,19,06,02,17,24,,,,,,,,2.22,2.03,0.91*05
$BDGSA,A,3,13,12,11,24,,,,,,,,,2.22,2.03,0.91*1F
$GPGSV,3,1,12,12,81,280,,24,62,133,26,25,42,258,,32,32,306,17*72
$GPGSV,3,2,12,19,27,046,25,06,19,080,25,02,13,124,17,17,08,036,24*7E
$GPGSV,3,3,12,29,07,198,,15,05,178,,10,02,262,,42,,,*4A
$BDGSV,2,1,08,23,64,294,,11,44,126,23,12,35,057,22,05,15,123,*6D
$BDGSV,2,2,08,08,10,079,,10,10,063,16,13,08,088,25,24,05,101,19*63
$GNRMC,144123.000,A,4900.5200,N,00825.4497,E,0.295,333.47,140122,,,A*40
$GNVTG,333.47,T,,M,0.295,N,0.546,K,A*2A
---
Msg: Getting data from GPS using AT done
Resp:
AT+GPSRD=0

OK
----
Msg: GPS Read Off!
Msg: Getting data from Sensors
Resp:
AT+CIPSEND

>
----
Msg: Send Started!
Resp:
GET https://api.thingspeak.com/update?api_key=AYKVFH212TKGNW2B&field1=32.93&field2=18.16&field3=1019.78&field4=372.50&field5=391.20&field6=0&field7=0&field8=$GNGGA,144123.000,4900.5200,N,00825.4497,E,1,9,2.03,119.5,M,47.9,M,,*46

----
Resp:

OK



+CIPRCV,2:46
CLOSED
----
Msg: Send Completed!
Resp:
AT+CIPSTATUS
+CIPSTATUS:
STATE:CLOSED
----
Resp:
AT+CIPSTART="TCP","api.thingspeak.com",80
CONNECT OK
----
Msg: Connected!
Resp:
AT+GPSRD=5

OK
----
Msg: GPS Read Set!
Msg: Getting data from GPS using AT Cmd
Resp:
$GNGGA,144144.000,4900.5195,N,00825.4500,E,1,9,2.55,118.0,M,47.9,M,,*40
$GPGSA,A,3,19,06,02,17,24,,,,,,,,2.72,2.55,0.94*06
$BDGSA,A,3,13,12,11,24,,,,,,,,,2.72,2.55,0.94*1C
$GPGSV,3,1,12,12,81,280,,24,62,133,29,25,42,258,,32,32,306,15*7F
$GPGSV,3,2,12,37,32,162,,19,27,046,24,06,19,080,26,02,13,124,20*75
$GPGSV,3,3,12,17,08,036,23,29,07,198,,15,05,178,,10,02,262,*76
$BDGSV,2,1,08,23,64,294,,11,44,126,22,12,35,057,22,05,15,123,*6C
$BDGSV,2,2,08,08,10,079,,10,10,063,17,13,08,088,26,24,05,101,20*6B
$GNRMC,144144.000,A,4900.5195,N,00825.4500,E,0.653,250.53,140122,,,A*4E
$GNVTG,250.53,T,,M,0.653,N,1.210,K,A*20
---
Msg: Getting data from GPS using AT done
Resp:
AT+GPSRD=0

OK
----
Msg: GPS Read Off!
Msg: Getting data from Sensors
Resp:
AT+CIPSEND

>
----
Msg: Send Started!
Resp:
GET https://api.thingspeak.com/update?api_key=AYKVFH212TKGNW2B&field1=32.92&field2=18.17&field3=1019.79&field4=359.10&field5=377.10&field6=0&field7=0&field8=$GNGGA,144144.000,4900.5195,N,00825.4500,E,1,9,2.55,118.0,M,47.9,M,,*40

----
Resp:

OK



+CIPRCV,2:47
CLOSED
----
Msg: Send Completed!
Resp:
AT+CIPSTATUS
+CIPSTATUS:
STATE:CLOSED
----
Resp:
AT+CIPSTART="TCP","api.thingspeak.com",80
CONNECT OK
----
Msg: Connected!
Resp:
AT+GPSRD=5

OK
----
Msg: GPS Read Set!
Msg: Getting data from GPS using AT Cmd
Resp:
$GNGGA,144205.000,4900.5216,N,00825.4536,E,1,9,3.47,116.3,M,47.9,M,,*44
$GPGSA,A,3,19,06,02,17,24,,,,,,,,4.43,3.47,2.77*0F
$BDGSA,A,3,13,12,11,24,,,,,,,,,4.43,3.47,2.77*15
$GPGSV,3,1,12,12,81,283,,24,62,133,32,25,42,258,,32,32,306,16*75
$GPGSV,3,2,12,33,29,210,,19,27,046,25,06,19,079,26,02,14,124,24*79
$GPGSV,3,3,12,17,07,036,21,29,07,198,,15,04,178,,10,02,262,*7A
$BDGSV,2,1,08,23,64,294,,11,44,126,20,12,35,057,19,05,15,123,*66
$BDGSV,2,2,08,08,10,079,,10,10,063,17,13,08,088,28,24,05,101,18*6E
$GNRMC,144205.000,A,4900.5216,N,00825.4536,E,0.282,87.54,140122,,,A*72
$GNVTG,87.54,T,,M,0.282,N,0.523,K,A*11
---
Msg: Getting data from GPS using AT done
Resp:
AT+GPSRD=0

OK
----
Msg: GPS Read Off!
Msg: Getting data from Sensors
Resp:
AT+CIPSEND

>
----
Msg: Send Started!
Resp:
GET https://api.thingspeak.com/update?api_key=AYKVFH212TKGNW2B&field1=32.92&field2=18.16&field3=1019.79&field4=357.00&field5=374.90&field6=0&field7=0&field8=$GNGGA,144205.000,4900.5216,N,00825.4536,E,1,9,3.47,116.3,M,47.9,M,,*44

----
Resp:

OK



+CIPRCV,2:48
CLOSED
----
Msg: Send Completed!
Resp:
AT+CIPSTATUS
+CIPSTATUS:
STATE:CLOSED
----
Resp:
AT+CIPSTART="TCP","api.thingspeak.com",80
CONNECT OK
----
