+"v5w?wÁï/"rºr7v·Øc³£££g™¿#‘Ö‘£#ÿ
SmartAQnet Scooter Sensors!
Initializing A9G...
Resp:

+CREG: 2

^STN: 37
+CTZV:22/01/14,19:32:25,+01

+CREG: 1

+CIEV: "Complete the Charge",100%

A9/A9G
V02.02.20190915R
Ai_Thinker_Co._Ltd.
READY
----
Init Ready Done!
Resp:

----
Resp:
AT

OK
----
key : Error_No_0 value: 18

key : Error_No_1 value: 18

key : Error_No_2 value: 18

Reading NVS done...
Resp:
AT+CPIN?

+CPIN:READY
----
Msg: SIM PIN is ready!
Resp:
AT+CREG=1

OK
----
Msg: Netwoek Set!
Resp:
AT+CREG?

+CREG: 1
----
Msg: Network Registered!
Resp:
AT+GPS=1

OK
----
Msg: GPS Set!
Resp:
AT+CGATT=1

+CGATT:1

OK
----
Msg: PS Attached!
Resp:
AT+CGDCONT?

OK
----
Msg: Context Set!
Resp:
AT+CGDCONT=1,"IP","pinternet.interkom.de"

OK
----
Msg: Context Changed!
Resp:
AT+CGACT=1,1

OK
----
Msg: Context Selected!
Resp:
AT+CGACT?

+CGACT: 1, 1
----
Msg: Context is Correct!
Resp:
AT+CIPSTATUS
+CIPSTATUS:
STATE:IP INITIAL
----
Msg: Status INITIAL!
Resp:
AT+CIPSTART="TCP","api.thingspeak.com",80
CONNECT OK
----
Msg: Connected!
Resp:
AT+GPSRD=5

OK
----
Msg: GPS Read Set!
Msg: Getting data from GPS using AT Cmd
Resp:
$GNGGA,193242.098,4900.5226,N,00825.4834,E,0,3,,136.4,M,47.9,M,,*50
$GPGSA,A,1,29,05,18,,,,,,,,,,,,*19
$BDGSA,A,1,,,,,,,,,,,,,,,*0F
$GPGSV,3,1,11,26,74,271,,18,72,140,25,16,38,303,,29,36,072,41*74
$GPGSV,3,2,11,31,28,210,,05,21,051,27,27,14,267,,23,12,147,*77
$GPGSV,3,3,11,25,11,133,,20,07,029,30,09,01,329,*42
$BDGSV,1,1,00*68
$GNRMC,193242.098,V,4900.5226,N,00825.4834,E,3.780,285.85,140122,,,N*56
$GNVTG,285.85,T,,M,3.780,N,7.005,K,N*20
---
Msg: Getting data from GPS using AT done
Resp:
AT+GPSRD=0

OK
----
Msg: GPS Read Off!
Msg: Getting data from Sensors
Msg: 1
Msg: 2
Resp:
AT+CIPSEND

>
----
Msg: Send Started!
Resp:
GET https://api.thingspeak.com/update?api_key=AYKVFH212TKGNW2B&field1=29.33&field2=21.40&field3=1018.84&field4=256.00&field5=268.90&field6=0&field7=0&field8=$GNGGA,193242.098,4900.5226,N,00825.4834,E,0,3,,136.4,M,47.9,M,,*50

----
Resp:

OK



+CIPRCV,1:1
CLOSED
----
Msg: Send Completed!
Resp:
AT+CIPSTATUS
+CIPSTATUS:
STATE:CLOSED
----
Resp:
AT+CIPSTART="TCP","api.thingspeak.com",80
CONNECT OK
----
Msg: Connected!
Resp:
AT+GPSRD=5

OK
----
Msg: GPS Read Set!
Msg: Getting data from GPS using AT Cmd
Resp:
$GNGGA,193303.000,4900.5263,N,00825.4708,E,1,5,2.34,142.8,M,47.9,M,,*47
$GPGSA,A,3,29,05,18,20,25,,,,,,,,2.50,2.34,0.88*02
$BDGSA,A,3,,,,,,,,,,,,,2.50,2.34,0.88*11
$GPGSV,3,1,12,26,74,271,17,18,72,140,27,16,38,303,18,29,36,073,20*7C
$GPGSV,3,2,12,37,32,162,,31,28,210,,05,21,051,31,27,14,267,*73
$GPGSV,3,3,12,23,12,147,20,25,11,133,25,20,07,029,28,09,01,329,*7D
$BDGSV,1,1,00*68
$GNRMC,193303.000,A,4900.5263,N,00825.4708,E,0.359,250.67,140122,,,A*4D
$GNVTG,250.67,T,,M,0.359,N,0.665,K,A*2F
---
Msg: Getting data from GPS using AT done
Resp:
AT+GPSRD=0

OK
----
Msg: GPS Read Off!
Msg: Getting data from Sensors
Msg: 1
Msg: 2
Resp:
AT+CIPSEND

>
----
Msg: Send Started!
Resp:
GET https://api.thingspeak.com/update?api_key=AYKVFH212TKGNW2B&field1=29.00&field2=19.50&field3=1018.85&field4=200.70&field5=210.80&field6=0&field7=0&field8=$GNGGA,193303.000,4900.5263,N,00825.4708,E,1,5,2.34,142.8,M,47.9,M,,*47

----
Resp:

OK



+CIPRCV,1:2
CLOSED
----
Msg: Send Completed!
Resp:
AT+CIPSTATUS
+CIPSTATUS:
STATE:CLOSED
----
Resp:
AT+CIPSTART="TCP","api.thingspeak.com",80
CONNECT OK
----
Msg: Connected!
Resp:
AT+GPSRD=5

OK
----
Msg: GPS Read Set!
Msg: Getting data from GPS using AT Cmd
Resp:
$GNGGA,193324.000,4900.5241,N,00825.4637,E,1,5,2.63,144.3,M,47.9,M,,*40
$GPGSA,A,3,29,05,18,20,25,,,,,,,,3.20,2.63,1.84*0B
$BDGSA,A,3,,,,,,,,,,,,,3.20,2.63,1.84*18
$GPGSV,3,1,12,26,74,271,15,18,72,140,25,16,38,303,16,29,36,073,27*75
$GPGSV,3,2,12,39,31,158,26,31,28,210,,05,21,051,31,27,14,267,*73
$GPGSV,3,3,12,23,12,147,17,25,11,133,22,20,07,029,28,09,01,329,*7E
$BDGSV,1,1,00*68
$GNRMC,193324.000,A,4900.5241,N,00825.4637,E,0.509,180.86,140122,,,A*47
$GNVTG,180.86,T,,M,0.509,N,0.944,K,A*21
---
Msg: Getting data from GPS using AT done
Resp:
AT+GPSRD=0

OK
----
Msg: GPS Read Off!
Msg: Getting data from Sensors
Msg: 1
Msg: 2
Resp:
AT+CIPSEND

>
----
Msg: Send Started!
Resp:
GET https://api.thingspeak.com/update?api_key=AYKVFH212TKGNW2B&field1=28.52&field2=18.28&field3=1018.84&field4=183.70&field5=192.90&field6=0&field7=0&field8=$GNGGA,193324.000,4900.5241,N,00825.4637,E,1,5,2.63,144.3,M,47.9,M,,*40

----
Resp:

OK



+CIPRCV,1:3
CLOSED
----
Msg: Send Completed!
Resp:
AT+CIPSTATUS
+CIPSTATUS:
STATE:CLOSED
----
Resp:
AT+CIPSTART="TCP","api.thingspeak.com",80
CONNECT OK
----
Msg: Connected!
Resp:
AT+GPSRD=5

OK
----
Msg: GPS Read Set!
Msg: Getting data from GPS using AT Cmd
Resp:
$GNGGA,193344.000,4900.5236,N,00825.4407,E,1,5,2.34,136.6,M,47.9,M,,*45
$GPGSA,A,3,29,05,18,20,25,,,,,,,,2.50,2.34,0.88*02
$BDGSA,A,3,,,,,,,,,,,,,2.50,2.34,0.88*11
$GPGSV,3,1,12,26,74,271,13,18,72,140,26,16,38,303,16,29,36,073,28*7F
$GPGSV,3,2,12,31,28,210,,05,21,051,30,27,14,267,17,23,12,147,19*7C
$GPGSV,3,3,12,44,12,116,,25,11,133,24,20,07,029,27,09,01,329,*74
$BDGSV,1,1,00*68
$GNRMC,193344.000,A,4900.5236,N,00825.4407,E,1.095,36.37,140122,,,A*77
$GNVTG,36.37,T,,M,1.095,N,2.028,K,A*17
---
Msg: Getting data from GPS using AT done
Resp:
AT+GPSRD=0

OK
----
Msg: GPS Read Off!
Msg: Getting data from Sensors
Msg: 1
Msg: 2
Resp:
AT+CIPSEND

>
----
Msg: Send Started!
Resp:
GET https://api.thingspeak.com/update?api_key=AYKVFH212TKGNW2B&field1=27.99&field2=19.03&field3=1018.84&field4=159.90&field5=167.90&field6=0&field7=0&field8=$GNGGA,193344.000,4900.5236,N,00825.4407,E,1,5,2.34,136.6,M,47.9,M,,*45

----
Resp:

OK

+CIPRCV,1:4


CLOSED
----
Msg: Send Completed!
Resp:
AT+CIPSTATUS
+CIPSTATUS:
STATE:CLOSED
----
Resp:
AT+CIPSTART="TCP","api.thingspeak.com",80
CONNECT OK
----
Msg: Connected!
Resp:
AT+GPSRD=5

OK
----
Msg: GPS Read Set!
Msg: Getting data from GPS using AT Cmd
