created_at,entry_id,field1,field2,field3,field4,field5,field6,field7,field8,latitude,longitude,elevation,status
2022-03-13T10:58:32+01:00,1,22.11,22.34,1004.17,48.90,51.40,0,-127.00,"$GNGGA,095827.132,4900.5204,N,00825.5388,E,0,0,,47.3,M,47.9,M,,*61",,,,
2022-03-13T10:58:52+01:00,2,21.70,21.50,1004.18,49.20,51.70,0,-127.00,"$GNGGA,095847.095,4900.5204,N,00825.5388,E,0,0,,47.3,M,47.9,M,,*6B",,,,
2022-03-13T10:59:12+01:00,3,21.40,21.66,1004.18,49.60,52.10,0,-127.00,"$GNGGA,095907.088,4900.5152,N,00825.5218,E,0,2,,47.3,M,47.9,M,,*68",,,,
2022-03-13T10:59:33+01:00,4,21.21,21.67,1004.17,46.60,49.00,0,-127.00,"$GNGGA,095928.088,4900.5238,N,00825.5395,E,0,2,,47.3,M,47.9,M,,*6E",,,,
2022-03-13T10:59:53+01:00,5,20.87,21.55,1004.15,45.70,48.00,0,-127.00,"$GNGGA,095948.088,4900.5451,N,00825.4211,E,0,3,,47.3,M,47.9,M,,*6C",,,,
2022-03-13T11:00:13+01:00,6,20.68,21.98,1004.13,46.40,48.80,0,-127.00,"$GNGGA,100008.088,4900.5427,N,00825.4086,E,0,3,,47.3,M,47.9,M,,*61",,,,
2022-03-13T11:00:34+01:00,7,20.62,22.44,1004.11,47.20,49.60,0,-127.00,"$GNGGA,100029.088,4900.5385,N,00825.4042,E,0,3,,47.3,M,47.9,M,,*65",,,,
2022-03-13T11:00:54+01:00,8,20.64,22.29,1004.12,46.80,49.20,0,-127.00,"$GNGGA,100049.088,4900.5378,N,00825.4190,E,0,3,,47.3,M,47.9,M,,*6F",,,,
2022-03-13T11:01:14+01:00,9,20.71,22.46,1004.12,46.80,49.20,0,-127.00,"$GNGGA,100109.088,4900.5368,N,00825.4225,E,0,3,,47.3,M,47.9,M,,*66",,,,
2022-03-13T11:01:35+01:00,10,20.74,21.93,1004.13,46.70,49.10,0,-127.00,"$GNGGA,100130.088,4900.5052,N,00825.4271,E,0,4,,142.5,M,47.9,M,,*52",,,,
2022-03-13T11:01:55+01:00,11,20.66,21.53,1004.13,50.00,52.60,0,-127.00,"$GNGGA,100150.000,4900.4971,N,00825.4237,E,1,4,2.20,141.3,M,47.9,M,,*45",,,,
2022-03-13T11:02:15+01:00,12,20.64,22.01,1004.12,51.10,53.70,0,-127.00,"$GNGGA,100210.000,4900.5058,N,00825.4335,E,1,5,1.64,149.5,M,47.9,M,,*4E",,,,
2022-03-13T11:02:36+01:00,13,20.63,21.50,1004.11,52.00,54.70,0,-127.00,"$GNGGA,100231.000,4900.5070,N,00825.4389,E,1,8,1.04,141.4,M,47.9,M,,*42",,,,
2022-03-13T11:02:56+01:00,14,20.53,21.42,1004.10,50.00,52.60,0,-127.00,"$GNGGA,100251.000,4900.5078,N,00825.4382,E,1,8,1.04,141.9,M,47.9,M,,*4A",,,,
2022-03-13T11:03:16+01:00,15,20.52,21.85,1004.08,48.70,51.20,0,-127.00,"$GNGGA,100311.000,4900.5010,N,00825.4366,E,1,8,1.04,141.5,M,47.9,M,,*47",,,,
2022-03-13T11:03:37+01:00,16,20.56,22.14,1004.07,47.80,50.20,0,-127.00,"$GNGGA,100332.000,4900.5010,N,00825.4347,E,1,9,0.93,142.9,M,47.9,M,,*44",,,,
2022-03-13T11:03:57+01:00,17,20.65,22.31,1004.07,47.10,49.50,0,-127.00,"$GNGGA,100352.000,4900.5015,N,00825.4305,E,1,9,0.93,142.8,M,47.9,M,,*40",,,,
2022-03-13T11:04:18+01:00,18,20.76,22.00,1004.05,48.30,50.80,0,-127.00,"$GNGGA,100413.000,4900.5012,N,00825.4319,E,1,10,0.89,142.0,M,47.9,M,,*73",,,,
2022-03-13T11:04:39+01:00,19,20.90,21.85,1004.05,49.40,51.90,0,-127.00,"$GNGGA,100434.000,4900.4991,N,00825.4357,E,2,9,1.32,141.0,M,47.9,M,,*46",,,,
2022-03-13T11:04:59+01:00,20,21.06,21.86,1004.03,50.60,53.20,0,-127.00,"$GNGGA,100454.000,4900.4973,N,00825.4350,E,2,10,0.89,137.0,M,47.9,M,,*73",,,,
2022-03-13T11:05:20+01:00,21,21.18,21.44,1004.03,52.50,55.20,0,-127.00,"$GNGGA,100515.000,4900.4978,N,00825.4327,E,2,10,0.91,134.2,M,47.9,M,,*74",,,,
2022-03-13T11:05:41+01:00,22,21.31,21.14,1004.02,53.60,56.30,0,-127.00,"$GNGGA,100536.000,4900.4979,N,00825.4323,E,2,10,0.91,134.2,M,47.9,M,,*70",,,,
2022-03-13T11:06:02+01:00,23,21.44,20.92,1004.02,52.90,55.60,0,-127.00,"$GNGGA,100557.000,4900.4985,N,00825.4327,E,2,10,0.91,134.1,M,47.9,M,,*73",,,,
2022-03-13T11:06:23+01:00,24,21.56,21.07,1004.03,49.90,52.40,0,-127.00,"$GNGGA,100618.000,4900.4990,N,00825.4327,E,2,10,0.91,133.7,M,47.9,M,,*7E",,,,
2022-03-13T11:06:44+01:00,25,21.70,21.06,1004.02,48.60,51.10,0,-127.00,"$GNGGA,100639.000,4900.4992,N,00825.4341,E,2,10,0.91,132.5,M,47.9,M,,*7C",,,,
2022-03-13T11:07:04+01:00,26,21.82,20.75,1004.01,48.80,51.30,0,-127.00,"$GNGGA,100659.000,4900.4993,N,00825.4332,E,2,10,0.91,133.5,M,47.9,M,,*7E",,,,
2022-03-13T11:07:25+01:00,27,21.91,20.44,1004.01,51.50,54.10,0,-127.00,"$GNGGA,100720.000,4900.4982,N,00825.4326,E,2,10,0.91,133.7,M,47.9,M,,*76",,,,
2022-03-13T11:07:45+01:00,28,21.97,20.15,1004.02,52.60,55.30,0,-127.00,"$GNGGA,100740.000,4900.4983,N,00825.4335,E,2,10,0.91,132.9,M,47.9,M,,*7C",,,,
2022-03-13T11:08:06+01:00,29,22.01,20.04,1004.01,54.10,56.90,0,-127.00,"$GNGGA,100801.000,4900.4977,N,00825.4326,E,2,10,0.91,133.0,M,47.9,M,,*77",,,,
2022-03-13T11:08:27+01:00,30,22.06,20.06,1004.02,53.00,55.70,0,-127.00,"$GNGGA,100822.000,4900.4997,N,00825.4319,E,2,10,0.91,133.5,M,47.9,M,,*71",,,,
2022-03-13T11:08:47+01:00,31,22.11,20.05,1004.02,54.70,57.50,0,-127.00,"$GNGGA,100842.000,4900.4987,N,00825.4328,E,2,10,0.91,132.1,M,47.9,M,,*71",,,,
2022-03-13T11:09:08+01:00,32,22.18,19.91,1004.01,54.20,57.00,0,-127.00,"$GNGGA,100903.000,4900.4952,N,00825.4289,E,2,10,0.91,123.1,M,47.9,M,,*77",,,,
2022-03-13T11:09:29+01:00,33,22.25,19.91,1004.02,55.00,57.80,0,-127.00,"$GNGGA,100924.000,4900.5063,N,00825.4225,E,2,10,0.91,133.5,M,47.9,M,,*7B",,,,
2022-03-13T11:09:50+01:00,34,22.32,19.84,1004.02,51.60,54.20,0,-127.00,"$GNGGA,100945.000,4900.5113,N,00825.4247,E,2,10,0.90,137.3,M,47.9,M,,*7D",,,,
2022-03-13T11:10:11+01:00,35,22.39,19.76,1004.02,51.00,53.60,0,-127.00,"$GNGGA,101006.000,4900.5099,N,00825.4232,E,2,10,0.90,136.5,M,47.9,M,,*74",,,,
2022-03-13T11:10:32+01:00,36,22.45,19.63,1004.02,50.20,52.80,0,-127.00,"$GNGGA,101027.000,4900.5001,N,00825.4209,E,2,10,0.90,140.6,M,47.9,M,,*7C",,,,
2022-03-13T11:10:52+01:00,37,22.51,19.65,1004.03,49.40,51.90,0,-127.00,"$GNGGA,101047.000,4900.5020,N,00825.4246,E,2,10,0.90,134.6,M,47.9,M,,*71",,,,
2022-03-13T11:11:13+01:00,38,22.57,19.62,1004.03,49.40,51.90,0,-127.00,"$GNGGA,101108.000,4900.5030,N,00825.4271,E,2,10,0.90,141.5,M,47.9,M,,*7F",,,,
2022-03-13T11:11:34+01:00,39,22.64,19.68,1004.03,49.00,51.50,0,-127.00,"$GNGGA,101129.000,4900.4991,N,00825.4273,E,2,9,1.71,143.9,M,47.9,M,,*45",,,,
2022-03-13T11:11:55+01:00,40,22.69,19.45,1004.03,50.40,53.00,0,-127.00,"$GNGGA,101150.000,4900.4924,N,00825.4325,E,2,10,0.90,124.1,M,47.9,M,,*78",,,,
2022-03-13T11:12:16+01:00,41,22.74,19.47,1004.02,50.20,52.80,0,-127.00,"$GNGGA,101211.000,4900.5007,N,00825.4280,E,2,9,0.96,125.2,M,47.9,M,,*45",,,,
2022-03-13T11:12:37+01:00,42,22.77,19.55,1004.02,51.60,54.20,0,-127.00,"$GNGGA,101232.000,4900.5020,N,00825.4278,E,2,11,0.87,127.5,M,47.9,M,,*7A",,,,
2022-03-13T11:12:58+01:00,43,22.79,19.49,1004.03,52.60,55.30,0,-127.00,"$GNGGA,101253.000,4900.5019,N,00825.4277,E,2,11,0.86,127.7,M,47.9,M,,*7B",,,,
2022-03-13T11:13:19+01:00,44,22.81,19.58,1004.03,53.90,56.60,0,-127.00,"$GNGGA,101314.000,4900.5032,N,00825.4284,E,2,11,0.86,124.0,M,47.9,M,,*78",,,,
2022-03-13T11:13:40+01:00,45,22.83,19.44,1004.02,53.70,56.40,0,-127.00,"$GNGGA,101335.000,4900.5030,N,00825.4276,E,2,12,0.86,125.1,M,47.9,M,,*77",,,,
2022-03-13T11:14:01+01:00,46,22.86,19.49,1004.01,51.70,54.30,0,-127.00,"$GNGGA,101356.000,4900.5050,N,00825.4247,E,2,11,0.91,132.0,M,47.9,M,,*74",,,,
2022-03-13T11:14:22+01:00,47,22.90,19.49,1004.01,51.20,53.80,0,-127.00,"$GNGGA,101417.000,4900.5023,N,00825.4284,E,2,12,0.86,136.8,M,47.9,M,,*74",,,,
2022-03-13T11:14:43+01:00,48,22.93,19.48,1004.01,50.30,52.90,0,-127.00,"$GNGGA,101438.000,4900.5036,N,00825.4267,E,2,12,0.85,131.9,M,47.9,M,,*75",,,,
2022-03-13T11:15:04+01:00,49,22.96,19.63,1004.00,52.00,54.70,0,-127.00,"$GNGGA,101459.000,4900.5100,N,00825.4268,E,2,12,0.86,142.5,M,47.9,M,,*72",,,,
2022-03-13T11:15:25+01:00,50,23.00,19.52,1003.99,51.10,53.70,0,-127.00,"$GNGGA,101520.000,4900.5090,N,00825.4271,E,2,12,0.86,145.4,M,47.9,M,,*7B",,,,
2022-03-13T11:15:46+01:00,51,22.90,19.17,1003.99,51.10,53.70,0,-127.00,"$GNGGA,101541.000,4900.4934,N,00825.4265,E,2,10,0.94,140.3,M,47.9,M,,*7C",,,,
2022-03-13T11:16:07+01:00,52,22.83,19.33,1003.99,50.00,52.60,0,-127.00,"$GNGGA,101602.000,4900.5015,N,00825.4484,E,2,11,0.91,148.3,M,47.9,M,,*76",,,,
2022-03-13T11:16:28+01:00,53,22.57,19.51,1003.99,49.20,51.70,0,-127.00,"$GNGGA,101623.000,4900.4828,N,00825.4340,E,2,11,0.87,133.3,M,47.9,M,,*76",,,,
2022-03-13T11:16:49+01:00,54,22.35,19.94,1003.97,49.20,51.70,0,-127.00,"$GNGGA,101644.000,4900.4696,N,00825.4331,E,2,11,0.91,132.8,M,47.9,M,,*77",,,,
2022-03-13T11:17:10+01:00,55,22.23,20.19,1003.98,47.60,50.00,0,-127.00,"$GNGGA,101705.000,4900.4676,N,00825.4385,E,2,11,0.87,128.1,M,47.9,M,,*77",,,,
2022-03-13T11:17:31+01:00,56,22.19,20.30,1003.98,47.70,50.10,0,-127.00,"$GNGGA,101726.000,4900.4666,N,00825.4457,E,2,12,0.85,128.3,M,47.9,M,,*7C",,,,
2022-03-13T11:17:52+01:00,57,22.10,20.09,1003.97,48.20,50.70,0,-127.00,"$GNGGA,101747.000,4900.4579,N,00825.4529,E,2,12,0.85,130.9,M,47.9,M,,*7D",,,,
2022-03-13T11:18:13+01:00,58,21.86,20.36,1003.95,47.90,50.30,0,-127.00,"$GNGGA,101808.000,4900.4524,N,00825.4649,E,2,12,0.85,132.6,M,47.9,M,,*79",,,,
2022-03-13T11:18:34+01:00,59,21.68,20.59,1003.94,47.50,49.90,0,-127.00,"$GNGGA,101829.000,4900.4612,N,00825.4802,E,2,12,0.91,146.9,M,47.9,M,,*74",,,,
2022-03-13T11:18:55+01:00,60,21.60,20.84,1003.94,46.20,48.60,0,-127.00,"$GNGGA,101850.000,4900.4573,N,00825.4905,E,2,12,0.85,151.7,M,47.9,M,,*75",,,,
2022-03-13T11:19:16+01:00,61,21.58,21.06,1003.93,46.30,48.70,0,-127.00,"$GNGGA,101911.000,4900.4502,N,00825.5061,E,2,13,0.80,134.0,M,47.9,M,,*7D",,,,
2022-03-13T11:19:37+01:00,62,21.62,21.11,1003.92,48.60,51.10,0,-127.00,"$GNGGA,101932.000,4900.4485,N,00825.5109,E,2,13,0.80,133.7,M,47.9,M,,*7D",,,,
2022-03-13T11:19:58+01:00,63,21.68,21.25,1003.92,52.00,54.70,0,-127.00,"$GNGGA,101953.000,4900.4484,N,00825.5078,E,2,13,0.80,132.7,M,47.9,M,,*7D",,,,
2022-03-13T11:20:19+01:00,64,21.72,21.48,1003.91,48.30,50.80,0,-127.00,"$GNGGA,102014.000,4900.4334,N,00825.5659,E,2,13,0.80,124.5,M,47.9,M,,*78",,,,
2022-03-13T11:20:46+01:00,65,21.82,21.88,1003.87,42.30,44.50,0,-127.00,"$GNGGA,102041.000,4900.3954,N,00825.8033,E,2,13,0.80,128.6,M,47.9,M,,*7B",,,,
2022-03-13T11:21:57+01:00,66,23.70,22.07,1003.86,37.60,39.50,0,-127.00,"$GNGGA,102152.000,4900.4195,N,00825.8893,E,1,8,0.92,148.1,M,47.9,M,,*43",,,,
2022-03-13T11:22:17+01:00,67,23.52,22.21,1003.87,37.00,38.90,0,-127.00,"$GNGGA,102212.000,4900.4204,N,00825.8966,E,1,8,0.92,144.4,M,47.9,M,,*4D",,,,
2022-03-13T11:41:26+01:00,68,21.93,24.81,1003.82,36.60,38.50,0,-127.00,"$GNGGA,000135.028,4901.6046,N,00827.2306,E,0,0,,102.1,M,47.9,M,,*5A",,,,
2022-03-13T12:33:24+01:00,69,30.05,16.03,1006.10,34.40,36.20,0,-127.00,"$GNGGA,000033.263,4901.6046,N,00827.2306,E,0,0,,102.1,M,47.9,M,,*50",,,,
2022-03-13T12:33:45+01:00,70,29.83,16.68,1006.10,36.40,38.30,0,-127.00,"$GNGGA,000054.263,4901.6046,N,00827.2306,E,0,0,,102.1,M,47.9,M,,*51",,,,
2022-03-13T12:34:07+01:00,71,29.67,16.54,1006.12,37.20,39.10,0,-127.00,"$GNGGA,000116.263,4901.6046,N,00827.2306,E,0,0,,102.1,M,47.9,M,,*56",,,,
2022-03-13T12:34:28+01:00,72,29.56,17.03,1006.12,33.30,35.00,0,-127.00,"$GNGGA,000137.263,4901.6046,N,00827.2306,E,0,0,,102.1,M,47.9,M,,*55",,,,
2022-03-13T12:34:52+01:00,73,29.48,16.91,1006.12,32.60,34.30,0,-127.00,"$GNGGA,000158.263,4901.6046,N,00827.2306,E,0,0,,102.1,M,47.9,M,,*5C",,,,
2022-03-13T12:35:15+01:00,74,29.47,16.76,1006.17,34.20,36.00,0,-127.00,"$GNGGA,000224.263,4901.6046,N,00827.2306,E,0,0,,102.1,M,47.9,M,,*54",,,,
2022-03-13T12:35:39+01:00,75,29.53,16.08,1006.11,36.30,38.20,0,-127.00,"$GNGGA,000247.263,4901.6046,N,00827.2306,E,0,0,,102.1,M,47.9,M,,*51",,,,
2022-03-13T12:39:05+01:00,76,27.28,11.77,1005.95,64.40,86.60,0,-127.00,"$GNGGA,113900.089,4904.3164,N,00834.2545,E,0,1,,145.7,M,48.0,M,,*5C",,,,
2022-03-13T12:39:28+01:00,77,26.67,12.31,1005.94,51.50,54.10,0,-127.00,"$GNGGA,113923.000,4928.7765,N,00828.2598,E,1,4,2.23,103.3,M,47.9,M,,*45",,,,
2022-03-13T12:39:50+01:00,78,26.33,12.65,1005.91,48.10,50.60,0,-127.00,"$GNGGA,113945.000,4928.7763,N,00828.2397,E,1,4,2.22,112.5,M,47.9,M,,*4D",,,,
2022-03-13T12:40:11+01:00,79,26.17,12.83,1005.89,47.20,49.60,0,-127.00,"$GNGGA,114006.000,4928.7877,N,00828.2251,E,1,5,2.07,101.3,M,47.9,M,,*47",,,,
2022-03-13T12:40:33+01:00,80,26.14,13.01,1005.88,47.20,49.60,0,-127.00,"$GNGGA,114028.000,4928.7925,N,00828.2191,E,1,6,1.22,101.7,M,47.9,M,,*41",,,,
2022-03-13T12:40:54+01:00,81,26.15,12.62,1005.85,47.50,49.90,0,-127.00,"$GNGGA,114049.000,4928.7978,N,00828.2120,E,1,6,1.22,106.3,M,47.9,M,,*47",,,,
2022-03-13T12:41:15+01:00,82,26.22,12.75,1005.84,47.00,49.40,0,-127.00,"$GNGGA,114110.000,4928.8064,N,00828.2100,E,1,7,1.25,111.7,M,47.9,M,,*47",,,,
2022-03-13T12:41:37+01:00,83,26.03,12.31,1005.83,46.70,49.10,0,-127.00,"$GNGGA,114132.000,4928.8184,N,00828.2120,E,1,7,1.24,107.9,M,47.9,M,,*42",,,,
2022-03-13T12:41:58+01:00,84,25.77,12.76,1005.83,46.90,49.30,0,-127.00,"$GNGGA,114153.000,4928.8302,N,00828.2213,E,1,6,1.21,104.7,M,47.9,M,,*43",,,,
2022-03-13T12:53:36+01:00,85,20.11,18.26,1005.64,42.40,44.60,0,-127.00,"$GNGGA,115331.094,4929.0642,N,00828.5676,E,0,3,,102.1,M,47.9,M,,*59",,,,
2022-03-13T12:53:58+01:00,86,19.94,18.61,1005.68,57.30,70.60,0,-127.00,"$GNGGA,115352.000,4929.0782,N,00828.5728,E,1,5,2.89,160.1,M,47.9,M,,*48",,,,
2022-03-13T12:54:22+01:00,87,19.86,18.29,1005.73,54.20,57.00,0,-127.00,"$GNGGA,115416.000,4929.0639,N,00828.5854,E,1,5,2.88,140.2,M,47.9,M,,*4A",,,,
2022-03-13T12:54:43+01:00,88,19.82,17.84,1005.79,49.60,52.10,0,-127.00,"$GNGGA,115438.000,4929.0490,N,00828.5996,E,1,5,2.87,125.4,M,47.9,M,,*42",,,,
2022-03-13T12:55:05+01:00,89,19.85,17.81,1005.84,48.20,50.70,0,-127.00,"$GNGGA,115500.000,4929.0374,N,00828.6237,E,1,5,2.87,115.4,M,47.9,M,,*45",,,,
2022-03-13T12:55:27+01:00,90,19.95,17.78,1005.86,46.90,49.70,0,-127.00,"$GNGGA,115522.000,4929.0366,N,00828.6419,E,1,6,1.64,105.6,M,47.9,M,,*42",,,,
2022-03-13T12:55:48+01:00,91,20.10,18.31,1005.88,44.60,46.90,0,-127.00,"$GNGGA,115543.000,4929.0472,N,00828.6421,E,1,8,0.98,99.3,M,47.9,M,,*71",,,,
2022-03-13T12:56:11+01:00,92,20.26,18.42,1005.91,45.10,47.40,0,-127.00,"$GNGGA,115605.000,4929.0538,N,00828.6249,E,1,9,0.91,98.3,M,47.9,M,,*7E",,,,
2022-03-13T12:56:35+01:00,93,20.41,18.47,1005.91,47.90,50.30,0,-127.00,"$GNGGA,115629.000,4929.0624,N,00828.6087,E,1,9,0.91,98.7,M,47.9,M,,*7A",,,,
2022-03-13T12:56:59+01:00,94,20.57,18.71,1005.91,49.60,52.10,0,-127.00,"$GNGGA,115654.000,4929.0697,N,00828.5886,E,1,9,0.91,97.1,M,47.9,M,,*7B",,,,
2022-03-13T12:57:21+01:00,95,20.77,17.76,1005.86,48.20,50.70,0,-127.00,"$GNGGA,115716.000,4929.0785,N,00828.5816,E,1,9,0.91,99.4,M,47.9,M,,*7C",,,,
2022-03-13T12:57:43+01:00,96,20.82,16.87,1005.81,46.70,49.10,0,-127.00,"$GNGGA,115738.000,4929.0741,N,00828.5716,E,1,9,0.91,100.3,M,47.9,M,,*41",,,,
2022-03-13T13:00:18+01:00,97,20.58,16.53,1005.39,38.10,40.10,2,-127.00,"$GNGGA,120012.000,4929.0375,N,00828.5457,E,1,9,0.91,107.3,M,47.9,M,,*4A",,,,
2022-03-13T13:00:39+01:00,98,20.68,16.63,1005.27,43.40,45.60,2,-127.00,"$GNGGA,120034.000,4929.0401,N,00828.5506,E,1,9,0.91,110.9,M,47.9,M,,*43",,,,
2022-03-13T13:01:01+01:00,99,20.87,17.43,1005.20,42.10,44.30,2,-127.00,"$GNGGA,120056.000,4929.0430,N,00828.5448,E,1,9,0.91,113.0,M,47.9,M,,*44",,,,
2022-03-13T13:01:22+01:00,100,21.06,17.31,1005.14,38.20,40.20,2,-127.00,"$GNGGA,120117.000,4929.0431,N,00828.5437,E,1,10,0.87,116.7,M,47.9,M,,*74",,,,
2022-03-13T13:01:44+01:00,101,21.23,17.11,1005.09,36.80,38.70,2,-127.00,"$GNGGA,120138.000,4929.0392,N,00828.5447,E,1,10,0.87,118.0,M,47.9,M,,*79",,,,
2022-03-13T13:02:05+01:00,102,21.40,17.23,1005.07,39.80,41.80,2,-127.00,"$GNGGA,120200.000,4929.0341,N,00828.5547,E,1,10,0.87,127.5,M,47.9,M,,*77",,,,
2022-03-13T13:02:26+01:00,103,21.59,16.76,1005.04,43.00,45.20,2,-127.00,"$GNGGA,120221.000,4929.0381,N,00828.5539,E,1,9,0.91,123.9,M,47.9,M,,*46",,,,
2022-03-13T13:02:47+01:00,104,21.81,17.03,1005.02,43.00,45.20,2,-127.00,"$GNGGA,120242.000,4929.0385,N,00828.5525,E,1,10,0.87,117.9,M,47.9,M,,*72",,,,
2022-03-13T13:03:10+01:00,105,22.03,16.21,1005.01,45.70,48.00,2,-127.00,"$GNGGA,120304.000,4929.0391,N,00828.5502,E,1,9,0.91,116.1,M,47.9,M,,*47",,,,
2022-03-13T13:03:31+01:00,106,22.20,15.37,1005.01,49.60,52.10,2,-127.00,"$GNGGA,120326.000,4929.0392,N,00828.5520,E,2,10,0.83,113.2,M,47.9,M,,*7A",,,,
2022-03-13T13:03:53+01:00,107,22.35,15.19,1005.00,51.20,53.80,2,-127.00,"$GNGGA,120348.000,4929.0381,N,00828.5550,E,2,10,0.83,115.4,M,47.9,M,,*77",,,,
2022-03-13T13:04:16+01:00,108,22.53,15.36,1005.00,49.50,52.00,2,-127.00,"$GNGGA,120410.000,4929.0376,N,00828.5551,E,2,10,0.94,116.6,M,47.9,M,,*73",,,,
2022-03-13T13:04:37+01:00,109,22.72,15.24,1005.00,47.20,49.60,2,-127.00,"$GNGGA,120432.000,4929.0388,N,00828.5539,E,2,10,0.83,113.2,M,47.9,M,,*7B",,,,
2022-03-13T13:05:00+01:00,110,22.88,15.01,1005.00,45.40,47.70,2,-127.00,"$GNGGA,120454.000,4929.0345,N,00828.5537,E,2,10,0.79,119.9,M,47.9,M,,*70",,,,
2022-03-13T13:05:35+01:00,111,22.99,15.18,1004.99,45.50,47.80,2,-127.00,"$GNGGA,120522.000,4929.0317,N,00828.5562,E,2,11,0.79,133.9,M,47.9,M,,*7E",,,,
2022-03-13T13:05:58+01:00,112,23.14,15.22,1004.98,48.70,51.20,2,-127.00,"$GNGGA,120552.000,4929.0355,N,00828.5551,E,2,11,0.79,129.8,M,47.9,M,,*75",,,,
2022-03-13T13:06:19+01:00,113,23.28,15.14,1004.98,48.20,50.70,2,-127.00,"$GNGGA,120614.000,4929.0368,N,00828.5553,E,2,10,0.79,130.9,M,47.9,M,,*70",,,,
2022-03-13T13:06:47+01:00,114,23.44,14.76,1004.97,45.80,48.10,2,-127.00,"$GNGGA,120639.000,4929.0376,N,00828.5570,E,2,11,0.79,133.5,M,47.9,M,,*7F",,,,
2022-03-13T13:07:13+01:00,115,23.63,14.47,1004.95,46.90,49.30,2,-127.00,"$GNGGA,120707.000,4929.0415,N,00828.5569,E,2,11,0.79,132.8,M,47.9,M,,*75",,,,
2022-03-13T13:07:37+01:00,116,23.81,14.41,1005.03,52.00,54.70,2,-127.00,"$GNGGA,120730.000,4929.0534,N,00828.5341,E,2,11,0.79,106.4,M,47.9,M,,*74",,,,
2022-03-13T13:08:00+01:00,117,23.98,14.00,1005.16,56.90,59.80,2,-127.00,"$GNGGA,120754.000,4929.0490,N,00828.5270,E,2,10,0.81,99.6,M,47.9,M,,*49",,,,
2022-03-13T13:08:25+01:00,118,23.97,13.78,1005.27,54.20,57.00,2,-127.00,"$GNGGA,120819.000,4929.0611,N,00828.5212,E,2,12,0.75,97.4,M,47.9,M,,*45",,,,
2022-03-13T13:08:48+01:00,119,23.87,14.09,1005.35,52.40,55.10,2,-127.00,"$GNGGA,120842.000,4929.0677,N,00828.5039,E,2,12,0.75,96.4,M,47.9,M,,*41",,,,
2022-03-13T13:13:24+01:00,120,23.37,14.89,1005.54,47.30,49.70,0,-127.00,"$GNGGA,000021.256,4929.0609,N,00828.4889,E,0,0,,102.1,M,47.9,M,,*51",,,,
2022-03-13T13:13:46+01:00,121,23.14,14.92,1005.54,45.80,48.10,0,-127.00,"$GNGGA,121341.000,4929.1084,N,00828.3770,E,1,8,0.94,85.4,M,47.9,M,,*7A",,,,
2022-03-13T13:14:12+01:00,122,23.01,15.03,1005.54,46.00,48.40,0,-127.00,"$GNGGA,121406.000,4929.1172,N,00828.3553,E,1,8,0.94,84.6,M,47.9,M,,*76",,,,
2022-03-13T13:14:34+01:00,123,22.95,15.05,1005.54,44.70,47.00,0,-127.00,"$GNGGA,121429.000,4929.1241,N,00828.3372,E,1,8,0.94,84.9,M,47.9,M,,*72",,,,
2022-03-13T13:14:58+01:00,124,22.84,14.69,1005.53,43.90,46.10,0,-127.00,"$GNGGA,121453.000,4929.1336,N,00828.3121,E,1,8,0.94,92.0,M,47.9,M,,*74",,,,
2022-03-13T13:15:22+01:00,125,22.81,15.00,1005.52,45.20,47.50,0,-127.00,"$GNGGA,121516.000,4929.1408,N,00828.2977,E,1,8,0.95,91.9,M,47.9,M,,*7F",,,,
2022-03-13T13:15:44+01:00,126,22.83,15.10,1005.51,46.40,48.80,0,-127.00,"$GNGGA,121538.000,4929.1437,N,00828.2817,E,1,8,0.94,95.1,M,47.9,M,,*75",,,,
2022-03-13T13:16:11+01:00,127,22.87,15.12,1005.50,47.00,49.40,0,-127.00,"$GNGGA,121602.000,4929.1523,N,00828.2659,E,1,8,0.94,92.2,M,47.9,M,,*7B",,,,
2022-03-13T13:16:34+01:00,128,22.82,14.75,1005.49,46.60,49.00,0,-127.00,"$GNGGA,121629.000,4929.1645,N,00828.2364,E,1,8,0.94,93.6,M,47.9,M,,*7F",,,,
2022-03-13T13:16:58+01:00,129,22.65,14.70,1005.47,45.30,47.60,0,-127.00,"$GNGGA,121652.000,4929.1683,N,00828.2149,E,1,8,0.94,103.2,M,47.9,M,,*48",,,,
2022-03-13T13:17:22+01:00,130,22.56,14.83,1005.45,45.60,47.90,0,-127.00,"$GNGGA,121715.000,4929.1730,N,00828.2007,E,1,9,0.88,105.7,M,47.9,M,,*47",,,,
2022-03-13T13:18:02+01:00,131,22.57,14.95,1005.44,43.30,45.50,0,-127.00,"$GNGGA,121740.000,4929.1798,N,00828.1771,E,1,9,0.88,114.9,M,47.9,M,,*4E",,,,
2022-03-13T13:24:40+01:00,132,19.05,17.78,1005.37,48.10,50.60,0,-127.00,"$GNGGA,122434.000,4929.3655,N,00827.9795,E,1,6,1.72,197.9,M,47.9,M,,*42",,,,
2022-03-13T13:25:01+01:00,133,18.96,17.83,1005.37,46.70,49.10,0,-127.00,"$GNGGA,122456.000,4929.3759,N,00828.0114,E,1,6,1.64,138.0,M,47.9,M,,*49",,,,
2022-03-13T13:25:23+01:00,134,19.04,17.50,1005.38,45.60,47.90,0,-127.00,"$GNGGA,122518.000,4929.3797,N,00828.0354,E,1,9,0.99,104.5,M,47.9,M,,*40",,,,
2022-03-13T13:25:45+01:00,135,19.24,17.38,1005.39,47.10,49.50,0,-127.00,"$GNGGA,122540.000,4929.3791,N,00828.0348,E,1,9,0.99,103.8,M,47.9,M,,*4C",,,,
2022-03-13T13:26:08+01:00,136,19.50,17.21,1005.39,48.60,51.10,0,-127.00,"$GNGGA,122602.000,4929.3791,N,00828.0351,E,1,10,0.84,103.5,M,47.9,M,,*78",,,,
2022-03-13T13:26:29+01:00,137,19.75,16.97,1005.39,52.20,54.90,0,-127.00,"$GNGGA,122624.000,4929.3857,N,00828.0302,E,1,12,0.79,102.1,M,47.9,M,,*7A",,,,
2022-03-13T13:26:51+01:00,138,20.01,16.61,1005.40,64.50,67.80,0,-127.00,"$GNGGA,122646.000,4929.3871,N,00828.0291,E,1,12,0.78,99.9,M,47.9,M,,*4B",,,,
2022-03-13T13:27:14+01:00,139,20.21,16.37,1005.41,84.90,89.20,0,-127.00,"$GNGGA,122708.000,4929.3965,N,00828.0283,E,1,12,0.78,96.1,M,47.9,M,,*40",,,,
2022-03-13T13:27:36+01:00,140,20.41,16.66,1005.42,92.90,97.60,0,-127.00,"$GNGGA,122730.000,4929.4003,N,00828.0356,E,1,11,0.82,98.0,M,47.9,M,,*45",,,,
2022-03-13T14:01:53+01:00,141,25.91,13.37,1005.03,62.70,81.90,0,-127.00,"$GNGGA,130148.000,4929.4011,N,00828.0428,E,1,7,1.53,113.7,M,47.9,M,,*4D",,,,
2022-03-13T14:02:16+01:00,142,25.61,13.36,1005.04,60.40,63.50,0,-127.00,"$GNGGA,130210.000,4929.4134,N,00828.0406,E,1,8,1.34,110.4,M,47.9,M,,*47",,,,
2022-03-13T14:02:49+01:00,143,25.36,13.58,1005.06,54.50,57.30,0,-127.00,"$GNGGA,130243.000,4929.4427,N,00828.0081,E,1,8,1.59,94.1,M,47.9,M,,*7E",,,,
2022-03-13T14:03:16+01:00,144,25.02,13.64,1005.08,63.80,67.00,0,-127.00,"$GNGGA,130307.000,4929.4391,N,00827.9858,E,1,8,1.34,96.8,M,47.9,M,,*7F",,,,
2022-03-13T14:03:42+01:00,145,24.67,13.96,1005.10,55.00,57.80,0,-127.00,"$GNGGA,130336.000,4929.4580,N,00827.9573,E,1,8,1.34,94.6,M,47.9,M,,*73",,,,
2022-03-13T14:04:03+01:00,146,24.34,14.14,1005.12,51.90,54.50,0,-127.00,"$GNGGA,130358.000,4929.4531,N,00827.9347,E,1,7,1.90,96.6,M,47.9,M,,*73",,,,
2022-03-13T14:39:57+01:00,147,20.95,17.32,1004.96,48.10,50.60,0,-127.00,"$GNGGA,133951.000,4929.4702,N,00827.8764,E,1,4,1.89,125.3,M,47.9,M,,*42",,,,
2022-03-13T14:48:16+01:00,148,22.26,17.39,1004.55,45.40,47.70,0,-127.00,"$GNGGA,134811.000,4929.4675,N,00828.0116,E,1,4,1.76,161.4,M,47.9,M,,*42",,,,
2022-03-13T14:48:37+01:00,149,22.07,17.54,1004.56,45.60,47.90,0,-127.00,"$GNGGA,134832.000,4929.4008,N,00828.0558,E,1,9,1.06,133.0,M,47.9,M,,*48",,,,
2022-03-13T14:49:00+01:00,150,21.98,17.42,1004.58,44.50,46.80,0,-127.00,"$GNGGA,134854.000,4929.3871,N,00828.0697,E,1,10,1.01,125.3,M,47.9,M,,*72",,,,
2022-03-13T14:49:22+01:00,151,21.96,17.78,1004.58,43.80,46.00,0,-127.00,"$GNGGA,134916.000,4929.3852,N,00828.0719,E,1,10,1.01,121.6,M,47.9,M,,*72",,,,
2022-03-13T14:49:44+01:00,152,21.99,18.04,1004.59,44.00,46.30,0,-127.00,"$GNGGA,134938.000,4929.3867,N,00828.0737,E,1,10,1.01,131.3,M,47.9,M,,*70",,,,
2022-03-13T14:50:06+01:00,153,22.05,17.89,1004.59,43.90,46.10,0,-127.00,"$GNGGA,135000.000,4929.3833,N,00828.0758,E,1,11,0.98,126.8,M,47.9,M,,*76",,,,
2022-03-13T14:50:28+01:00,154,22.13,17.75,1004.59,40.70,42.80,0,-127.00,"$GNGGA,135022.000,4929.3819,N,00828.0769,E,1,11,1.26,123.2,M,47.9,M,,*77",,,,
2022-03-13T14:50:50+01:00,155,22.23,17.44,1004.59,40.60,42.70,0,-127.00,"$GNGGA,135044.000,4929.3811,N,00828.0770,E,1,11,1.25,122.2,M,47.9,M,,*75",,,,
2022-03-13T14:51:12+01:00,156,22.33,16.35,1004.58,42.30,44.50,0,-127.00,"$GNGGA,135106.000,4929.3760,N,00828.0801,E,1,11,1.25,117.4,M,47.9,M,,*72",,,,
2022-03-13T14:51:34+01:00,157,22.42,16.99,1004.66,43.20,45.40,0,-127.00,"$GNGGA,135128.000,4929.3757,N,00828.0775,E,1,10,1.10,113.2,M,47.9,M,,*73",,,,
2022-03-13T14:51:56+01:00,158,22.55,17.68,1004.75,42.70,44.90,0,-127.00,"$GNGGA,135150.000,4929.4165,N,00828.1200,E,1,11,0.98,110.0,M,47.9,M,,*7B",,,,
2022-03-13T14:52:18+01:00,159,22.67,17.52,1004.81,39.80,41.80,0,-127.00,"$GNGGA,135212.000,4929.4621,N,00828.1639,E,1,11,0.98,107.4,M,47.9,M,,*75",,,,
2022-03-13T14:52:40+01:00,160,22.78,17.64,1004.85,38.60,40.60,0,-127.00,"$GNGGA,135234.000,4929.5029,N,00828.1946,E,1,11,0.98,108.7,M,47.9,M,,*75",,,,
2022-03-13T14:53:02+01:00,161,22.88,17.77,1004.87,35.20,37.00,0,-127.00,"$GNGGA,135256.000,4929.5038,N,00828.2003,E,1,11,0.98,111.2,M,47.9,M,,*77",,,,
2022-03-13T14:53:24+01:00,162,22.97,17.88,1004.88,33.60,35.30,0,-127.00,"$GNGGA,135318.000,4929.5064,N,00828.2010,E,1,14,0.77,109.9,M,47.9,M,,*71",,,,
2022-03-13T14:53:46+01:00,163,23.07,17.93,1004.87,33.30,35.00,0,-127.00,"$GNGGA,135340.000,4929.5455,N,00828.2307,E,1,14,1.06,139.6,M,47.9,M,,*74",,,,
2022-03-13T14:54:08+01:00,164,23.16,17.99,1004.85,34.50,36.30,0,-127.00,"$GNGGA,135402.000,4929.5655,N,00828.2392,E,1,15,0.76,121.1,M,47.9,M,,*72",,,,
2022-03-13T14:54:30+01:00,165,23.25,18.36,1004.83,37.00,38.90,0,-127.00,"$GNGGA,135424.000,4929.5684,N,00828.3073,E,1,15,0.77,115.2,M,47.9,M,,*72",,,,
2022-03-13T14:57:15+01:00,166,25.75,18.30,1004.81,39.50,41.50,0,-127.00,"$GNGGA,135709.000,4929.3673,N,00829.1078,E,1,10,1.04,113.9,M,47.9,M,,*75",,,,
2022-03-13T14:57:36+01:00,167,25.66,18.97,1004.82,39.70,41.70,0,-127.00,"$GNGGA,135731.000,4929.3630,N,00829.1110,E,6,0,99.99,108.7,M,47.9,M,,*71",,,,
2022-03-13T14:57:59+01:00,168,25.63,19.09,1004.81,39.20,41.20,0,-127.00,"$GNGGA,135753.000,4929.2889,N,00829.3347,E,1,11,0.90,73.6,M,47.9,M,,*48",,,,
2022-03-13T14:59:07+01:00,169,25.69,19.19,1004.81,47.30,49.70,0,-127.00,"$GNGGA,135815.000,4929.2211,N,00829.5627,E,1,11,0.90,69.0,M,47.9,M,,*46",,,,
2022-03-13T14:59:43+01:00,170,25.90,18.32,1004.77,40.70,42.80,0,-127.00,"$GNGGA,135937.000,4929.0396,N,00830.1796,E,2,12,0.85,83.1,M,47.9,M,,*4D",,,,
2022-03-13T15:00:34+01:00,171,26.16,17.84,1004.78,50.80,53.40,0,-127.00,"$GNGGA,140000.000,4928.9259,N,00830.5669,E,2,12,0.85,85.9,M,47.9,M,,*43",,,,
2022-03-13T15:23:43+01:00,172,34.80,17.56,1002.77,47.00,49.40,0,-127.00,"$GNGGA,142355.086,4926.3869,N,00837.1475,E,0,0,,102.0,M,48.0,M,,*5E",,,,
2022-03-13T15:24:12+01:00,173,34.70,16.93,1002.91,50.80,53.40,0,-127.00,"$GNGGA,142401.000,4924.9147,N,00838.9624,E,1,7,1.36,122.2,M,48.0,M,,*46",,,,
2022-03-13T15:24:34+01:00,174,34.72,17.70,1002.87,55.50,58.30,0,-127.00,"$GNGGA,142429.000,4924.8723,N,00838.9714,E,1,7,1.54,115.0,M,48.0,M,,*49",,,,
2022-03-13T15:32:20+01:00,175,36.41,17.36,1002.56,45.60,47.90,0,-127.00,"$GNGGA,000030.354,4924.2954,N,00840.8909,E,0,0,,102.0,M,48.0,M,,*56",,,,
2022-03-13T15:33:58+01:00,176,36.87,18.11,1002.51,48.80,51.30,0,-127.00,"$GNGGA,143353.093,4924.4690,N,00841.8036,E,0,3,,383.6,M,48.0,M,,*55",,,,
2022-03-13T15:34:20+01:00,177,36.76,20.14,1002.50,50.80,53.40,0,-127.00,"$GNGGA,143415.000,4924.4399,N,00841.5624,E,1,4,3.74,152.5,M,48.0,M,,*4B",,,,
2022-03-13T15:34:42+01:00,178,36.75,20.99,1002.54,50.40,53.00,0,-127.00,"$GNGGA,143437.000,4924.4700,N,00841.5361,E,1,5,1.51,174.0,M,48.0,M,,*4E",,,,
2022-03-13T15:35:03+01:00,179,36.79,20.87,1002.51,47.20,49.60,0,-127.00,"$GNGGA,143458.000,4924.5145,N,00841.5440,E,1,5,1.92,177.0,M,48.0,M,,*49",,,,
2022-03-13T15:35:26+01:00,180,36.84,20.01,1002.50,46.90,49.30,0,-127.00,"$GNGGA,143520.000,4924.5613,N,00841.5725,E,1,6,1.28,160.6,M,48.0,M,,*41",,,,
2022-03-13T15:35:51+01:00,181,36.92,15.52,1002.47,48.10,50.60,0,-127.00,"$GNGGA,143545.000,4924.5735,N,00841.5831,E,1,6,1.28,177.7,M,48.0,M,,*4A",,,,
2022-03-13T17:18:42+01:00,182,24.17,17.81,992.62,44.40,46.70,0,-127.00,"$GNGGA,161837.000,4924.9979,N,00842.2957,E,1,4,2.42,189.6,M,48.0,M,,*40",,,,
2022-03-13T17:19:04+01:00,183,23.94,17.37,992.66,45.80,48.10,0,-127.00,"$GNGGA,161859.000,4924.9910,N,00842.2743,E,1,5,2.30,184.6,M,48.0,M,,*45",,,,
2022-03-13T17:19:26+01:00,184,23.80,16.93,992.71,44.60,46.90,0,-127.00,"$GNGGA,161921.000,4924.9834,N,00842.2532,E,1,6,1.57,184.9,M,48.0,M,,*46",,,,
2022-03-13T17:19:48+01:00,185,23.70,17.44,992.79,41.80,43.90,0,-127.00,"$GNGGA,161943.000,4924.9790,N,00842.2350,E,1,6,1.57,183.5,M,48.0,M,,*4A",,,,
2022-03-13T17:20:10+01:00,186,23.66,17.33,992.85,40.20,42.30,0,-127.00,"$GNGGA,162005.000,4924.9738,N,00842.2150,E,1,6,1.57,184.5,M,48.0,M,,*45",,,,
2022-03-13T17:20:33+01:00,187,23.64,17.39,992.92,40.90,43.00,0,-127.00,"$GNGGA,162028.000,4924.9683,N,00842.1927,E,1,7,1.40,185.1,M,48.0,M,,*42",,,,
2022-03-13T17:20:57+01:00,188,23.61,17.47,993.00,40.90,43.00,0,-127.00,"$GNGGA,162051.000,4924.9578,N,00842.1729,E,1,7,1.39,187.1,M,48.0,M,,*47",,,,
2022-03-13T17:21:20+01:00,189,23.51,16.78,993.07,43.40,45.60,0,-127.00,"$GNGGA,162115.000,4924.9497,N,00842.1512,E,1,7,1.39,189.0,M,48.0,M,,*43",,,,
2022-03-13T17:21:42+01:00,190,23.44,17.01,993.14,42.60,44.80,0,-127.00,"$GNGGA,162137.000,4924.9419,N,00842.1298,E,1,7,1.39,186.9,M,48.0,M,,*46",,,,
2022-03-13T17:22:06+01:00,191,23.36,17.02,993.21,44.10,46.40,0,-127.00,"$GNGGA,162200.000,4924.9338,N,00842.1073,E,1,7,2.01,188.5,M,48.0,M,,*48",,,,
2022-03-13T17:22:29+01:00,192,23.29,17.14,993.32,46.10,48.50,0,-127.00,"$GNGGA,162224.000,4924.9270,N,00842.0846,E,1,7,1.39,189.3,M,48.0,M,,*43",,,,
2022-03-13T17:22:51+01:00,193,23.13,17.39,993.44,44.70,47.00,0,-127.00,"$GNGGA,162246.000,4924.9225,N,00842.0605,E,1,7,1.39,189.6,M,48.0,M,,*4B",,,,
2022-03-13T17:23:14+01:00,194,22.96,17.53,993.55,42.20,44.40,0,-127.00,"$GNGGA,162309.000,4924.9196,N,00842.0355,E,1,7,1.34,188.6,M,48.0,M,,*46",,,,
2022-03-13T17:23:37+01:00,195,22.86,17.97,993.69,41.40,43.50,0,-127.00,"$GNGGA,162332.000,4924.9134,N,00842.0130,E,1,8,1.15,187.2,M,48.0,M,,*40",,,,
2022-03-13T17:24:02+01:00,196,22.74,17.44,993.89,43.90,46.10,0,-127.00,"$GNGGA,162357.000,4924.8958,N,00842.0020,E,2,8,1.15,176.3,M,48.0,M,,*4C",,,,
2022-03-13T17:24:25+01:00,197,22.72,18.37,994.09,45.80,48.10,0,-127.00,"$GNGGA,162420.000,4924.8857,N,00841.9867,E,2,8,1.15,171.9,M,48.0,M,,*49",,,,
2022-03-13T17:24:49+01:00,198,22.76,18.45,994.33,42.00,44.20,0,-127.00,"$GNGGA,162442.000,4924.8912,N,00841.9647,E,2,8,1.15,173.9,M,48.0,M,,*43",,,,
2022-03-13T17:25:12+01:00,199,22.64,17.97,994.61,39.30,41.30,0,-127.00,"$GNGGA,162507.000,4924.8933,N,00841.9333,E,2,8,1.15,177.7,M,48.0,M,,*4C",,,,
2022-03-13T17:25:34+01:00,200,22.43,17.95,994.88,40.20,42.30,0,-127.00,"$GNGGA,162529.000,4924.8970,N,00841.9100,E,2,8,1.27,180.3,M,48.0,M,,*48",,,,
2022-03-13T17:25:56+01:00,201,22.21,18.11,995.16,42.50,44.70,0,-127.00,"$GNGGA,162551.000,4924.8983,N,00841.8897,E,2,8,1.15,176.8,M,48.0,M,,*4E",,,,
2022-03-13T17:26:19+01:00,202,22.04,18.15,995.44,44.80,47.10,0,-127.00,"$GNGGA,162614.000,4924.8995,N,00841.8660,E,2,8,1.15,175.1,M,48.0,M,,*47",,,,
2022-03-13T17:26:41+01:00,203,21.90,18.32,995.71,45.30,47.60,0,-127.00,"$GNGGA,162636.000,4924.9016,N,00841.8516,E,2,8,1.15,172.6,M,48.0,M,,*46",,,,
2022-03-13T17:27:18+01:00,204,21.89,18.82,995.93,43.10,45.30,0,-127.00,"$GNGGA,162702.000,4924.8999,N,00841.8482,E,2,8,1.15,172.5,M,48.0,M,,*40",,,,
2022-03-13T17:27:46+01:00,205,21.91,18.16,996.15,40.10,42.20,0,-127.00,"$GNGGA,162741.000,4924.9021,N,00841.8352,E,2,10,0.98,168.6,M,48.0,M,,*73",,,,
2022-03-13T17:28:08+01:00,206,21.93,17.70,996.38,43.10,45.30,0,-127.00,"$GNGGA,162803.000,4924.9056,N,00841.8200,E,2,10,0.98,164.3,M,48.0,M,,*75",,,,
2022-03-13T17:28:30+01:00,207,21.96,17.91,996.66,44.00,46.30,0,-127.00,"$GNGGA,162825.000,4924.9078,N,00841.8027,E,2,10,0.98,163.2,M,48.0,M,,*7C",,,,
2022-03-13T17:28:52+01:00,208,22.03,18.25,996.98,44.10,46.40,0,-127.00,"$GNGGA,162847.000,4924.9104,N,00841.7833,E,2,10,0.98,158.0,M,48.0,M,,*7A",,,,
2022-03-13T17:29:14+01:00,209,22.09,18.37,997.36,43.30,45.50,0,-127.00,"$GNGGA,162909.000,4924.9196,N,00841.7663,E,2,10,0.98,150.4,M,48.0,M,,*7D",,,,
2022-03-13T17:29:38+01:00,210,22.11,17.72,997.76,45.20,47.50,0,-127.00,"$GNGGA,162932.000,4924.9184,N,00841.7430,E,2,10,0.98,144.4,M,48.0,M,,*77",,,,
2022-03-13T17:30:00+01:00,211,22.08,17.70,998.20,46.80,49.20,0,-127.00,"$GNGGA,162954.000,4924.9154,N,00841.7212,E,2,10,0.98,138.8,M,48.0,M,,*7B",,,,
2022-03-13T17:30:21+01:00,212,21.98,18.12,998.64,47.90,50.30,0,-127.00,"$GNGGA,163016.000,4924.9029,N,00841.7114,E,2,9,1.17,129.1,M,48.0,M,,*4C",,,,
2022-03-13T17:30:44+01:00,213,21.78,18.22,999.07,46.50,48.90,0,-127.00,"$GNGGA,163038.000,4924.8943,N,00841.6932,E,2,10,0.98,129.2,M,48.0,M,,*74",,,,
2022-03-13T17:31:06+01:00,214,21.63,18.25,999.51,44.80,47.10,0,-127.00,"$GNGGA,163100.000,4924.8898,N,00841.6664,E,2,10,1.03,129.4,M,48.0,M,,*70",,,,
2022-03-13T17:54:16+01:00,215,24.36,17.47,1002.02,42.70,44.90,3,-127.00,"$GNGGA,165409.000,4924.6958,N,00841.5787,E,1,6,1.54,115.4,M,48.0,M,,*4F",,,,
2022-03-13T17:54:40+01:00,216,23.97,17.41,1002.05,46.80,49.20,3,-127.00,"$GNGGA,165433.000,4924.6957,N,00841.5807,E,1,6,1.54,116.5,M,48.0,M,,*4C",,,,
2022-03-13T17:55:13+01:00,217,23.72,17.09,1002.08,48.60,51.10,3,-127.00,"$GNGGA,165501.000,4924.6913,N,00841.5861,E,1,9,1.08,126.2,M,48.0,M,,*4E",,,,
2022-03-13T17:55:37+01:00,218,23.53,16.74,1002.11,45.80,48.10,3,-127.00,"$GNGGA,165531.000,4924.6857,N,00841.5873,E,1,8,1.21,124.5,M,48.0,M,,*40",,,,
2022-03-13T17:56:01+01:00,219,23.44,16.53,1002.14,44.80,47.10,3,-127.00,"$GNGGA,165555.000,4924.6820,N,00841.5884,E,1,8,1.20,122.6,M,48.0,M,,*4E",,,,
2022-03-13T17:56:25+01:00,220,23.43,16.67,1002.17,44.50,46.80,3,-127.00,"$GNGGA,165617.000,4924.6821,N,00841.5886,E,1,9,1.08,124.4,M,48.0,M,,*47",,,,
2022-03-13T17:56:49+01:00,221,23.44,16.77,1002.18,46.70,49.10,3,-127.00,"$GNGGA,165643.000,4924.6776,N,00841.5845,E,1,9,1.08,129.2,M,48.0,M,,*4F",,,,
2022-03-13T17:57:11+01:00,222,23.49,16.76,1002.19,46.20,48.60,3,-127.00,"$GNGGA,165705.000,4924.6776,N,00841.5799,E,1,10,0.94,133.7,M,48.0,M,,*70",,,,
2022-03-13T17:57:33+01:00,223,23.38,16.23,1002.21,46.60,49.00,3,-127.00,"$GNGGA,165727.000,4924.6605,N,00841.5828,E,1,9,1.03,131.2,M,48.0,M,,*40",,,,
2022-03-13T17:58:00+01:00,224,23.27,16.46,1002.22,45.40,47.70,3,-127.00,"$GNGGA,165750.000,4924.6376,N,00841.5707,E,1,10,0.94,130.1,M,48.0,M,,*76",,,,
2022-03-13T17:58:25+01:00,225,23.21,16.55,1002.24,48.30,50.80,3,-127.00,"$GNGGA,165816.000,4924.6144,N,00841.5710,E,2,10,0.94,138.5,M,48.0,M,,*71",,,,
2022-03-13T18:00:46+01:00,226,23.15,16.61,1002.26,47.20,49.60,3,-127.00,"$GNGGA,170041.000,4924.5614,N,00841.6020,E,2,9,1.04,133.5,M,48.0,M,,*42",,,,
2022-03-13T18:01:08+01:00,227,23.06,16.15,1002.27,42.80,45.00,3,-127.00,"$GNGGA,170103.000,4924.5561,N,00841.6054,E,2,9,1.04,132.3,M,48.0,M,,*40",,,,
2022-03-13T18:01:31+01:00,228,23.05,16.14,1002.28,44.30,46.60,3,-127.00,"$GNGGA,170125.000,4924.5497,N,00841.5912,E,2,8,1.23,134.5,M,48.0,M,,*40",,,,
2022-03-13T18:01:54+01:00,229,23.13,16.54,1002.28,46.10,48.50,3,-127.00,"$GNGGA,170148.000,4924.5512,N,00841.5914,E,2,9,1.04,137.7,M,48.0,M,,*44",,,,
2022-03-13T18:02:17+01:00,230,23.26,17.13,1002.29,52.80,55.50,3,-127.00,"$GNGGA,170211.000,4924.5517,N,00841.5907,E,2,8,1.23,139.9,M,48.0,M,,*48",,,,
2022-03-13T18:02:39+01:00,231,23.41,16.78,1002.30,45.90,48.20,3,-127.00,"$GNGGA,170233.000,4924.5519,N,00841.5898,E,2,9,1.07,139.6,M,48.0,M,,*49",,,,
2022-03-13T18:03:01+01:00,232,23.55,15.71,1002.32,44.60,46.90,3,-127.00,"$GNGGA,170255.000,4924.5521,N,00841.5889,E,2,10,1.04,139.4,M,48.0,M,,*7B",,,,
2022-03-13T18:03:26+01:00,233,23.64,15.58,1002.33,43.20,45.40,3,-127.00,"$GNGGA,170317.000,4924.5537,N,00841.5865,E,2,7,1.67,138.4,M,48.0,M,,*4B",,,,
2022-03-13T18:03:48+01:00,234,23.65,15.62,1002.32,43.70,45.90,3,-127.00,"$GNGGA,170342.000,4924.5578,N,00841.6020,E,2,10,0.93,151.3,M,48.0,M,,*7E",,,,
2022-03-13T18:07:08+01:00,235,24.14,16.67,1002.30,47.10,49.50,0,-127.00,"$GNGGA,170703.000,4924.6835,N,00841.5310,E,1,8,1.13,123.6,M,48.0,M,,*48",,,,
2022-03-13T18:07:30+01:00,236,23.80,16.60,1002.38,47.90,50.30,0,-127.00,"$GNGGA,170724.000,4924.6705,N,00841.4825,E,1,9,1.07,122.1,M,48.0,M,,*4F",,,,
2022-03-13T18:07:51+01:00,237,23.62,16.77,1002.43,49.80,52.30,0,-127.00,"$GNGGA,170746.000,4924.6707,N,00841.4683,E,1,9,1.03,123.2,M,48.0,M,,*4D",,,,
2022-03-13T18:08:13+01:00,238,23.47,16.83,1002.48,47.50,49.90,0,-127.00,"$GNGGA,170808.000,4924.6753,N,00841.4649,E,1,9,1.06,122.5,M,48.0,M,,*4C",,,,
2022-03-13T18:08:35+01:00,239,23.24,16.50,1002.49,47.40,49.80,0,-127.00,"$GNGGA,170830.000,4924.6592,N,00841.4025,E,1,9,1.06,123.7,M,48.0,M,,*47",,,,
2022-03-13T18:08:57+01:00,240,22.95,16.88,1002.49,48.00,50.50,0,-127.00,"$GNGGA,170852.000,4924.6447,N,00841.3200,E,1,11,0.87,121.8,M,48.0,M,,*74",,,,
2022-03-13T18:09:19+01:00,241,22.61,17.16,1002.52,48.10,50.60,0,-127.00,"$GNGGA,170914.000,4924.6299,N,00841.2377,E,1,11,0.87,116.8,M,48.0,M,,*76",,,,
2022-03-13T18:09:41+01:00,242,22.27,17.38,1002.54,49.10,51.60,0,-127.00,"$GNGGA,170936.000,4924.6215,N,00841.1523,E,1,11,0.88,108.4,M,48.0,M,,*7A",,,,
2022-03-13T18:10:03+01:00,243,22.00,17.72,1002.54,51.40,54.00,0,-127.00,"$GNGGA,170958.000,4924.6070,N,00841.0686,E,1,11,0.84,106.2,M,48.0,M,,*7A",,,,
2022-03-13T18:10:25+01:00,244,21.90,18.03,1002.55,51.60,54.20,0,-127.00,"$GNGGA,171020.000,4924.6071,N,00841.0683,E,1,11,0.84,103.9,M,48.0,M,,*77",,,,
2022-03-13T18:10:48+01:00,245,21.89,17.73,1002.57,49.60,52.10,0,-127.00,"$GNGGA,171042.000,4924.6090,N,00841.0700,E,1,11,0.84,102.1,M,48.0,M,,*7F",,,,
2022-03-13T18:11:10+01:00,246,21.95,17.36,1002.58,46.90,49.30,0,-127.00,"$GNGGA,171104.000,4924.6093,N,00841.0689,E,1,12,0.82,100.8,M,48.0,M,,*71",,,,
2022-03-13T18:11:32+01:00,247,22.04,17.41,1002.59,45.40,47.70,0,-127.00,"$GNGGA,171126.000,4924.6090,N,00841.0698,E,1,12,0.82,102.0,M,48.0,M,,*78",,,,
2022-03-13T18:11:55+01:00,248,22.16,17.29,1002.60,44.70,47.00,0,-127.00,"$GNGGA,171149.000,4924.6097,N,00841.0686,E,1,12,0.82,100.9,M,48.0,M,,*72",,,,
2022-03-13T18:12:17+01:00,249,22.28,17.29,1002.60,45.80,48.10,0,-127.00,"$GNGGA,171211.000,4924.6104,N,00841.0673,E,1,12,0.82,101.8,M,48.0,M,,*7D",,,,
2022-03-13T18:12:39+01:00,250,22.42,17.31,1002.60,45.50,47.80,0,-127.00,"$GNGGA,171233.000,4924.6107,N,00841.0678,E,1,12,0.82,100.9,M,48.0,M,,*75",,,,
2022-03-13T18:13:01+01:00,251,22.55,17.48,1002.62,45.40,47.70,0,-127.00,"$GNGGA,171255.000,4924.6104,N,00841.0679,E,1,12,0.86,100.5,M,48.0,M,,*7F",,,,
2022-03-13T18:13:23+01:00,252,22.68,17.86,1002.62,45.00,47.30,0,-127.00,"$GNGGA,171317.000,4924.6097,N,00841.0692,E,2,12,0.82,100.3,M,48.0,M,,*77",,,,
2022-03-13T18:13:45+01:00,253,22.76,17.37,1002.61,43.20,45.40,0,-127.00,"$GNGGA,171339.000,4924.6068,N,00841.0704,E,2,12,0.82,100.3,M,48.0,M,,*75",,,,
2022-03-13T18:14:07+01:00,254,22.85,17.27,1002.61,42.30,44.50,0,-127.00,"$GNGGA,171401.000,4924.6043,N,00841.0712,E,2,12,0.82,106.0,M,48.0,M,,*72",,,,
2022-03-13T18:14:29+01:00,255,22.95,17.50,1002.61,42.10,44.30,0,-127.00,"$GNGGA,171423.000,4924.6040,N,00841.0692,E,2,13,0.77,107.3,M,48.0,M,,*71",,,,
2022-03-13T18:14:51+01:00,256,23.03,17.49,1002.62,43.00,45.20,0,-127.00,"$GNGGA,171445.000,4924.6049,N,00841.0672,E,2,13,0.81,107.6,M,48.0,M,,*7A",,,,
2022-03-13T18:15:13+01:00,257,23.06,17.12,1002.61,45.30,47.60,0,-127.00,"$GNGGA,171507.000,4924.6050,N,00841.0674,E,2,13,0.77,107.2,M,48.0,M,,*7E",,,,
2022-03-13T18:15:35+01:00,258,23.09,18.09,1002.61,43.20,45.40,0,-127.00,"$GNGGA,171529.000,4924.6042,N,00841.0662,E,2,13,0.77,106.2,M,48.0,M,,*77",,,,
2022-03-13T18:15:57+01:00,259,23.12,17.45,1002.60,43.00,45.20,0,-127.00,"$GNGGA,171551.000,4924.6050,N,00841.0644,E,2,16,0.65,102.6,M,48.0,M,,*79",,,,
2022-03-13T18:16:19+01:00,260,23.17,17.50,1002.61,42.50,44.70,0,-127.00,"$GNGGA,171613.000,4924.6042,N,00841.0614,E,2,16,0.64,102.7,M,48.0,M,,*7A",,,,
2022-03-13T18:16:41+01:00,261,23.18,17.15,1002.61,45.20,47.50,0,-127.00,"$GNGGA,171635.000,4924.6062,N,00841.0657,E,2,16,0.64,102.6,M,48.0,M,,*7A",,,,
2022-03-13T18:17:03+01:00,262,23.23,17.10,1002.61,47.20,49.60,0,-127.00,"$GNGGA,171657.000,4924.6056,N,00841.0692,E,2,16,0.64,104.4,M,48.0,M,,*74",,,,
2022-03-13T18:17:25+01:00,263,23.26,16.75,1002.61,45.50,47.80,0,-127.00,"$GNGGA,171719.000,4924.6055,N,00841.0699,E,2,17,0.64,104.4,M,48.0,M,,*76",,,,
2022-03-13T18:17:47+01:00,264,23.11,16.23,1002.60,44.20,46.50,0,-127.00,"$GNGGA,171741.000,4924.6196,N,00841.1115,E,2,17,0.64,103.8,M,48.0,M,,*7C",,,,
2022-03-13T18:18:09+01:00,265,22.79,16.58,1002.60,45.00,47.30,0,-127.00,"$GNGGA,171803.000,4924.6289,N,00841.2139,E,2,17,0.64,98.7,M,48.0,M,,*49",,,,
2022-03-13T18:18:31+01:00,266,22.32,17.25,1002.59,48.30,50.80,0,-127.00,"$GNGGA,171825.000,4924.6459,N,00841.3133,E,2,17,0.64,104.9,M,48.0,M,,*77",,,,
2022-03-13T18:18:53+01:00,267,21.88,17.80,1002.55,49.30,51.80,0,-127.00,"$GNGGA,171847.000,4924.6641,N,00841.4098,E,2,17,0.64,108.0,M,48.0,M,,*7A",,,,
2022-03-13T18:19:18+01:00,268,21.57,18.46,1002.57,50.70,53.30,0,-127.00,"$GNGGA,171911.000,4924.6785,N,00841.4622,E,2,16,0.64,106.3,M,48.0,M,,*7A",,,,
2022-03-13T18:19:40+01:00,269,21.45,18.28,1002.60,47.70,50.10,0,-127.00,"$GNGGA,171934.000,4924.6720,N,00841.4670,E,2,15,0.67,107.5,M,48.0,M,,*72",,,,
2022-03-13T18:21:59+01:00,270,21.15,18.93,1002.36,44.20,46.50,0,-127.00,"$GNGGA,172150.000,4924.5957,N,00841.5892,E,1,9,0.92,125.0,M,48.0,M,,*44",,,,
2022-03-13T18:22:21+01:00,271,20.80,18.88,1002.36,46.10,48.50,0,-127.00,"$GNGGA,172215.000,4924.5609,N,00841.6007,E,1,9,0.92,125.4,M,48.0,M,,*41",,,,
2022-03-13T18:22:45+01:00,272,20.62,19.08,1002.36,47.50,49.90,0,-127.00,"$GNGGA,172239.000,4924.5506,N,00841.6029,E,1,9,1.03,149.5,M,48.0,M,,*4D",,,,
2022-03-13T18:23:07+01:00,273,20.53,19.06,1002.37,46.40,48.80,0,-127.00,"$GNGGA,172301.000,4924.5508,N,00841.6016,E,1,9,1.03,149.8,M,48.0,M,,*48",,,,
2022-03-13T18:23:28+01:00,274,20.55,18.86,1002.36,44.60,46.90,0,-127.00,"$GNGGA,172323.000,4924.5510,N,00841.5999,E,1,10,0.95,149.6,M,48.0,M,,*74",,,,
2022-03-13T18:23:50+01:00,275,20.62,18.51,1002.36,44.00,46.30,0,-127.00,"$GNGGA,172345.000,4924.5505,N,00841.6005,E,1,9,1.14,151.8,M,48.0,M,,*48",,,,
2022-03-13T18:24:12+01:00,276,20.70,18.33,1002.37,43.20,45.40,0,-127.00,"$GNGGA,172407.000,4924.5500,N,00841.6012,E,1,10,0.90,151.8,M,48.0,M,,*7F",,,,
2022-03-13T18:24:37+01:00,277,20.79,18.24,1002.37,42.90,45.10,0,-127.00,"$GNGGA,172431.000,4924.5503,N,00841.6035,E,1,12,0.83,151.0,M,48.0,M,,*74",,,,
2022-03-13T21:35:49+01:00,278,18.60,21.91,1003.29,45.90,67.10,1,-127.00,"$GNGGA,203544.000,4924.5735,N,00841.5741,E,1,5,1.36,127.6,M,48.0,M,,*4C",,,,
2022-03-13T21:36:11+01:00,279,18.46,21.72,1003.31,38.80,40.80,1,-127.00,"$GNGGA,203606.000,4924.5866,N,00841.5707,E,1,5,1.36,124.4,M,48.0,M,,*43",,,,
2022-03-13T21:36:33+01:00,280,18.42,21.43,1003.31,41.60,43.70,1,-127.00,"$GNGGA,203628.000,4924.5962,N,00841.5710,E,1,4,1.98,119.6,M,48.0,M,,*45",,,,
2022-03-13T21:36:56+01:00,281,18.45,21.23,1003.30,42.20,44.40,1,-127.00,"$GNGGA,203650.000,4924.5964,N,00841.5735,E,1,10,0.86,121.2,M,48.0,M,,*7F",,,,
2022-03-13T21:37:41+01:00,282,18.55,21.38,1003.32,41.10,43.20,1,-127.00,"$GNGGA,203713.000,4924.5963,N,00841.5756,E,1,11,0.82,122.3,M,48.0,M,,*7C",,,,
2022-03-13T21:38:03+01:00,283,18.62,20.74,1003.34,37.40,39.30,1,-127.00,"$GNGGA,203757.000,4924.5969,N,00841.5744,E,1,12,0.80,123.4,M,48.0,M,,*72",,,,
2022-03-13T21:40:26+01:00,284,18.92,20.90,1003.35,38.30,40.30,1,-127.00,"$GNGGA,204020.000,4924.5496,N,00841.5647,E,2,13,0.79,132.3,M,48.0,M,,*7E",,,,
2022-03-13T21:40:48+01:00,285,19.21,20.98,1003.39,34.10,35.90,1,-127.00,"$GNGGA,204042.000,4924.4753,N,00841.5630,E,2,13,0.79,142.6,M,48.0,M,,*73",,,,
2022-03-13T21:41:10+01:00,286,19.50,21.10,1003.44,34.40,36.20,1,-127.00,"$GNGGA,204104.000,4924.4259,N,00841.5256,E,2,13,0.79,135.2,M,48.0,M,,*7F",,,,
2022-03-13T21:41:32+01:00,287,19.78,20.79,1003.51,35.30,37.10,1,-127.00,"$GNGGA,204126.000,4924.4151,N,00841.4860,E,2,12,0.83,134.2,M,48.0,M,,*7F",,,,
2022-03-13T21:41:55+01:00,288,20.04,20.68,1003.52,35.80,37.60,1,-127.00,"$GNGGA,204148.000,4924.4014,N,00841.4021,E,2,13,0.79,131.7,M,48.0,M,,*7E",,,,
2022-03-13T21:42:16+01:00,289,20.29,20.47,1003.49,36.40,38.30,1,-127.00,"$GNGGA,204211.000,4924.3762,N,00841.2402,E,2,13,0.79,130.2,M,48.0,M,,*77",,,,
2022-03-13T21:42:40+01:00,290,20.52,20.28,1003.49,34.80,36.60,1,-127.00,"$GNGGA,204234.000,4924.3560,N,00841.1766,E,1,12,0.84,133.2,M,48.0,M,,*71",,,,
