created_at,entry_id,field1,field2,field3,field4,field5,field6,field7,field8,latitude,longitude,elevation,status
2022-01-14T20:32:47+01:00,1,29.33,21.40,1018.84,256.00,268.90,0,0,"$GNGGA,193242.098,4900.5226,N,00825.4834,E,0,3,,136.4,M,47.9,M,,*50",,,,
2022-01-14T20:33:08+01:00,2,29.00,19.50,1018.85,200.70,210.80,0,0,"$GNGGA,193303.000,4900.5263,N,00825.4708,E,1,5,2.34,142.8,M,47.9,M,,*47",,,,
2022-01-14T20:33:29+01:00,3,28.52,18.28,1018.84,183.70,192.90,0,0,"$GNGGA,193324.000,4900.5241,N,00825.4637,E,1,5,2.63,144.3,M,47.9,M,,*40",,,,
2022-01-14T20:33:49+01:00,4,27.99,19.03,1018.84,159.90,167.90,0,0,"$GNGGA,193344.000,4900.5236,N,00825.4407,E,1,5,2.34,136.6,M,47.9,M,,*45",,,,
2022-01-14T20:34:09+01:00,5,27.41,19.45,1018.83,320.00,336.10,0,0,"$GNGGA,193404.000,4900.5249,N,00825.4389,E,1,4,2.94,130.2,M,47.9,M,,*46",,,,
2022-01-14T20:34:30+01:00,6,26.68,22.04,1018.80,99.50,104.50,0,0,"$GNGGA,193425.000,4900.5325,N,00825.4493,E,0,4,,127.3,M,47.9,M,,*55",,,,
2022-01-14T20:34:50+01:00,7,26.08,24.82,1018.80,70.30,73.90,0,0,"$GNGGA,193445.000,4900.5149,N,00825.4446,E,1,4,5.33,97.4,M,47.9,M,,*74",,,,
2022-01-14T20:35:10+01:00,8,25.64,25.38,1018.86,41.30,43.40,0,0,"$GNGGA,193505.000,4900.5157,N,00825.4861,E,1,4,5.30,95.4,M,47.9,M,,*76",,,,
2022-01-14T20:35:30+01:00,9,25.19,22.12,1018.92,36.80,38.70,0,0,"$GNGGA,193526.000,4900.5401,N,00825.5481,E,0,2,,94.7,M,47.9,M,,*6F",,,,
2022-01-14T20:35:50+01:00,10,24.94,22.22,1019.25,38.00,40.00,0,0,"$GNGGA,193546.000,4900.5372,N,00825.4659,E,0,0,,107.0,M,47.9,M,,*52",,,,
2022-01-14T20:36:10+01:00,11,24.64,20.63,1019.64,42.20,44.40,0,0,"$GNGGA,193606.000,4900.5367,N,00825.4660,E,0,0,,107.0,M,47.9,M,,*5B",,,,
2022-01-14T20:36:31+01:00,12,24.19,19.92,1019.93,53.20,55.90,0,0,"$GNGGA,193627.000,4900.5019,N,00825.4018,E,0,2,,119.6,M,47.9,M,,*50",,,,
2022-01-14T20:36:52+01:00,13,23.68,20.26,1020.14,60.90,64.00,0,0,"$GNGGA,193647.000,4900.5077,N,00825.3479,E,0,2,,132.6,M,47.9,M,,*53",,,,
2022-01-14T20:37:11+01:00,14,22.90,21.05,1020.30,65.10,68.40,0,0,"$GNGGA,193707.000,4900.4867,N,00825.4093,E,0,3,,153.2,M,47.9,M,,*5B",,,,
2022-01-14T20:37:33+01:00,15,22.00,22.20,1020.42,62.00,65.20,0,0,"$GNGGA,193728.000,4900.4879,N,00825.4245,E,1,5,1.41,152.5,M,47.9,M,,*4B",,,,
2022-01-14T20:37:53+01:00,16,21.03,23.66,1020.52,59.40,62.40,0,0,"$GNGGA,193748.000,4900.4915,N,00825.4329,E,1,5,1.41,141.7,M,47.9,M,,*4D",,,,
2022-01-14T20:38:13+01:00,17,20.04,24.74,1020.60,59.70,62.70,0,0,"$GNGGA,193808.000,4900.4903,N,00825.4315,E,1,6,1.25,137.2,M,47.9,M,,*4B",,,,
2022-01-14T20:38:34+01:00,18,18.97,26.03,1020.65,61.10,66.90,0,0,"$GNGGA,193829.000,4900.4895,N,00825.4288,E,1,6,1.25,137.4,M,47.9,M,,*45",,,,
2022-01-14T20:38:54+01:00,19,18.12,27.71,1020.67,62.10,71.50,0,0,"$GNGGA,193849.000,4900.4887,N,00825.4279,E,1,5,1.42,136.7,M,47.9,M,,*4E",,,,
2022-01-14T20:39:14+01:00,20,17.49,28.44,1020.70,62.80,74.80,0,0,"$GNGGA,193909.000,4900.4828,N,00825.4209,E,1,6,1.28,135.6,M,47.9,M,,*44",,,,
2022-01-14T20:39:35+01:00,21,16.98,28.90,1020.72,63.60,66.80,0,0,"$GNGGA,193930.000,4900.4703,N,00825.4158,E,1,8,0.95,137.0,M,47.9,M,,*42",,,,
2022-01-14T20:39:55+01:00,22,16.44,29.25,1020.75,62.40,65.60,0,0,"$GNGGA,193950.000,4900.4545,N,00825.4224,E,1,8,0.95,148.2,M,47.9,M,,*46",,,,
2022-01-14T20:40:16+01:00,23,15.94,29.99,1020.77,60.20,63.30,0,0,"$GNGGA,194011.000,4900.4475,N,00825.4406,E,1,9,0.89,152.1,M,47.9,M,,*4D",,,,
2022-01-14T20:40:36+01:00,24,15.38,30.58,1020.80,60.50,63.60,0,0,"$GNGGA,194031.000,4900.4453,N,00825.4483,E,1,9,0.85,135.7,M,47.9,M,,*4D",,,,
2022-01-14T20:40:56+01:00,25,14.67,31.66,1020.81,62.60,75.50,0,0,"$GNGGA,194051.000,4900.4409,N,00825.4639,E,1,8,0.95,128.6,M,47.9,M,,*4A",,,,
2022-01-14T20:41:17+01:00,26,14.01,33.21,1020.82,62.40,84.30,0,0,"$GNGGA,194112.000,4900.4335,N,00825.4582,E,1,8,0.95,123.4,M,47.9,M,,*4E",,,,
2022-01-14T20:41:37+01:00,27,13.51,34.21,1020.83,60.30,82.70,0,0,"$GNGGA,194132.000,4900.4192,N,00825.4548,E,1,8,0.95,123.3,M,47.9,M,,*42",,,,
2022-01-14T20:41:57+01:00,28,13.12,34.69,1020.85,55.90,67.70,0,0,"$GNGGA,194152.000,4900.4053,N,00825.4566,E,1,8,0.95,118.3,M,47.9,M,,*4C",,,,
2022-01-14T20:42:18+01:00,29,12.84,35.15,1020.86,56.80,64.70,0,0,"$GNGGA,194213.000,4900.3885,N,00825.4503,E,2,7,1.16,128.3,M,47.9,M,,*48",,,,
2022-01-14T20:42:38+01:00,30,12.62,35.30,1020.86,55.10,60.30,0,0,"$GNGGA,194233.000,4900.3750,N,00825.4505,E,2,7,1.16,129.4,M,47.9,M,,*4D",,,,
2022-01-14T20:42:58+01:00,31,12.44,35.44,1020.87,55.70,65.50,0,0,"$GNGGA,194253.000,4900.3626,N,00825.4471,E,2,7,1.16,132.9,M,47.9,M,,*4E",,,,
2022-01-14T20:43:19+01:00,32,12.30,35.62,1020.87,55.30,60.00,0,0,"$GNGGA,194314.000,4900.3488,N,00825.4498,E,2,7,1.16,134.9,M,47.9,M,,*4B",,,,
2022-01-14T20:43:39+01:00,33,12.14,35.82,1020.88,55.40,59.30,0,0,"$GNGGA,194334.000,4900.3404,N,00825.4610,E,2,7,1.29,120.8,M,47.9,M,,*47",,,,
2022-01-14T20:43:59+01:00,34,11.97,36.09,1020.88,52.60,55.30,0,0,"$GNGGA,194354.000,4900.3284,N,00825.4671,E,2,7,1.15,111.2,M,47.9,M,,*4F",,,,
2022-01-14T20:44:20+01:00,35,11.61,36.59,1020.87,53.90,69.30,0,0,"$GNGGA,194415.000,4900.3152,N,00825.4660,E,2,8,0.94,112.1,M,47.9,M,,*42",,,,
2022-01-14T20:44:40+01:00,36,11.35,37.88,1020.87,57.40,79.30,0,0,"$GNGGA,194435.000,4900.3038,N,00825.4659,E,2,7,1.00,115.0,M,47.9,M,,*42",,,,
2022-01-14T20:45:00+01:00,37,11.18,38.36,1020.86,59.20,84.30,0,0,"$GNGGA,194455.000,4900.2905,N,00825.4642,E,2,9,0.87,118.8,M,47.9,M,,*4D",,,,
2022-01-14T20:45:21+01:00,38,11.04,38.48,1020.85,55.70,66.90,0,0,"$GNGGA,194516.000,4900.2784,N,00825.4629,E,2,9,0.87,119.9,M,47.9,M,,*41",,,,
2022-01-14T20:45:41+01:00,39,10.92,38.55,1020.85,53.60,67.50,0,0,"$GNGGA,194536.000,4900.2689,N,00825.4643,E,2,9,0.87,118.2,M,47.9,M,,*49",,,,
2022-01-14T20:46:01+01:00,40,10.81,38.98,1020.84,62.10,97.70,0,0,"$GNGGA,194556.000,4900.2536,N,00825.4653,E,2,9,0.87,118.3,M,47.9,M,,*48",,,,
2022-01-14T20:46:22+01:00,41,10.67,39.00,1020.84,60.60,94.70,0,0,"$GNGGA,194617.000,4900.2446,N,00825.4641,E,2,8,0.94,117.9,M,47.9,M,,*4D",,,,
2022-01-14T20:46:42+01:00,42,10.44,39.74,1020.84,58.50,100.50,0,0,"$GNGGA,194637.000,4900.2317,N,00825.4512,E,2,9,0.87,115.3,M,47.9,M,,*42",,,,
2022-01-14T20:47:02+01:00,43,10.25,40.17,1020.84,58.20,81.40,0,0,"$GNGGA,194657.000,4900.2200,N,00825.4511,E,2,9,0.87,118.3,M,47.9,M,,*4D",,,,
2022-01-14T20:47:23+01:00,44,10.10,40.45,1020.84,57.80,80.00,0,0,"$GNGGA,194718.000,4900.2129,N,00825.4341,E,2,9,0.87,115.2,M,47.9,M,,*40",,,,
2022-01-14T20:47:43+01:00,45,9.90,40.86,1020.83,57.30,74.70,0,0,"$GNGGA,194738.000,4900.2118,N,00825.4303,E,2,9,0.87,114.6,M,47.9,M,,*43",,,,
2022-01-14T20:48:03+01:00,46,9.65,41.75,1020.84,54.80,72.10,0,0,"$GNGGA,194758.000,4900.2071,N,00825.4285,E,2,9,0.87,112.4,M,47.9,M,,*40",,,,
2022-01-14T20:48:24+01:00,47,9.30,42.68,1020.86,62.10,94.70,0,0,"$GNGGA,194819.000,4900.1923,N,00825.4197,E,2,9,0.87,110.7,M,47.9,M,,*46",,,,
2022-01-14T20:48:44+01:00,48,8.65,44.14,1020.82,52.80,65.70,0,0,"$GNGGA,194839.000,4900.1856,N,00825.4132,E,2,9,0.87,114.5,M,47.9,M,,*4E",,,,
2022-01-14T20:49:06+01:00,49,7.79,47.29,1020.66,54.80,67.10,0,0,"$GNGGA,194901.000,4900.1862,N,00825.4028,E,2,9,0.87,118.0,M,47.9,M,,*40",,,,
2022-01-14T20:49:31+01:00,50,6.96,51.38,1020.51,54.20,60.70,0,0,"$GNGGA,194926.000,4900.1848,N,00825.3861,E,2,9,0.87,123.2,M,47.9,M,,*45",,,,
2022-01-14T20:49:54+01:00,51,6.38,53.58,1020.39,56.00,59.80,0,0,"$GNGGA,194949.000,4900.1868,N,00825.3674,E,2,9,0.87,125.1,M,47.9,M,,*41",,,,
2022-01-14T20:50:15+01:00,52,5.95,54.42,1020.30,60.20,70.60,0,0,"$GNGGA,195010.000,4900.1908,N,00825.3452,E,2,9,0.87,127.3,M,47.9,M,,*44",,,,
2022-01-14T20:50:36+01:00,53,5.58,55.12,1020.24,67.10,85.80,0,0,"$GNGGA,195031.000,4900.1902,N,00825.3249,E,2,9,0.87,126.1,M,47.9,M,,*42",,,,
2022-01-14T20:50:57+01:00,54,5.34,55.45,1020.19,71.80,139.70,0,0,"$GNGGA,195052.000,4900.1923,N,00825.3031,E,2,9,0.87,131.0,M,47.9,M,,*4E",,,,
2022-01-14T20:51:18+01:00,55,5.21,55.30,1020.15,70.20,114.30,0,0,"$GNGGA,195113.000,4900.1957,N,00825.2924,E,2,7,1.01,128.8,M,47.9,M,,*44",,,,
2022-01-14T20:51:38+01:00,56,5.10,55.12,1020.13,74.10,116.00,0,0,"$GNGGA,195133.000,4900.1996,N,00825.2796,E,2,8,0.94,127.4,M,47.9,M,,*4D",,,,
2022-01-14T20:51:58+01:00,57,4.97,55.06,1020.11,69.50,121.60,0,0,"$GNGGA,195153.000,4900.2016,N,00825.2641,E,2,8,0.94,127.0,M,47.9,M,,*46",,,,
2022-01-14T20:52:19+01:00,58,4.62,56.39,1020.10,53.60,59.20,0,0,"$GNGGA,195214.000,4900.2107,N,00825.2523,E,2,8,0.94,121.6,M,47.9,M,,*40",,,,
2022-01-14T20:52:39+01:00,59,4.41,57.90,1020.08,58.60,67.00,0,0,"$GNGGA,195234.000,4900.2100,N,00825.2277,E,2,8,0.94,133.6,M,47.9,M,,*40",,,,
2022-01-14T20:52:59+01:00,60,4.24,58.14,1020.08,59.20,67.10,0,0,"$GNGGA,195254.000,4900.2140,N,00825.2172,E,2,7,1.13,130.9,M,47.9,M,,*49",,,,
2022-01-14T20:53:20+01:00,61,4.11,58.35,1020.07,61.80,86.30,0,0,"$GNGGA,195315.000,4900.2205,N,00825.2041,E,2,7,1.13,125.2,M,47.9,M,,*41",,,,
2022-01-14T20:53:40+01:00,62,4.02,58.92,1020.07,58.40,88.70,0,0,"$GNGGA,195335.000,4900.2214,N,00825.1883,E,2,7,1.01,122.3,M,47.9,M,,*43",,,,
2022-01-14T20:54:00+01:00,63,3.96,59.40,1020.07,57.20,99.20,0,0,"$GNGGA,195355.000,4900.2229,N,00825.1701,E,2,8,0.94,120.6,M,47.9,M,,*4B",,,,
2022-01-14T20:54:21+01:00,64,3.87,59.60,1020.07,56.20,83.20,0,0,"$GNGGA,195416.000,4900.2303,N,00825.1564,E,2,8,0.94,121.5,M,47.9,M,,*41",,,,
2022-01-14T20:54:42+01:00,65,3.85,59.95,1020.06,57.70,80.30,0,0,"$GNGGA,195437.000,4900.2335,N,00825.1409,E,2,8,0.94,119.4,M,47.9,M,,*47",,,,
2022-01-14T20:55:03+01:00,66,3.90,59.77,1020.07,56.50,73.70,0,0,"$GNGGA,195458.000,4900.2379,N,00825.1250,E,2,8,0.94,118.6,M,47.9,M,,*4F",,,,
2022-01-14T20:55:24+01:00,67,3.96,59.31,1020.06,56.60,76.60,0,0,"$GNGGA,195519.000,4900.2432,N,00825.1079,E,2,7,1.13,122.6,M,47.9,M,,*42",,,,
2022-01-14T20:55:44+01:00,68,4.02,59.17,1020.05,57.80,79.70,0,0,"$GNGGA,195539.000,4900.2451,N,00825.0913,E,2,7,1.13,120.5,M,47.9,M,,*40",,,,
2022-01-14T20:56:04+01:00,69,4.03,58.96,1020.05,57.80,87.90,0,0,"$GNGGA,195559.000,4900.2492,N,00825.0762,E,2,8,0.94,124.1,M,47.9,M,,*40",,,,
2022-01-14T20:56:25+01:00,70,4.08,58.90,1020.05,58.00,99.20,0,0,"$GNGGA,195620.000,4900.2527,N,00825.0571,E,2,6,1.51,123.1,M,47.9,M,,*43",,,,
2022-01-14T20:56:45+01:00,71,4.10,58.87,1020.05,57.00,90.90,0,0,"$GNGGA,195640.000,4900.2571,N,00825.0435,E,2,8,0.94,119.6,M,47.9,M,,*4F",,,,
2022-01-14T20:57:05+01:00,72,3.99,58.81,1020.06,57.30,80.90,0,0,"$GNGGA,195700.000,4900.2586,N,00825.0250,E,2,8,0.94,118.4,M,47.9,M,,*44",,,,
2022-01-14T20:57:26+01:00,73,3.76,59.94,1020.06,57.30,74.00,0,0,"$GNGGA,195721.000,4900.2612,N,00825.0091,E,2,8,0.94,118.9,M,47.9,M,,*4B",,,,
2022-01-14T20:57:46+01:00,74,3.53,61.14,1020.06,55.00,71.40,0,0,"$GNGGA,195741.000,4900.2656,N,00824.9920,E,2,8,0.94,118.6,M,47.9,M,,*49",,,,
2022-01-14T20:58:06+01:00,75,3.41,62.01,1020.04,65.10,105.70,0,0,"$GNGGA,195801.000,4900.2722,N,00824.9775,E,2,8,0.94,124.4,M,47.9,M,,*43",,,,
2022-01-14T20:58:27+01:00,76,3.36,62.10,1020.04,57.60,84.20,0,0,"$GNGGA,195822.000,4900.2794,N,00824.9614,E,2,8,0.94,126.4,M,47.9,M,,*4B",,,,
2022-01-14T20:58:47+01:00,77,3.37,62.00,1020.04,56.20,83.10,0,0,"$GNGGA,195842.000,4900.2861,N,00824.9489,E,2,7,1.01,120.2,M,47.9,M,,*4C",,,,
2022-01-14T20:59:08+01:00,78,3.34,61.58,1020.03,50.90,74.30,0,0,"$GNGGA,195903.000,4900.2835,N,00824.9305,E,2,7,1.01,122.2,M,47.9,M,,*48",,,,
2022-01-14T20:59:29+01:00,79,3.22,61.88,1020.01,48.80,67.00,0,0,"$GNGGA,195924.000,4900.2880,N,00824.9131,E,2,7,1.01,120.6,M,47.9,M,,*40",,,,
2022-01-14T20:59:49+01:00,80,3.15,62.44,1020.00,44.80,55.10,0,0,"$GNGGA,195944.000,4900.2909,N,00824.8964,E,2,7,1.01,121.6,M,47.9,M,,*4E",,,,
2022-01-14T21:00:09+01:00,81,3.13,62.71,1019.99,47.30,57.60,0,0,"$GNGGA,200004.000,4900.2944,N,00824.8800,E,2,8,0.94,120.1,M,47.9,M,,*42",,,,
2022-01-14T21:00:30+01:00,82,3.09,62.76,1019.99,54.50,74.90,0,0,"$GNGGA,200025.000,4900.2949,N,00824.8617,E,2,8,1.01,125.8,M,47.9,M,,*45",,,,
2022-01-14T21:00:50+01:00,83,3.03,62.91,1019.98,66.10,93.40,0,0,"$GNGGA,200045.000,4900.2938,N,00824.8442,E,2,7,1.01,131.0,M,47.9,M,,*45",,,,
2022-01-14T21:01:10+01:00,84,2.99,63.12,1019.99,68.30,90.30,0,0,"$GNGGA,200105.000,4900.3087,N,00824.8350,E,2,8,0.94,125.3,M,47.9,M,,*4C",,,,
2022-01-14T21:01:31+01:00,85,2.82,63.17,1019.99,69.70,82.40,0,0,"$GNGGA,200126.000,4900.3142,N,00824.8139,E,2,7,1.14,125.5,M,47.9,M,,*48",,,,
2022-01-14T21:01:51+01:00,86,2.61,63.77,1019.99,71.00,91.40,0,0,"$GNGGA,200146.000,4900.3167,N,00824.7945,E,2,8,0.94,133.9,M,47.9,M,,*48",,,,
2022-01-14T21:02:11+01:00,87,2.49,64.45,1020.00,69.90,93.00,0,0,"$GNGGA,200206.000,4900.3161,N,00824.7789,E,2,8,0.94,129.3,M,47.9,M,,*46",,,,
2022-01-14T21:02:32+01:00,88,2.51,64.62,1020.01,64.60,94.70,0,0,"$GNGGA,200227.000,4900.3146,N,00824.7622,E,2,8,1.14,124.1,M,47.9,M,,*46",,,,
2022-01-14T21:02:52+01:00,89,2.40,64.09,1020.01,62.20,81.20,0,0,"$GNGGA,200247.000,4900.3172,N,00824.7387,E,2,8,1.14,132.4,M,47.9,M,,*4F",,,,
2022-01-14T21:03:12+01:00,90,2.25,64.36,1020.01,67.80,105.20,0,0,"$GNGGA,200307.000,4900.3147,N,00824.7193,E,2,8,0.94,135.8,M,47.9,M,,*49",,,,
2022-01-14T21:03:33+01:00,91,2.08,65.09,1020.02,66.40,102.40,0,0,"$GNGGA,200328.000,4900.3193,N,00824.7070,E,2,8,0.94,137.6,M,47.9,M,,*4D",,,,
2022-01-14T21:03:53+01:00,92,2.00,65.76,1020.02,58.90,88.50,0,0,"$GNGGA,200348.000,4900.3358,N,00824.6920,E,2,8,0.94,137.2,M,47.9,M,,*47",,,,
2022-01-14T21:04:13+01:00,93,1.98,66.29,1020.12,51.20,74.40,0,0,"$GNGGA,200408.000,4900.3209,N,00824.6732,E,2,8,0.94,135.7,M,47.9,M,,*4B",,,,
2022-01-14T21:04:34+01:00,94,2.02,66.29,1020.30,47.10,60.50,0,0,"$GNGGA,200429.000,4900.3296,N,00824.6632,E,2,7,1.53,127.3,M,47.9,M,,*4D",,,,
2022-01-14T21:04:54+01:00,95,2.09,66.05,1020.44,48.50,62.50,0,0,"$GNGGA,200449.000,4900.3460,N,00824.6543,E,2,8,0.94,150.5,M,47.9,M,,*42",,,,
2022-01-14T21:05:14+01:00,96,2.20,65.85,1020.56,46.60,52.10,0,0,"$GNGGA,200509.000,4900.3332,N,00824.6515,E,2,8,1.14,167.2,M,47.9,M,,*4E",,,,
2022-01-14T21:05:35+01:00,97,2.12,65.39,1020.65,53.90,73.80,0,0,"$GNGGA,200530.000,4900.3660,N,00824.6405,E,2,8,0.94,149.3,M,47.9,M,,*42",,,,
2022-01-14T21:05:55+01:00,98,2.04,65.76,1020.71,56.40,88.10,0,0,"$GNGGA,200550.000,4900.3700,N,00824.6427,E,2,8,1.14,160.2,M,47.9,M,,*40",,,,
2022-01-14T21:06:15+01:00,99,2.01,66.30,1020.76,61.00,102.70,0,0,"$GNGGA,200610.000,4900.3636,N,00824.6485,E,2,9,0.89,186.5,M,47.9,M,,*40",,,,
2022-01-14T21:06:36+01:00,100,1.97,66.61,1020.78,56.70,80.30,0,0,"$GNGGA,200631.000,4900.3703,N,00824.6391,E,2,9,0.89,162.2,M,47.9,M,,*4B",,,,
2022-01-14T21:06:56+01:00,101,1.90,66.94,1020.80,56.40,68.80,0,0,"$GNGGA,200651.000,4900.3758,N,00824.6294,E,2,9,0.89,143.0,M,47.9,M,,*46",,,,
2022-01-14T21:07:16+01:00,102,1.82,67.17,1020.81,60.30,70.20,0,0,"$GNGGA,200711.000,4900.3831,N,00824.6132,E,2,8,0.98,140.7,M,47.9,M,,*49",,,,
2022-01-14T21:07:37+01:00,103,1.77,67.55,1020.80,59.30,69.70,0,0,"$GNGGA,200732.000,4900.3916,N,00824.6172,E,2,9,0.89,154.2,M,47.9,M,,*49",,,,
2022-01-14T21:07:58+01:00,104,1.78,67.76,1020.80,58.20,65.20,0,0,"$GNGGA,200753.000,4900.4102,N,00824.6181,E,2,8,0.98,156.3,M,47.9,M,,*4A",,,,
2022-01-14T21:08:20+01:00,105,1.84,67.62,1020.80,52.70,55.40,0,0,"$GNGGA,200815.000,4900.4211,N,00824.6139,E,2,9,0.89,150.8,M,47.9,M,,*49",,,,
2022-01-14T21:08:41+01:00,106,1.91,67.28,1020.79,49.20,52.20,0,0,"$GNGGA,200836.000,4900.4287,N,00824.5937,E,2,9,0.89,153.4,M,47.9,M,,*4D",,,,
2022-01-14T21:09:01+01:00,107,2.00,66.87,1020.78,49.20,60.50,0,0,"$GNGGA,200856.000,4900.4383,N,00824.5870,E,2,9,0.90,153.6,M,47.9,M,,*46",,,,
2022-01-14T21:09:21+01:00,108,2.14,66.56,1020.77,49.20,73.10,0,0,"$GNGGA,200916.000,4900.4494,N,00824.5913,E,2,9,0.89,152.4,M,47.9,M,,*4D",,,,
2022-01-14T21:09:42+01:00,109,2.33,65.97,1020.75,54.60,98.10,0,0,"$GNGGA,200937.000,4900.4616,N,00824.6199,E,2,9,0.95,149.4,M,47.9,M,,*48",,,,
2022-01-14T21:10:02+01:00,110,2.53,65.25,1020.75,52.30,68.20,0,0,"$GNGGA,200957.000,4900.4707,N,00824.6524,E,2,9,0.95,163.2,M,47.9,M,,*43",,,,
2022-01-14T21:10:23+01:00,111,2.73,64.28,1020.74,45.00,49.90,0,0,"$GNGGA,201018.000,4900.4769,N,00824.6731,E,2,9,0.89,155.3,M,47.9,M,,*47",,,,
2022-01-14T21:10:44+01:00,112,2.89,63.53,1020.74,38.30,40.30,0,0,"$GNGGA,201039.000,4900.4787,N,00824.6911,E,2,8,0.98,140.7,M,47.9,M,,*49",,,,
2022-01-14T21:11:04+01:00,113,3.02,63.07,1020.74,37.90,39.80,0,0,"$GNGGA,201059.000,4900.4714,N,00824.7081,E,2,9,0.89,134.3,M,47.9,M,,*42",,,,
2022-01-14T21:11:24+01:00,114,3.00,62.83,1020.75,40.50,42.60,0,0,"$GNGGA,201119.000,4900.4668,N,00824.7203,E,2,9,0.89,132.0,M,47.9,M,,*40",,,,
2022-01-14T21:11:45+01:00,115,2.94,63.40,1020.77,41.50,44.10,0,0,"$GNGGA,201140.000,4900.4693,N,00824.7378,E,2,9,1.05,133.5,M,47.9,M,,*44",,,,
2022-01-14T21:12:05+01:00,116,2.84,63.69,1020.78,46.10,50.40,0,0,"$GNGGA,201200.000,4900.4783,N,00824.7578,E,2,9,0.90,142.0,M,47.9,M,,*4B",,,,
2022-01-14T21:12:25+01:00,117,2.74,64.26,1020.80,47.20,59.30,0,0,"$GNGGA,201220.000,4900.4688,N,00824.7718,E,2,9,1.05,140.6,M,47.9,M,,*4E",,,,
2022-01-14T21:12:46+01:00,118,2.75,64.88,1020.80,44.30,55.90,0,0,"$GNGGA,201241.000,4900.4633,N,00824.7860,E,2,9,0.90,137.9,M,47.9,M,,*4B",,,,
2022-01-14T21:13:06+01:00,119,2.84,65.00,1020.82,50.20,63.00,0,0,"$GNGGA,201301.000,4900.4666,N,00824.7991,E,2,8,0.98,136.3,M,47.9,M,,*43",,,,
2022-01-14T21:13:27+01:00,120,2.94,64.41,1020.83,51.80,65.40,0,0,"$GNGGA,201322.000,4900.4775,N,00824.8147,E,2,8,0.98,136.3,M,47.9,M,,*4D",,,,
2022-01-14T21:13:47+01:00,121,3.02,63.99,1020.83,52.80,62.70,0,0,"$GNGGA,201342.000,4900.4829,N,00824.8329,E,2,9,0.90,131.3,M,47.9,M,,*49",,,,
2022-01-14T21:14:08+01:00,122,3.11,63.61,1020.84,49.30,56.90,0,0,"$GNGGA,201403.000,4900.4893,N,00824.8484,E,2,9,0.90,132.3,M,47.9,M,,*49",,,,
2022-01-14T21:14:29+01:00,123,3.07,63.30,1020.83,47.70,51.50,0,0,"$GNGGA,201424.000,4900.4950,N,00824.8605,E,2,9,0.91,135.7,M,47.9,M,,*4B",,,,
2022-01-14T21:14:49+01:00,124,3.04,63.71,1020.83,46.50,65.40,0,0,"$GNGGA,201444.000,4900.4998,N,00824.8744,E,2,9,0.90,134.0,M,47.9,M,,*4A",,,,
2022-01-14T21:15:09+01:00,125,2.99,63.90,1020.84,45.20,60.70,0,0,"$GNGGA,201504.000,4900.5039,N,00824.8902,E,2,7,1.14,134.8,M,47.9,M,,*4B",,,,
2022-01-14T21:15:30+01:00,126,2.97,64.14,1020.84,42.60,60.20,0,0,"$GNGGA,201525.000,4900.5120,N,00824.9024,E,2,9,0.90,137.0,M,47.9,M,,*45",,,,
2022-01-14T21:15:50+01:00,127,2.91,64.28,1020.85,44.30,48.40,0,0,"$GNGGA,201545.000,4900.5190,N,00824.9204,E,2,9,0.90,134.1,M,47.9,M,,*4A",,,,
2022-01-14T21:16:10+01:00,128,2.87,64.57,1020.86,46.30,48.70,0,0,"$GNGGA,201605.000,4900.5248,N,00824.9395,E,2,8,0.96,133.8,M,47.9,M,,*4B",,,,
2022-01-14T21:16:31+01:00,129,2.83,64.66,1020.87,46.90,49.30,0,0,"$GNGGA,201626.000,4900.5323,N,00824.9581,E,2,9,0.90,135.5,M,47.9,M,,*49",,,,
2022-01-14T21:16:51+01:00,130,2.76,64.62,1020.87,49.30,73.80,0,0,"$GNGGA,201646.000,4900.5400,N,00824.9771,E,2,9,0.90,134.6,M,47.9,M,,*46",,,,
2022-01-14T21:17:11+01:00,131,2.69,65.04,1020.87,48.40,75.00,0,0,"$GNGGA,201706.000,4900.5344,N,00824.9900,E,2,9,0.90,126.9,M,47.9,M,,*40",,,,
2022-01-14T21:17:32+01:00,132,2.64,65.17,1020.86,48.10,73.70,0,0,"$GNGGA,201727.000,4900.5336,N,00825.0049,E,2,9,0.90,124.2,M,47.9,M,,*43",,,,
2022-01-14T21:17:52+01:00,133,2.60,65.15,1020.87,48.30,68.70,0,0,"$GNGGA,201747.000,4900.5305,N,00825.0207,E,2,9,0.90,113.3,M,47.9,M,,*48",,,,
2022-01-14T21:18:12+01:00,134,2.52,65.16,1020.88,52.10,93.30,0,0,"$GNGGA,201807.000,4900.5273,N,00825.0417,E,2,8,0.94,113.7,M,47.9,M,,*45",,,,
2022-01-14T21:18:33+01:00,135,2.40,65.51,1020.88,56.80,113.70,0,0,"$GNGGA,201828.000,4900.5223,N,00825.0599,E,2,8,1.04,114.2,M,47.9,M,,*40",,,,
2022-01-14T21:18:53+01:00,136,2.21,66.27,1020.87,52.50,102.80,0,0,"$GNGGA,201848.000,4900.5211,N,00825.0808,E,2,8,1.04,118.3,M,47.9,M,,*4F",,,,
2022-01-14T21:19:13+01:00,137,2.12,67.36,1020.86,48.70,89.20,0,0,"$GNGGA,201908.000,4900.5181,N,00825.0998,E,2,9,1.02,121.4,M,47.9,M,,*42",,,,
2022-01-14T21:19:34+01:00,138,2.11,68.28,1020.86,114.50,305.70,0,0,"$GNGGA,201929.000,4900.5138,N,00825.1198,E,2,10,0.87,121.5,M,47.9,M,,*7F",,,,
2022-01-14T21:19:54+01:00,139,2.19,68.23,1020.85,102.80,199.70,0,0,"$GNGGA,201949.000,4900.5127,N,00825.1392,E,2,10,0.87,121.2,M,47.9,M,,*78",,,,
2022-01-14T21:20:14+01:00,140,2.30,67.81,1020.84,64.80,99.80,0,0,"$GNGGA,202009.000,4900.5125,N,00825.1597,E,2,10,0.87,119.7,M,47.9,M,,*79",,,,
2022-01-14T21:20:35+01:00,141,2.45,67.00,1020.84,53.10,82.00,0,0,"$GNGGA,202030.000,4900.5103,N,00825.1800,E,2,10,0.87,122.2,M,47.9,M,,*79",,,,
2022-01-14T21:20:55+01:00,142,2.50,66.21,1020.84,49.00,66.50,0,0,"$GNGGA,202050.000,4900.5024,N,00825.1992,E,2,10,0.87,121.8,M,47.9,M,,*78",,,,
2022-01-14T21:21:15+01:00,143,2.58,65.93,1020.84,42.90,59.70,0,0,"$GNGGA,202110.000,4900.4992,N,00825.2170,E,2,10,0.87,117.9,M,47.9,M,,*7B",,,,
2022-01-14T21:21:36+01:00,144,2.70,65.54,1020.83,45.20,61.10,0,0,"$GNGGA,202131.000,4900.4964,N,00825.2377,E,2,10,0.87,116.9,M,47.9,M,,*75",,,,
2022-01-14T21:21:56+01:00,145,2.84,65.34,1020.83,48.00,70.50,0,0,"$GNGGA,202151.000,4900.4897,N,00825.2579,E,2,10,0.87,118.4,M,47.9,M,,*75",,,,
2022-01-14T21:22:16+01:00,146,2.99,65.10,1020.82,47.70,64.10,0,0,"$GNGGA,202211.000,4900.4857,N,00825.2763,E,2,10,0.87,116.1,M,47.9,M,,*7C",,,,
2022-01-14T21:22:37+01:00,147,2.94,64.50,1020.82,45.00,58.60,0,0,"$GNGGA,202232.000,4900.4857,N,00825.2954,E,2,10,0.87,118.0,M,47.9,M,,*78",,,,
2022-01-14T21:22:58+01:00,148,2.81,65.13,1020.82,43.50,66.90,0,0,"$GNGGA,202253.000,4900.4831,N,00825.3137,E,2,10,0.87,124.5,M,47.9,M,,*79",,,,
2022-01-14T21:23:18+01:00,149,2.62,66.10,1020.84,42.80,66.60,0,0,"$GNGGA,202313.000,4900.4798,N,00825.3324,E,2,10,0.87,128.7,M,47.9,M,,*7E",,,,
2022-01-14T21:23:39+01:00,150,2.39,67.15,1020.84,40.70,53.40,0,0,"$GNGGA,202334.000,4900.4744,N,00825.3545,E,2,10,0.87,128.6,M,47.9,M,,*7A",,,,
2022-01-14T21:23:59+01:00,151,2.23,68.05,1020.84,37.60,42.40,0,0,"$GNGGA,202354.000,4900.4653,N,00825.3722,E,2,10,0.88,125.6,M,47.9,M,,*7A",,,,
2022-01-14T21:24:19+01:00,152,2.17,68.13,1020.84,39.40,52.40,0,0,"$GNGGA,202414.000,4900.4641,N,00825.3888,E,2,10,0.87,122.1,M,47.9,M,,*7A",,,,
2022-01-14T21:24:40+01:00,153,2.19,68.30,1020.84,53.80,105.90,0,0,"$GNGGA,202435.000,4900.4587,N,00825.4073,E,2,10,0.87,121.7,M,47.9,M,,*7E",,,,
2022-01-14T21:25:00+01:00,154,2.15,68.02,1020.82,43.60,72.80,0,0,"$GNGGA,202455.000,4900.4606,N,00825.4242,E,2,10,0.87,121.9,M,47.9,M,,*7C",,,,
2022-01-14T21:25:20+01:00,155,2.11,67.86,1020.80,52.00,55.00,0,0,"$GNGGA,202515.000,4900.4624,N,00825.4230,E,2,10,0.88,125.8,M,47.9,M,,*76",,,,
2022-01-14T21:25:41+01:00,156,2.04,67.91,1020.80,43.90,57.10,0,0,"$GNGGA,202536.000,4900.4635,N,00825.4241,E,2,10,0.88,124.7,M,47.9,M,,*7F",,,,
2022-01-14T21:26:01+01:00,157,1.98,67.93,1020.80,43.00,62.00,0,0,"$GNGGA,202556.000,4900.4733,N,00825.4275,E,2,10,0.89,127.2,M,47.9,M,,*7E",,,,
2022-01-14T21:26:21+01:00,158,1.92,68.01,1020.79,39.00,57.30,0,0,"$GNGGA,202616.000,4900.4859,N,00825.4322,E,2,10,0.89,135.4,M,47.9,M,,*7C",,,,
2022-01-14T21:26:42+01:00,159,1.95,68.45,1020.78,41.00,57.70,0,0,"$GNGGA,202637.000,4900.4954,N,00825.4351,E,2,9,1.01,155.0,M,47.9,M,,*4C",,,,
2022-01-14T21:27:02+01:00,160,2.01,68.51,1020.77,39.60,47.90,0,0,"$GNGGA,202657.000,4900.4943,N,00825.4193,E,2,9,0.90,159.8,M,47.9,M,,*4D",,,,
2022-01-14T21:27:22+01:00,161,2.15,68.51,1020.75,37.50,43.40,0,0,"$GNGGA,202717.000,4900.5034,N,00825.4267,E,2,8,0.91,157.6,M,47.9,M,,*48",,,,
2022-01-14T21:27:51+01:00,162,2.37,68.99,1020.69,34.60,36.40,0,0,"$GNGGA,202738.000,4900.5075,N,00825.4468,E,2,5,2.45,149.7,M,47.9,M,,*41",,,,
2022-01-14T21:28:13+01:00,163,2.75,69.23,1020.46,34.30,36.10,0,0,"$GNGGA,202807.000,4900.5217,N,00825.4888,E,0,4,,45.4,M,47.9,M,,*66",,,,
2022-01-14T21:28:33+01:00,164,3.29,69.64,1020.28,33.10,34.80,0,0,"$GNGGA,202828.000,4900.4939,N,00825.4450,E,2,4,1.42,91.4,M,47.9,M,,*76",,,,
