created_at,entry_id,field1,field2,field3,field4,field5,field6,field7,field8,latitude,longitude,elevation,status
2022-05-20T21:27:39+02:00,1,28.45,49.13,1004.84,5.00,9.30,0,0,"$GNGGA,192735.093,4900.4987,N,00825.4239,E,0,0,,133.2,M,47.9,M,,*59",,,,
2022-05-20T21:28:01+02:00,2,28.33,48.59,1004.87,4.40,10.70,0,0,"$GNGGA,192756.088,4900.4987,N,00825.4239,E,0,0,,133.2,M,47.9,M,,*56",,,,
2022-05-20T21:28:21+02:00,3,28.33,48.06,1004.90,4.50,9.80,0,0,"$GNGGA,192816.094,4900.5075,N,00825.4418,E,0,2,,133.2,M,47.9,M,,*52",,,,
2022-05-20T21:28:42+02:00,4,28.41,47.27,1004.90,4.60,8.90,0,0,"$GNGGA,192837.000,4900.5255,N,00825.4074,E,1,6,1.68,184.3,M,47.9,M,,*4B",,,,
2022-05-20T21:29:03+02:00,5,28.54,46.47,1004.92,4.70,8.30,0,0,"$GNGGA,192858.000,4900.5195,N,00825.4115,E,1,5,2.56,182.1,M,47.9,M,,*42",,,,
2022-05-20T21:29:23+02:00,6,28.70,46.02,1004.95,4.10,5.60,0,0,"$GNGGA,192918.000,4900.5195,N,00825.4234,E,1,8,0.95,155.4,M,47.9,M,,*48",,,,
2022-05-20T21:29:43+02:00,7,28.88,45.48,1004.98,4.30,6.70,0,0,"$GNGGA,192938.000,4900.5191,N,00825.4227,E,1,9,0.91,152.8,M,47.9,M,,*42",,,,
2022-05-20T21:30:04+02:00,8,29.06,45.01,1004.99,4.60,7.40,0,0,"$GNGGA,192959.000,4900.5185,N,00825.4231,E,1,9,0.91,152.7,M,47.9,M,,*48",,,,
2022-05-20T21:30:24+02:00,9,29.24,44.79,1005.00,4.20,8.20,0,0,"$GNGGA,193019.000,4900.5193,N,00825.4217,E,1,9,0.91,152.8,M,47.9,M,,*48",,,,
2022-05-20T21:30:44+02:00,10,29.42,44.50,1005.01,3.80,7.80,0,0,"$GNGGA,193039.000,4900.5180,N,00825.4233,E,1,8,1.02,151.8,M,47.9,M,,*47",,,,
2022-05-20T21:31:05+02:00,11,29.60,44.14,1005.03,4.50,8.30,0,0,"$GNGGA,193100.000,4900.5175,N,00825.4230,E,1,9,0.91,151.9,M,47.9,M,,*4E",,,,
2022-05-20T21:31:25+02:00,12,29.75,43.89,1005.05,3.70,7.10,0,0,"$GNGGA,193120.000,4900.5279,N,00825.4136,E,1,9,0.91,156.0,M,47.9,M,,*48",,,,
2022-05-20T21:31:45+02:00,13,29.89,43.59,1005.06,3.90,7.80,0,0,"$GNGGA,193140.000,4900.5396,N,00825.4115,E,1,9,0.91,161.4,M,47.9,M,,*4F",,,,
2022-05-20T21:32:06+02:00,14,30.02,43.39,1005.07,3.60,5.30,0,0,"$GNGGA,193201.000,4900.5490,N,00825.4097,E,1,9,0.91,157.7,M,47.9,M,,*45",,,,
2022-05-20T21:32:26+02:00,15,30.15,43.54,1005.06,3.70,7.00,0,0,"$GNGGA,193221.000,4900.5572,N,00825.4136,E,1,9,0.91,147.0,M,47.9,M,,*46",,,,
2022-05-20T21:32:46+02:00,16,30.29,43.40,1005.04,12.40,14.40,0,0,"$GNGGA,193241.000,4900.5676,N,00825.4101,E,1,9,0.91,139.8,M,47.9,M,,*42",,,,
2022-05-20T21:33:07+02:00,17,30.42,42.95,1005.05,6.40,8.20,0,0,"$GNGGA,193302.000,4900.5787,N,00825.4118,E,1,9,0.90,140.2,M,47.9,M,,*46",,,,
2022-05-20T21:33:27+02:00,18,30.53,42.75,1005.04,4.00,8.10,0,0,"$GNGGA,193322.000,4900.5854,N,00825.4014,E,1,9,0.90,141.0,M,47.9,M,,*4B",,,,
2022-05-20T21:33:47+02:00,19,30.65,42.52,1005.05,3.80,8.60,0,0,"$GNGGA,193342.000,4900.5968,N,00825.4010,E,1,9,0.90,134.8,M,47.9,M,,*4D",,,,
2022-05-20T21:34:08+02:00,20,30.76,42.45,1005.05,4.10,7.30,0,0,"$GNGGA,193403.000,4900.6055,N,00825.4045,E,1,9,0.90,133.6,M,47.9,M,,*42",,,,
2022-05-20T21:34:28+02:00,21,30.87,42.36,1005.06,4.20,7.70,0,0,"$GNGGA,193423.000,4900.6162,N,00825.3987,E,1,9,0.91,136.0,M,47.9,M,,*47",,,,
2022-05-20T21:34:48+02:00,22,30.98,42.54,1005.06,4.20,7.90,0,0,"$GNGGA,193443.000,4900.6251,N,00825.3984,E,1,8,0.98,136.6,M,47.9,M,,*4F",,,,
2022-05-20T21:35:09+02:00,23,31.08,42.24,1005.06,4.00,6.90,0,0,"$GNGGA,193504.000,4900.6340,N,00825.3986,E,1,9,0.90,135.2,M,47.9,M,,*40",,,,
2022-05-20T21:35:29+02:00,24,31.17,41.98,1005.06,4.60,7.60,0,0,"$GNGGA,193524.000,4900.6450,N,00825.3920,E,1,9,0.90,137.7,M,47.9,M,,*4F",,,,
2022-05-20T21:35:49+02:00,25,31.22,41.43,1005.07,4.50,9.00,0,0,"$GNGGA,193544.000,4900.6562,N,00825.3989,E,1,9,0.91,140.2,M,47.9,M,,*4E",,,,
2022-05-20T21:36:10+02:00,26,31.26,41.42,1005.07,4.20,10.00,0,0,"$GNGGA,193605.000,4900.6668,N,00825.3963,E,1,9,0.90,144.1,M,47.9,M,,*43",,,,
2022-05-20T21:36:30+02:00,27,31.28,41.28,1005.06,4.00,7.10,0,0,"$GNGGA,193625.000,4900.6779,N,00825.4016,E,1,9,0.91,148.2,M,47.9,M,,*42",,,,
2022-05-20T21:36:50+02:00,28,31.31,41.28,1005.05,3.70,5.30,0,0,"$GNGGA,193645.000,4900.6834,N,00825.4159,E,1,9,0.90,119.2,M,47.9,M,,*4D",,,,
2022-05-20T21:37:11+02:00,29,31.34,41.40,1005.04,3.60,6.30,0,0,"$GNGGA,193706.000,4900.6858,N,00825.4167,E,1,9,0.91,112.8,M,47.9,M,,*4C",,,,
2022-05-20T21:37:31+02:00,30,31.37,41.35,1005.04,4.30,8.60,0,0,"$GNGGA,193726.000,4900.6942,N,00825.4028,E,1,9,0.90,112.2,M,47.9,M,,*45",,,,
2022-05-20T21:37:51+02:00,31,31.40,41.21,1005.05,4.50,9.60,0,0,"$GNGGA,193746.000,4900.6996,N,00825.3845,E,1,9,0.90,119.5,M,47.9,M,,*42",,,,
2022-05-20T21:38:12+02:00,32,31.40,41.24,1005.06,4.20,8.60,0,0,"$GNGGA,193807.000,4900.7144,N,00825.3824,E,1,8,1.01,123.4,M,47.9,M,,*49",,,,
2022-05-20T21:38:32+02:00,33,31.38,41.21,1005.07,4.10,8.10,0,0,"$GNGGA,193827.000,4900.7261,N,00825.3761,E,1,9,0.90,132.3,M,47.9,M,,*4E",,,,
2022-05-20T21:38:52+02:00,34,31.35,41.38,1005.09,4.30,9.10,0,0,"$GNGGA,193847.000,4900.7386,N,00825.3683,E,1,8,1.01,142.9,M,47.9,M,,*48",,,,
2022-05-20T21:39:13+02:00,35,31.31,41.66,1005.12,3.60,7.00,0,0,"$GNGGA,193908.000,4900.7509,N,00825.3694,E,1,8,1.02,140.9,M,47.9,M,,*44",,,,
2022-05-20T21:39:33+02:00,36,31.26,41.68,1005.14,3.60,6.00,0,0,"$GNGGA,193928.000,4900.7628,N,00825.3638,E,1,8,1.01,144.6,M,47.9,M,,*48",,,,
2022-05-20T21:39:53+02:00,37,31.22,41.86,1005.16,4.00,8.50,0,0,"$GNGGA,193948.000,4900.7754,N,00825.3590,E,1,8,1.01,149.5,M,47.9,M,,*4B",,,,
2022-05-20T21:40:14+02:00,38,31.17,42.05,1005.18,3.80,6.00,0,0,"$GNGGA,194009.000,4900.7892,N,00825.3604,E,1,8,1.01,146.9,M,47.9,M,,*48",,,,
2022-05-20T21:40:34+02:00,39,31.12,42.31,1005.19,3.80,6.30,0,0,"$GNGGA,194029.000,4900.8001,N,00825.3555,E,1,8,1.02,142.7,M,47.9,M,,*49",,,,
2022-05-20T21:40:54+02:00,40,31.07,42.26,1005.20,4.10,10.10,0,0,"$GNGGA,194049.000,4900.8113,N,00825.3549,E,1,8,1.02,137.6,M,47.9,M,,*43",,,,
2022-05-20T21:41:15+02:00,41,31.03,42.43,1005.20,4.00,7.60,0,0,"$GNGGA,194110.000,4900.8240,N,00825.3496,E,1,7,1.49,137.3,M,47.9,M,,*4D",,,,
2022-05-20T21:41:35+02:00,42,30.98,42.41,1005.22,4.20,6.80,0,0,"$GNGGA,194130.000,4900.8353,N,00825.3534,E,1,7,1.49,141.7,M,47.9,M,,*40",,,,
2022-05-20T21:41:55+02:00,43,30.93,42.39,1005.22,4.20,7.80,0,0,"$GNGGA,194150.000,4900.8458,N,00825.3435,E,1,7,1.31,143.3,M,47.9,M,,*43",,,,
2022-05-20T21:42:16+02:00,44,30.89,42.50,1005.24,4.10,6.80,0,0,"$GNGGA,194211.000,4900.8589,N,00825.3441,E,1,7,1.31,142.0,M,47.9,M,,*49",,,,
2022-05-20T21:42:36+02:00,45,30.85,42.50,1005.24,4.40,8.50,0,0,"$GNGGA,194231.000,4900.8700,N,00825.3432,E,1,7,1.50,141.3,M,47.9,M,,*4B",,,,
2022-05-20T21:42:56+02:00,46,30.82,42.57,1005.25,7.40,11.20,0,0,"$GNGGA,194251.000,4900.8810,N,00825.3477,E,1,7,1.50,117.5,M,47.9,M,,*47",,,,
2022-05-20T21:43:17+02:00,47,30.79,42.72,1005.25,6.20,11.90,0,0,"$GNGGA,194312.000,4900.8936,N,00825.3443,E,1,7,1.32,118.8,M,47.9,M,,*45",,,,
2022-05-20T21:43:37+02:00,48,30.77,42.81,1005.26,4.80,8.60,0,0,"$GNGGA,194332.000,4900.9056,N,00825.3414,E,1,8,1.01,121.5,M,47.9,M,,*43",,,,
2022-05-20T21:43:57+02:00,49,30.75,43.02,1005.29,4.50,7.60,0,0,"$GNGGA,194352.000,4900.9180,N,00825.3380,E,1,8,1.01,123.5,M,47.9,M,,*47",,,,
2022-05-20T21:44:22+02:00,50,30.73,43.08,1005.32,4.20,8.60,0,0,"$GNGGA,194413.000,4900.9311,N,00825.3363,E,1,8,1.01,119.4,M,47.9,M,,*4A",,,,
2022-05-20T21:44:42+02:00,51,30.71,42.96,1005.35,4.00,7.00,0,0,"$GNGGA,194437.000,4900.9460,N,00825.3349,E,1,8,1.01,114.7,M,47.9,M,,*4B",,,,
2022-05-20T21:45:03+02:00,52,30.69,42.97,1005.39,4.40,7.20,0,0,"$GNGGA,194458.000,4900.9588,N,00825.3330,E,1,8,1.01,113.3,M,47.9,M,,*48",,,,
2022-05-20T21:45:23+02:00,53,30.67,43.16,1005.42,4.10,7.30,0,0,"$GNGGA,194518.000,4900.9712,N,00825.3293,E,1,9,0.91,117.3,M,47.9,M,,*49",,,,
2022-05-20T21:45:43+02:00,54,30.66,43.51,1005.44,4.50,7.70,0,0,"$GNGGA,194538.000,4900.9841,N,00825.3242,E,1,9,0.91,124.4,M,47.9,M,,*49",,,,
2022-05-20T21:46:04+02:00,55,30.64,43.77,1005.46,4.30,8.20,0,0,"$GNGGA,194559.000,4900.9971,N,00825.3193,E,1,9,0.93,130.5,M,47.9,M,,*45",,,,
2022-05-20T21:46:24+02:00,56,30.63,43.64,1005.47,4.40,7.80,0,0,"$GNGGA,194619.000,4901.0071,N,00825.3148,E,1,9,0.91,128.5,M,47.9,M,,*4E",,,,
2022-05-20T21:46:45+02:00,57,30.61,43.44,1005.50,4.50,7.90,0,0,"$GNGGA,194640.000,4901.0179,N,00825.3174,E,1,8,1.32,123.1,M,47.9,M,,*42",,,,
2022-05-20T21:47:06+02:00,58,30.60,44.03,1005.52,4.20,7.40,0,0,"$GNGGA,194701.000,4901.0306,N,00825.3141,E,1,10,0.83,117.1,M,47.9,M,,*7F",,,,
2022-05-20T21:47:26+02:00,59,30.59,44.28,1005.54,4.10,7.10,0,0,"$GNGGA,194721.000,4901.0416,N,00825.3103,E,1,10,0.83,122.3,M,47.9,M,,*79",,,,
2022-05-20T21:47:47+02:00,60,30.58,44.15,1005.55,3.80,7.30,0,0,"$GNGGA,194742.000,4901.0544,N,00825.3073,E,1,10,0.83,121.1,M,47.9,M,,*7D",,,,
2022-05-20T21:48:08+02:00,61,30.58,44.41,1005.56,4.00,8.30,0,0,"$GNGGA,194803.000,4901.0668,N,00825.3086,E,1,10,0.83,109.7,M,47.9,M,,*7C",,,,
2022-05-20T21:48:29+02:00,62,30.58,44.40,1005.56,4.20,8.70,0,0,"$GNGGA,194824.000,4901.0795,N,00825.3050,E,1,9,0.92,110.9,M,47.9,M,,*4F",,,,
2022-05-20T21:48:50+02:00,63,30.58,44.38,1005.58,4.10,9.90,0,0,"$GNGGA,194845.000,4901.0921,N,00825.3000,E,1,9,0.92,117.1,M,47.9,M,,*43",,,,
2022-05-20T21:49:11+02:00,64,30.57,44.65,1005.59,4.10,9.30,0,0,"$GNGGA,194906.000,4901.1062,N,00825.2982,E,1,8,1.31,117.8,M,47.9,M,,*48",,,,
2022-05-20T21:49:32+02:00,65,30.56,44.78,1005.59,3.80,6.90,0,0,"$GNGGA,194927.000,4901.1204,N,00825.2938,E,1,9,0.92,117.4,M,47.9,M,,*4D",,,,
2022-05-20T21:49:53+02:00,66,30.56,45.10,1005.59,4.30,7.90,0,0,"$GNGGA,194948.000,4901.1307,N,00825.2917,E,1,9,0.90,118.7,M,47.9,M,,*45",,,,
2022-05-20T21:50:14+02:00,67,30.56,45.31,1005.59,4.10,7.40,0,0,"$GNGGA,195009.000,4901.1442,N,00825.2892,E,1,9,0.92,116.4,M,47.9,M,,*4D",,,,
2022-05-20T21:50:35+02:00,68,30.56,44.98,1005.58,4.00,7.80,0,0,"$GNGGA,195030.000,4901.1560,N,00825.2863,E,1,9,0.92,113.5,M,47.9,M,,*4C",,,,
2022-05-20T21:50:55+02:00,69,30.57,44.84,1005.58,3.70,7.10,0,0,"$GNGGA,195050.000,4901.1676,N,00825.2844,E,1,9,0.90,106.9,M,47.9,M,,*41",,,,
2022-05-20T21:51:16+02:00,70,30.58,44.71,1005.57,3.80,5.60,0,0,"$GNGGA,195111.000,4901.1805,N,00825.2824,E,1,9,0.92,105.3,M,47.9,M,,*42",,,,
2022-05-20T21:51:37+02:00,71,30.58,44.10,1005.59,4.30,8.20,0,0,"$GNGGA,195132.000,4901.1886,N,00825.2946,E,1,9,0.90,110.5,M,47.9,M,,*4D",,,,
2022-05-20T21:51:58+02:00,72,30.59,44.22,1005.60,4.80,10.60,0,0,"$GNGGA,195153.000,4901.1910,N,00825.3100,E,1,9,0.90,116.0,M,47.9,M,,*4C",,,,
2022-05-20T21:52:20+02:00,73,30.60,44.10,1005.61,4.20,6.90,0,0,"$GNGGA,195215.000,4901.1919,N,00825.3242,E,1,9,0.90,117.0,M,47.9,M,,*40",,,,
2022-05-20T21:52:41+02:00,74,30.60,43.68,1005.62,4.40,7.70,0,0,"$GNGGA,195236.000,4901.1900,N,00825.3401,E,1,9,0.90,123.7,M,47.9,M,,*48",,,,
2022-05-20T21:53:02+02:00,75,30.61,43.51,1005.62,4.50,7.60,0,0,"$GNGGA,195257.000,4901.1853,N,00825.3486,E,1,9,0.90,123.9,M,47.9,M,,*49",,,,
2022-05-20T21:53:22+02:00,76,30.61,43.58,1005.63,4.40,8.50,0,0,"$GNGGA,195317.000,4901.1850,N,00825.3534,E,1,9,0.90,117.6,M,47.9,M,,*4F",,,,
2022-05-20T21:53:43+02:00,77,30.61,43.55,1005.64,4.20,7.30,0,0,"$GNGGA,195338.000,4901.1850,N,00825.3534,E,1,8,1.13,117.6,M,47.9,M,,*49",,,,
2022-05-20T21:54:04+02:00,78,30.61,43.50,1005.66,4.20,5.30,0,0,"$GNGGA,195359.000,4901.1849,N,00825.3531,E,1,9,0.91,117.7,M,47.9,M,,*48",,,,
2022-05-20T21:54:25+02:00,79,30.60,43.38,1005.67,4.60,6.10,0,0,"$GNGGA,195420.000,4901.1855,N,00825.3534,E,1,9,0.91,117.6,M,47.9,M,,*48",,,,
2022-05-20T21:54:46+02:00,80,30.59,43.30,1005.68,4.70,6.50,0,0,"$GNGGA,195441.000,4901.1854,N,00825.3535,E,1,9,0.91,117.7,M,47.9,M,,*4E",,,,
2022-05-20T21:55:07+02:00,81,30.58,43.20,1005.68,5.10,6.30,0,0,"$GNGGA,195502.000,4901.1854,N,00825.3538,E,1,9,0.91,117.6,M,47.9,M,,*44",,,,
2022-05-20T21:55:27+02:00,82,30.56,43.12,1005.69,4.40,6.10,0,0,"$GNGGA,195522.000,4901.1854,N,00825.3540,E,1,9,0.91,117.7,M,47.9,M,,*48",,,,
2022-05-20T21:55:47+02:00,83,30.55,43.06,1005.70,4.50,5.90,0,0,"$GNGGA,195542.000,4901.1853,N,00825.3542,E,1,9,0.91,117.9,M,47.9,M,,*45",,,,
2022-05-20T21:56:08+02:00,84,30.54,43.01,1005.71,3.80,6.00,0,0,"$GNGGA,195603.000,4901.1854,N,00825.3558,E,2,9,0.91,116.5,M,47.9,M,,*41",,,,
2022-05-20T21:56:29+02:00,85,30.53,42.95,1005.71,3.60,5.00,0,0,"$GNGGA,195624.000,4901.1876,N,00825.3561,E,2,9,0.90,115.4,M,47.9,M,,*4D",,,,
2022-05-20T21:56:49+02:00,86,30.52,42.95,1005.72,3.70,4.70,0,0,"$GNGGA,195644.000,4901.1882,N,00825.3555,E,2,9,0.90,116.8,M,47.9,M,,*48",,,,
2022-05-20T21:57:10+02:00,87,30.52,42.88,1005.72,3.20,3.90,0,0,"$GNGGA,195705.000,4901.1881,N,00825.3554,E,2,9,0.90,117.0,M,47.9,M,,*47",,,,
2022-05-20T21:57:30+02:00,88,30.51,42.81,1005.72,3.00,4.50,0,0,"$GNGGA,195725.000,4901.1880,N,00825.3551,E,2,9,0.90,117.1,M,47.9,M,,*40",,,,
2022-05-20T21:57:50+02:00,89,30.51,42.80,1005.73,2.80,4.20,0,0,"$GNGGA,195745.000,4901.1881,N,00825.3542,E,2,10,0.89,117.1,M,47.9,M,,*75",,,,
2022-05-20T21:58:11+02:00,90,30.51,42.74,1005.74,2.70,3.50,0,0,"$GNGGA,195806.000,4901.1880,N,00825.3538,E,2,10,0.89,117.2,M,47.9,M,,*72",,,,
2022-05-20T21:58:32+02:00,91,30.51,42.74,1005.74,3.10,4.10,0,0,"$GNGGA,195827.000,4901.1875,N,00825.3531,E,2,11,0.84,117.5,M,47.9,M,,*79",,,,
2022-05-20T21:58:53+02:00,92,30.51,42.70,1005.75,3.60,5.50,0,0,"$GNGGA,195848.000,4901.1873,N,00825.3528,E,2,11,0.84,118.0,M,47.9,M,,*74",,,,
2022-05-20T21:59:14+02:00,93,30.50,42.70,1005.76,3.10,5.20,0,0,"$GNGGA,195909.000,4901.1871,N,00825.3530,E,2,11,0.84,118.3,M,47.9,M,,*78",,,,
2022-05-20T21:59:34+02:00,94,30.50,42.77,1005.76,3.60,5.30,0,0,"$GNGGA,195929.000,4901.1867,N,00825.3524,E,2,12,0.82,118.8,M,47.9,M,,*76",,,,
2022-05-20T21:59:55+02:00,95,30.49,42.73,1005.76,5.80,8.40,0,0,"$GNGGA,195950.000,4901.1868,N,00825.3520,E,2,12,0.82,118.9,M,47.9,M,,*72",,,,
2022-05-20T22:00:16+02:00,96,30.49,42.64,1005.76,5.60,7.10,0,0,"$GNGGA,200011.000,4901.1868,N,00825.3519,E,2,12,0.85,118.8,M,47.9,M,,*7D",,,,
2022-05-20T22:00:37+02:00,97,30.48,42.66,1005.76,4.20,5.60,0,0,"$GNGGA,200032.000,4901.1869,N,00825.3519,E,2,11,0.85,118.8,M,47.9,M,,*7E",,,,
2022-05-20T22:00:58+02:00,98,30.48,42.66,1005.77,3.90,8.20,0,0,"$GNGGA,200053.000,4901.1867,N,00825.3517,E,2,11,0.85,118.7,M,47.9,M,,*76",,,,
2022-05-20T22:01:19+02:00,99,30.47,42.71,1005.77,3.50,4.20,0,0,"$GNGGA,200114.000,4901.1867,N,00825.3517,E,2,11,0.85,118.8,M,47.9,M,,*7B",,,,
2022-05-20T22:01:39+02:00,100,30.46,42.73,1005.76,3.50,5.30,0,0,"$GNGGA,200134.000,4901.1869,N,00825.3518,E,2,11,0.85,118.8,M,47.9,M,,*78",,,,
2022-05-20T22:02:00+02:00,101,30.44,42.83,1005.76,4.50,7.70,0,0,"$GNGGA,200155.000,4901.1867,N,00825.3513,E,2,12,0.82,119.0,M,47.9,M,,*77",,,,
2022-05-20T22:02:20+02:00,102,30.43,42.83,1005.75,5.30,7.70,0,0,"$GNGGA,200215.000,4901.1868,N,00825.3515,E,2,13,0.79,119.1,M,47.9,M,,*7D",,,,
2022-05-20T22:02:41+02:00,103,30.41,42.82,1005.74,4.50,7.00,0,0,"$GNGGA,200236.000,4901.1868,N,00825.3516,E,2,12,1.06,118.8,M,47.9,M,,*7F",,,,
2022-05-20T22:03:02+02:00,104,30.39,42.79,1005.74,4.00,6.70,0,0,"$GNGGA,200257.000,4901.1869,N,00825.3522,E,2,13,0.79,118.6,M,47.9,M,,*78",,,,
2022-05-20T22:03:23+02:00,105,30.37,42.75,1005.73,4.00,5.50,0,0,"$GNGGA,200318.000,4901.1868,N,00825.3520,E,2,13,0.79,118.7,M,47.9,M,,*70",,,,
2022-05-20T22:03:44+02:00,106,30.35,42.90,1005.72,5.20,7.00,0,0,"$GNGGA,200339.000,4901.1868,N,00825.3527,E,2,13,0.79,118.6,M,47.9,M,,*75",,,,
2022-05-20T22:04:05+02:00,107,30.33,42.93,1005.72,4.70,6.00,0,0,"$GNGGA,200400.000,4901.1869,N,00825.3526,E,2,13,0.79,119.4,M,47.9,M,,*7B",,,,
2022-05-20T22:04:25+02:00,108,30.32,42.93,1005.71,4.00,6.10,0,0,"$GNGGA,200420.000,4901.1868,N,00825.3527,E,2,13,0.79,119.3,M,47.9,M,,*7E",,,,
2022-05-20T22:04:46+02:00,109,30.30,42.90,1005.71,3.70,6.10,0,0,"$GNGGA,200441.000,4901.1867,N,00825.3530,E,2,12,1.06,119.3,M,47.9,M,,*78",,,,
2022-05-20T22:05:07+02:00,110,30.29,42.86,1005.71,3.70,5.20,0,0,"$GNGGA,200502.000,4901.1866,N,00825.3532,E,2,13,0.79,119.0,M,47.9,M,,*76",,,,
2022-05-20T22:05:28+02:00,111,30.27,42.86,1005.71,3.20,4.60,0,0,"$GNGGA,200523.000,4901.1867,N,00825.3532,E,2,13,0.79,118.8,M,47.9,M,,*7D",,,,
2022-05-20T22:05:49+02:00,112,30.26,42.93,1005.71,3.10,5.00,0,0,"$GNGGA,200544.000,4901.1869,N,00825.3533,E,2,13,0.79,118.4,M,47.9,M,,*7F",,,,
2022-05-20T22:06:10+02:00,113,30.24,42.96,1005.71,3.40,4.90,0,0,"$GNGGA,200605.000,4901.1868,N,00825.3532,E,2,13,0.79,118.6,M,47.9,M,,*7B",,,,
2022-05-20T22:06:31+02:00,114,30.22,43.09,1005.71,3.90,4.90,0,0,"$GNGGA,200626.000,4901.1865,N,00825.3531,E,2,13,0.79,119.1,M,47.9,M,,*72",,,,
2022-05-20T22:06:52+02:00,115,30.21,43.30,1005.71,5.00,7.60,0,0,"$GNGGA,200647.000,4901.1865,N,00825.3533,E,2,13,0.79,119.1,M,47.9,M,,*77",,,,
2022-05-20T22:07:13+02:00,116,30.22,43.24,1005.72,4.90,10.70,0,0,"$GNGGA,200708.000,4901.1863,N,00825.3530,E,2,12,0.83,118.9,M,47.9,M,,*75",,,,
2022-05-20T22:07:34+02:00,117,30.23,43.10,1005.73,5.40,11.40,0,0,"$GNGGA,200729.000,4901.1863,N,00825.3527,E,2,13,0.79,118.8,M,47.9,M,,*75",,,,
2022-05-20T22:07:54+02:00,118,30.26,43.10,1005.74,5.90,10.90,0,0,"$GNGGA,200749.000,4901.1864,N,00825.3522,E,2,14,0.98,118.7,M,47.9,M,,*76",,,,
2022-05-20T22:08:15+02:00,119,30.29,42.85,1005.75,5.40,7.90,0,0,"$GNGGA,200810.000,4901.1866,N,00825.3513,E,2,14,0.73,118.4,M,47.9,M,,*73",,,,
2022-05-20T22:08:36+02:00,120,30.33,42.62,1005.76,4.90,6.80,0,0,"$GNGGA,200831.000,4901.1868,N,00825.3515,E,2,13,0.76,118.4,M,47.9,M,,*7A",,,,
2022-05-20T22:08:57+02:00,121,30.35,42.60,1005.75,4.60,6.10,0,0,"$GNGGA,200852.000,4901.1868,N,00825.3521,E,2,14,0.73,118.1,M,47.9,M,,*7F",,,,
2022-05-20T22:09:18+02:00,122,30.36,42.58,1005.75,4.60,5.30,0,0,"$GNGGA,200913.000,4901.1868,N,00825.3523,E,2,14,0.73,118.1,M,47.9,M,,*79",,,,
2022-05-20T22:09:39+02:00,123,30.37,42.55,1005.77,4.20,6.20,0,0,"$GNGGA,200934.000,4901.1866,N,00825.3528,E,2,14,0.73,118.1,M,47.9,M,,*79",,,,
2022-05-20T22:10:00+02:00,124,30.38,42.50,1005.78,4.70,5.60,0,0,"$GNGGA,200955.000,4901.1864,N,00825.3534,E,2,13,0.76,117.9,M,47.9,M,,*74",,,,
2022-05-20T22:10:21+02:00,125,30.39,42.43,1005.79,4.70,5.20,0,0,"$GNGGA,201016.000,4901.1860,N,00825.3530,E,2,13,0.76,118.2,M,47.9,M,,*7F",,,,
2022-05-20T22:10:42+02:00,126,30.39,42.46,1005.80,5.20,6.10,0,0,"$GNGGA,201037.000,4901.1859,N,00825.3525,E,2,13,0.76,118.3,M,47.9,M,,*73",,,,
2022-05-20T22:11:03+02:00,127,30.37,42.56,1005.82,4.80,5.30,0,0,"$GNGGA,201058.000,4901.1860,N,00825.3525,E,2,13,0.76,118.3,M,47.9,M,,*70",,,,
2022-05-20T22:11:24+02:00,128,30.35,42.76,1005.83,4.00,5.00,0,0,"$GNGGA,201119.000,4901.1863,N,00825.3529,E,2,14,0.73,118.5,M,47.9,M,,*7F",,,,
2022-05-20T22:11:45+02:00,129,30.32,42.99,1005.83,4.10,5.70,0,0,"$GNGGA,201140.000,4901.1863,N,00825.3536,E,2,14,0.73,118.6,M,47.9,M,,*7E",,,,
2022-05-20T22:12:06+02:00,130,30.30,43.05,1005.84,4.10,5.70,0,0,"$GNGGA,201201.000,4901.1862,N,00825.3539,E,2,14,0.73,118.6,M,47.9,M,,*76",,,,
2022-05-20T22:12:27+02:00,131,30.28,43.07,1005.84,3.60,4.80,0,0,"$GNGGA,201221.000,4901.1862,N,00825.3540,E,2,14,0.73,118.5,M,47.9,M,,*79",,,,
2022-05-20T22:12:47+02:00,132,30.27,42.96,1005.85,3.30,4.10,0,0,"$GNGGA,201242.000,4901.1861,N,00825.3543,E,2,14,0.73,118.5,M,47.9,M,,*7C",,,,
2022-05-20T22:13:08+02:00,133,30.26,43.04,1005.85,4.00,5.30,0,0,"$GNGGA,201303.000,4901.1856,N,00825.3542,E,2,14,0.72,119.3,M,47.9,M,,*7B",,,,
2022-05-20T22:13:29+02:00,134,30.26,43.02,1005.86,4.50,6.70,0,0,"$GNGGA,201324.000,4901.1842,N,00825.3548,E,2,14,0.72,118.8,M,47.9,M,,*7B",,,,
2022-05-20T22:13:50+02:00,135,30.26,42.99,1005.86,4.00,5.50,0,0,"$GNGGA,201345.000,4901.1843,N,00825.3535,E,2,14,0.72,118.8,M,47.9,M,,*77",,,,
2022-05-20T22:14:11+02:00,136,30.26,42.93,1005.86,3.70,5.50,0,0,"$GNGGA,201406.000,4901.1843,N,00825.3535,E,2,13,0.75,118.8,M,47.9,M,,*77",,,,
2022-05-20T22:14:32+02:00,137,30.25,42.93,1005.86,3.30,4.00,0,0,"$GNGGA,201427.000,4901.1843,N,00825.3535,E,2,14,0.72,118.7,M,47.9,M,,*7B",,,,
2022-05-20T22:14:53+02:00,138,30.24,43.00,1005.86,3.60,4.50,0,0,"$GNGGA,201448.000,4901.1846,N,00825.3535,E,2,14,0.72,118.4,M,47.9,M,,*74",,,,
2022-05-20T22:15:14+02:00,139,30.23,43.23,1005.86,7.30,8.10,0,0,"$GNGGA,201509.000,4901.1846,N,00825.3536,E,2,14,0.72,118.3,M,47.9,M,,*74",,,,
2022-05-20T22:15:35+02:00,140,30.23,43.15,1005.86,8.00,9.30,0,0,"$GNGGA,201530.000,4901.1848,N,00825.3541,E,2,14,0.72,118.0,M,47.9,M,,*73",,,,
2022-05-20T22:15:56+02:00,141,30.22,43.13,1005.87,7.00,7.90,0,0,"$GNGGA,201551.000,4901.1848,N,00825.3543,E,2,14,0.72,118.1,M,47.9,M,,*77",,,,
2022-05-20T22:16:18+02:00,142,30.20,43.42,1005.86,5.30,7.50,0,0,"$GNGGA,201613.000,4901.1834,N,00825.3551,E,2,13,0.78,118.9,M,47.9,M,,*7F",,,,
2022-05-20T22:16:39+02:00,143,30.20,43.67,1005.88,5.30,9.30,0,0,"$GNGGA,201634.000,4901.1862,N,00825.3428,E,2,14,0.71,117.0,M,47.9,M,,*7E",,,,
2022-05-20T22:17:00+02:00,144,30.22,43.73,1005.90,5.10,9.10,0,0,"$GNGGA,201655.000,4901.1974,N,00825.3326,E,2,14,0.71,117.3,M,47.9,M,,*75",,,,
2022-05-20T22:17:21+02:00,145,30.24,43.89,1005.91,5.00,9.00,0,0,"$GNGGA,201716.000,4901.2002,N,00825.3166,E,2,13,0.75,113.4,M,47.9,M,,*7E",,,,
2022-05-20T22:17:42+02:00,146,30.28,44.33,1005.92,4.60,8.40,0,0,"$GNGGA,201737.000,4901.1977,N,00825.2985,E,2,13,0.75,118.6,M,47.9,M,,*78",,,,
2022-05-20T22:18:03+02:00,147,30.31,44.24,1005.94,4.20,8.50,0,0,"$GNGGA,201758.000,4901.1902,N,00825.2860,E,2,14,0.71,119.3,M,47.9,M,,*7E",,,,
2022-05-20T22:18:23+02:00,148,30.35,44.20,1005.95,4.70,9.10,0,0,"$GNGGA,201818.000,4901.1815,N,00825.2853,E,2,14,0.71,117.7,M,47.9,M,,*78",,,,
2022-05-20T22:18:44+02:00,149,30.38,44.60,1005.94,4.70,10.30,0,0,"$GNGGA,201839.000,4901.1714,N,00825.2882,E,2,14,0.71,118.6,M,47.9,M,,*77",,,,
2022-05-20T22:19:05+02:00,150,30.40,44.68,1005.94,4.20,7.20,0,0,"$GNGGA,201900.000,4901.1581,N,00825.2902,E,2,14,0.71,118.4,M,47.9,M,,*79",,,,
2022-05-20T22:19:26+02:00,151,30.40,44.69,1005.94,3.70,6.10,0,0,"$GNGGA,201921.000,4901.1467,N,00825.2927,E,2,14,0.71,114.8,M,47.9,M,,*74",,,,
2022-05-20T22:19:47+02:00,152,30.40,44.74,1005.95,4.00,5.70,0,0,"$GNGGA,201942.000,4901.1346,N,00825.2957,E,2,14,0.71,109.7,M,47.9,M,,*71",,,,
2022-05-20T22:20:07+02:00,153,30.42,44.71,1005.96,4.20,6.40,0,0,"$GNGGA,202002.000,4901.1238,N,00825.2987,E,2,14,0.71,109.7,M,47.9,M,,*7A",,,,
2022-05-20T22:20:28+02:00,154,30.43,44.80,1005.96,4.30,6.00,0,0,"$GNGGA,202023.000,4901.1135,N,00825.3015,E,2,14,0.71,108.0,M,47.9,M,,*72",,,,
2022-05-20T22:20:49+02:00,155,30.44,44.68,1005.96,4.20,5.70,0,0,"$GNGGA,202044.000,4901.1026,N,00825.3065,E,2,14,0.71,109.5,M,47.9,M,,*73",,,,
2022-05-20T22:21:10+02:00,156,30.45,44.41,1005.96,4.40,7.60,0,0,"$GNGGA,202105.000,4901.0900,N,00825.3068,E,2,14,0.71,114.0,M,47.9,M,,*7F",,,,
2022-05-20T22:21:31+02:00,157,30.44,44.63,1005.97,4.70,9.50,0,0,"$GNGGA,202126.000,4901.0761,N,00825.3085,E,2,14,0.71,116.7,M,47.9,M,,*71",,,,
2022-05-20T22:21:52+02:00,158,30.42,44.66,1005.98,5.20,9.30,0,0,"$GNGGA,202147.000,4901.0640,N,00825.3128,E,2,14,0.71,113.6,M,47.9,M,,*76",,,,
2022-05-20T22:22:12+02:00,159,30.39,44.64,1005.97,5.00,9.70,0,0,"$GNGGA,202207.000,4901.0546,N,00825.3163,E,2,14,0.71,115.7,M,47.9,M,,*7C",,,,
2022-05-20T22:22:33+02:00,160,30.36,44.82,1005.98,4.90,10.50,0,0,"$GNGGA,202228.000,4901.0435,N,00825.3183,E,2,14,0.71,117.7,M,47.9,M,,*78",,,,
2022-05-20T22:22:54+02:00,161,30.32,44.89,1005.99,5.30,9.70,0,0,"$GNGGA,202249.000,4901.0320,N,00825.3199,E,2,14,0.71,117.4,M,47.9,M,,*74",,,,
2022-05-20T22:23:14+02:00,162,30.28,44.75,1006.00,5.20,8.70,0,0,"$GNGGA,202309.000,4901.0210,N,00825.3227,E,2,14,0.71,116.7,M,47.9,M,,*77",,,,
2022-05-20T22:23:34+02:00,163,30.25,44.51,1006.00,5.30,10.30,0,0,"$GNGGA,202329.000,4901.0097,N,00825.3240,E,2,14,0.71,117.3,M,47.9,M,,*7C",,,,
2022-05-20T22:23:55+02:00,164,30.21,44.81,1006.02,5.10,9.20,0,0,"$GNGGA,202350.000,4900.9975,N,00825.3248,E,2,13,0.74,118.7,M,47.9,M,,*7E",,,,
2022-05-20T22:24:16+02:00,165,30.17,44.70,1006.03,5.00,7.30,0,0,"$GNGGA,202411.000,4900.9853,N,00825.3293,E,2,13,0.74,122.7,M,47.9,M,,*76",,,,
2022-05-20T22:24:37+02:00,166,30.12,44.59,1006.04,5.00,9.10,0,0,"$GNGGA,202432.000,4900.9730,N,00825.3316,E,2,14,0.71,123.8,M,47.9,M,,*7D",,,,
2022-05-20T22:24:58+02:00,167,30.06,44.68,1006.05,5.20,10.80,0,0,"$GNGGA,202453.000,4900.9617,N,00825.3345,E,2,13,0.77,121.4,M,47.9,M,,*77",,,,
2022-05-20T22:25:19+02:00,168,29.99,44.61,1006.06,5.70,11.70,0,0,"$GNGGA,202514.000,4900.9485,N,00825.3370,E,2,12,0.97,119.7,M,47.9,M,,*7D",,,,
2022-05-20T22:25:39+02:00,169,29.92,44.58,1006.05,5.40,9.30,0,0,"$GNGGA,202534.000,4900.9386,N,00825.3388,E,2,14,0.71,116.3,M,47.9,M,,*79",,,,
2022-05-20T22:26:00+02:00,170,29.87,44.71,1006.04,4.70,8.80,0,0,"$GNGGA,202555.000,4900.9269,N,00825.3419,E,2,15,0.65,116.6,M,47.9,M,,*70",,,,
2022-05-20T22:26:21+02:00,171,29.83,44.81,1006.04,4.90,8.20,0,0,"$GNGGA,202616.000,4900.9165,N,00825.3443,E,2,15,0.65,115.7,M,47.9,M,,*76",,,,
2022-05-20T22:26:42+02:00,172,29.80,44.80,1006.04,4.90,9.50,0,0,"$GNGGA,202637.000,4900.9051,N,00825.3463,E,2,15,0.65,114.7,M,47.9,M,,*70",,,,
2022-05-20T22:27:03+02:00,173,29.77,44.81,1006.03,5.10,10.60,0,0,"$GNGGA,202658.000,4900.8929,N,00825.3500,E,2,15,0.65,113.5,M,47.9,M,,*7F",,,,
2022-05-20T22:27:23+02:00,174,29.77,44.71,1006.04,5.40,8.50,0,0,"$GNGGA,202718.000,4900.8820,N,00825.3543,E,2,15,0.65,111.6,M,47.9,M,,*74",,,,
2022-05-20T22:27:44+02:00,175,29.78,44.61,1006.04,5.00,9.10,0,0,"$GNGGA,202739.000,4900.8705,N,00825.3551,E,2,15,0.65,109.4,M,47.9,M,,*77",,,,
2022-05-20T22:28:05+02:00,176,29.79,44.60,1006.04,4.80,7.40,0,0,"$GNGGA,202800.000,4900.8579,N,00825.3579,E,2,14,0.68,110.3,M,47.9,M,,*72",,,,
2022-05-20T22:28:25+02:00,177,29.79,44.53,1006.05,5.30,9.30,0,0,"$GNGGA,202820.000,4900.8472,N,00825.3623,E,2,14,0.68,111.8,M,47.9,M,,*7C",,,,
2022-05-20T22:28:46+02:00,178,29.79,44.61,1006.07,5.10,9.30,0,0,"$GNGGA,202841.000,4900.8327,N,00825.3616,E,2,13,0.79,116.1,M,47.9,M,,*73",,,,
2022-05-20T22:29:07+02:00,179,29.79,44.52,1006.09,5.50,9.40,0,0,"$GNGGA,202902.000,4900.8220,N,00825.3678,E,2,12,0.82,116.1,M,47.9,M,,*7E",,,,
2022-05-20T22:29:27+02:00,180,29.78,44.55,1006.09,5.30,10.40,0,0,"$GNGGA,202922.000,4900.8078,N,00825.3667,E,2,13,0.79,118.8,M,47.9,M,,*7F",,,,
2022-05-20T22:29:48+02:00,181,29.78,44.61,1006.10,5.70,8.60,0,0,"$GNGGA,202943.000,4900.7977,N,00825.3731,E,2,15,0.65,116.4,M,47.9,M,,*7A",,,,
2022-05-20T22:30:09+02:00,182,29.78,44.59,1006.11,5.70,12.30,0,0,"$GNGGA,203004.000,4900.7860,N,00825.3723,E,2,13,0.77,113.7,M,47.9,M,,*76",,,,
2022-05-20T22:30:30+02:00,183,29.79,44.55,1006.13,5.20,9.70,0,0,"$GNGGA,203025.000,4900.7753,N,00825.3791,E,2,12,0.82,112.3,M,47.9,M,,*7D",,,,
2022-05-20T22:30:51+02:00,184,29.80,44.54,1006.15,5.30,9.60,0,0,"$GNGGA,203046.000,4900.7637,N,00825.3825,E,2,13,0.77,111.9,M,47.9,M,,*79",,,,
2022-05-20T22:31:12+02:00,185,29.82,44.43,1006.15,5.40,9.10,0,0,"$GNGGA,203107.000,4900.7507,N,00825.3843,E,2,14,0.69,111.5,M,47.9,M,,*79",,,,
2022-05-20T22:31:33+02:00,186,29.83,44.40,1006.16,5.20,10.80,0,0,"$GNGGA,203128.000,4900.7366,N,00825.3842,E,2,12,0.87,115.0,M,47.9,M,,*73",,,,
2022-05-20T22:31:54+02:00,187,29.84,44.43,1006.18,5.00,8.00,0,0,"$GNGGA,203149.000,4900.7241,N,00825.3815,E,2,13,0.77,116.4,M,47.9,M,,*7B",,,,
2022-05-20T22:32:15+02:00,188,29.87,44.39,1006.19,4.80,8.20,0,0,"$GNGGA,203210.000,4900.7160,N,00825.3876,E,2,13,0.77,114.5,M,47.9,M,,*72",,,,
2022-05-20T22:32:36+02:00,189,29.90,44.27,1006.20,5.00,8.40,0,0,"$GNGGA,203231.000,4900.7030,N,00825.3885,E,2,14,0.68,116.0,M,47.9,M,,*77",,,,
2022-05-20T22:32:56+02:00,190,29.94,44.12,1006.20,5.00,8.80,0,0,"$GNGGA,203251.000,4900.6954,N,00825.4014,E,2,14,0.68,117.8,M,47.9,M,,*75",,,,
2022-05-20T22:33:17+02:00,191,29.99,44.03,1006.21,5.00,11.30,0,0,"$GNGGA,203312.000,4900.6929,N,00825.4139,E,2,14,0.71,121.4,M,47.9,M,,*76",,,,
2022-05-20T22:33:38+02:00,192,30.07,43.82,1006.23,4.80,6.50,0,0,"$GNGGA,203333.000,4900.6922,N,00825.4143,E,2,15,0.65,121.7,M,47.9,M,,*74",,,,
2022-05-20T22:33:59+02:00,193,30.17,43.50,1006.24,4.80,7.80,0,0,"$GNGGA,203354.000,4900.6829,N,00825.4191,E,2,15,0.65,122.9,M,47.9,M,,*7D",,,,
2022-05-20T22:34:20+02:00,194,30.26,43.25,1006.26,5.30,8.00,0,0,"$GNGGA,203415.000,4900.6702,N,00825.4104,E,2,12,0.82,125.7,M,47.9,M,,*72",,,,
2022-05-20T22:34:41+02:00,195,30.35,43.15,1006.28,5.30,7.90,0,0,"$GNGGA,203436.000,4900.6634,N,00825.4054,E,2,12,0.82,129.1,M,47.9,M,,*79",,,,
2022-05-20T22:35:02+02:00,196,30.44,42.99,1006.29,5.10,11.10,0,0,"$GNGGA,203457.000,4900.6476,N,00825.4063,E,2,12,0.76,126.6,M,47.9,M,,*7D",,,,
2022-05-20T22:35:22+02:00,197,30.53,42.86,1006.30,5.20,9.20,0,0,"$GNGGA,203517.000,4900.6276,N,00825.3936,E,2,14,0.68,126.4,M,47.9,M,,*7B",,,,
2022-05-20T22:35:44+02:00,198,30.61,42.70,1006.32,5.30,9.70,0,0,"$GNGGA,203539.000,4900.6173,N,00825.4082,E,2,13,0.77,127.0,M,47.9,M,,*7C",,,,
2022-05-20T22:36:05+02:00,199,30.66,42.63,1006.34,5.40,10.60,0,0,"$GNGGA,203600.000,4900.6002,N,00825.4029,E,2,13,0.80,129.7,M,47.9,M,,*72",,,,
2022-05-20T22:36:27+02:00,200,30.72,42.63,1006.35,5.40,9.50,0,0,"$GNGGA,203622.000,4900.5877,N,00825.4137,E,2,13,0.77,132.4,M,47.9,M,,*74",,,,
2022-05-20T22:36:48+02:00,201,30.77,42.44,1006.38,5.80,10.90,0,0,"$GNGGA,203643.000,4900.5715,N,00825.4109,E,2,13,0.77,138.3,M,47.9,M,,*78",,,,
2022-05-20T22:37:09+02:00,202,30.83,42.39,1006.40,5.80,12.00,0,0,"$GNGGA,203704.000,4900.5665,N,00825.4236,E,2,13,0.75,131.3,M,47.9,M,,*78",,,,
2022-05-20T22:37:30+02:00,203,30.90,42.20,1006.42,5.90,12.00,0,0,"$GNGGA,203725.000,4900.5574,N,00825.4231,E,2,13,0.77,125.3,M,47.9,M,,*78",,,,
2022-05-20T22:37:51+02:00,204,30.96,42.20,1006.45,5.30,9.40,0,0,"$GNGGA,203746.000,4900.5428,N,00825.4182,E,2,13,0.80,126.9,M,47.9,M,,*7F",,,,
2022-05-20T22:38:12+02:00,205,31.01,41.90,1006.45,5.70,10.90,0,0,"$GNGGA,203807.000,4900.5319,N,00825.4192,E,2,12,0.82,126.2,M,47.9,M,,*79",,,,
2022-05-20T22:38:33+02:00,206,31.05,41.84,1006.46,5.40,10.40,0,0,"$GNGGA,203828.000,4900.5233,N,00825.4331,E,2,11,0.86,126.4,M,47.9,M,,*77",,,,
2022-05-20T22:38:54+02:00,207,31.09,41.81,1006.47,5.20,9.70,0,0,"$GNGGA,203849.000,4900.5022,N,00825.4225,E,1,11,0.92,136.2,M,47.9,M,,*77",,,,
2022-05-20T22:39:21+02:00,208,31.13,41.87,1006.47,4.80,8.30,0,0,"$GNGGA,203910.043,4900.5152,N,00825.4353,E,0,3,,131.8,M,47.9,M,,*51",,,,
2022-05-20T22:39:41+02:00,209,31.18,41.88,1006.54,4.40,6.50,0,0,"$GNGGA,203936.000,4900.5245,N,00825.4678,E,1,7,1.34,128.9,M,47.9,M,,*4F",,,,
2022-05-20T22:40:04+02:00,210,31.24,41.85,1006.58,4.50,6.50,0,0,"$GNGGA,203959.000,4900.5336,N,00825.4604,E,1,9,1.02,132.7,M,47.9,M,,*46",,,,
2022-05-20T22:40:24+02:00,211,31.32,41.78,1006.62,3.90,4.40,0,0,"$GNGGA,204019.000,4900.5299,N,00825.4586,E,1,10,0.99,140.1,M,47.9,M,,*79",,,,
2022-05-20T22:40:45+02:00,212,31.40,41.65,1006.64,3.20,4.90,0,0,"$GNGGA,204040.000,4900.5233,N,00825.4614,E,1,10,0.99,141.6,M,47.9,M,,*7B",,,,
2022-05-20T22:41:06+02:00,213,31.47,41.56,1006.66,2.80,4.60,0,0,"$GNGGA,204101.000,4900.5245,N,00825.4629,E,1,10,0.99,140.4,M,47.9,M,,*73",,,,
2022-05-20T22:41:26+02:00,214,31.55,41.35,1006.62,3.60,4.80,0,0,"$GNGGA,204121.000,4900.5248,N,00825.4594,E,1,10,0.99,135.7,M,47.9,M,,*78",,,,
