created_at,entry_id,field1,field2,field3,field4,field5,field6,field7,field8,latitude,longitude,elevation,status
2022-02-11T18:10:54+01:00,1,21.49,30.40,1018.79,257.00,269.90,0,17.00,"$GNGGA,171049.295,4900.5919,N,00824.7303,E,0,0,,121.2,M,47.9,M,,*53",,,,
2022-02-11T18:11:15+01:00,2,21.43,30.23,1018.80,223.50,234.70,0,17.00,"$GNGGA,171110.095,4900.7875,N,00825.1911,E,0,3,,120.9,M,47.9,M,,*52",,,,
2022-02-11T18:11:36+01:00,3,21.49,31.86,1018.78,44.60,46.90,0,19.00,"$GNGGA,171131.095,4900.7723,N,00825.1617,E,0,3,,121.0,M,47.9,M,,*5C",,,,
2022-02-11T18:11:57+01:00,4,21.59,29.82,1018.86,33.70,35.40,0,20.00,"$GNGGA,171152.095,4900.8044,N,00825.2215,E,0,3,,120.9,M,47.9,M,,*5D",,,,
2022-02-11T18:12:17+01:00,5,21.66,29.12,1018.91,30.60,32.20,0,20.00,"$GNGGA,171211.998,5112.3310,N,01250.0655,E,0,2,,3335.8,M,46.4,M,,*6C",,,,
2022-02-11T18:12:38+01:00,6,21.74,29.44,1018.95,24.00,25.30,0,20.00,"$GNGGA,171232.999,4610.4480,N,00229.0184,W,0,2,,119.3,M,49.8,M,,*40",,,,
2022-02-11T18:12:58+01:00,7,21.83,28.94,1018.99,23.30,24.50,0,19.50,"$GNGGA,171252.999,4900.5827,N,00824.7232,E,0,0,,124.5,M,47.9,M,,*51",,,,
2022-02-11T18:13:18+01:00,8,21.92,28.99,1019.40,22.30,23.50,0,19.50,"$GNGGA,171313.000,4900.5919,N,00824.7303,E,0,0,,121.2,M,47.9,M,,*51",,,,
2022-02-11T18:13:39+01:00,9,21.64,27.00,1019.72,23.20,24.40,0,17.00,"$GNGGA,171334.000,4900.5919,N,00824.7303,E,0,0,,121.2,M,47.9,M,,*54",,,,
2022-02-11T18:13:59+01:00,10,21.41,27.49,1019.95,27.30,28.70,0,15.50,"$GNGGA,171354.000,4900.5359,N,00825.4677,E,1,5,1.92,176.0,M,47.9,M,,*48",,,,
2022-02-11T18:14:20+01:00,11,21.29,27.66,1020.13,33.10,34.80,0,15.50,"$GNGGA,171415.000,4900.5300,N,00825.4753,E,1,7,1.39,186.1,M,47.9,M,,*4C",,,,
2022-02-11T18:14:40+01:00,12,21.23,27.12,1020.26,35.20,37.00,0,15.00,"$GNGGA,171435.000,4900.5331,N,00825.4778,E,1,7,1.47,187.7,M,47.9,M,,*4B",,,,
2022-02-11T18:15:01+01:00,13,21.19,26.38,1020.36,35.10,36.90,0,14.00,"$GNGGA,171456.000,4900.5297,N,00825.4711,E,1,8,1.04,179.8,M,47.9,M,,*4A",,,,
2022-02-11T18:15:22+01:00,14,21.15,26.20,1020.44,32.70,34.40,0,14.00,"$GNGGA,171517.000,4900.5304,N,00825.4687,E,1,9,0.97,178.6,M,47.9,M,,*4E",,,,
2022-02-11T18:15:43+01:00,15,21.10,26.43,1020.50,32.60,34.30,0,14.00,"$GNGGA,171538.000,4900.5285,N,00825.4674,E,1,8,1.04,161.0,M,47.9,M,,*43",,,,
2022-02-11T18:16:04+01:00,16,20.92,26.80,1020.55,30.10,31.70,0,14.00,"$GNGGA,171559.000,4900.5257,N,00825.4627,E,1,9,0.93,155.4,M,47.9,M,,*40",,,,
2022-02-11T18:16:25+01:00,17,20.36,27.06,1020.61,28.30,29.80,0,13.00,"$GNGGA,171620.000,4900.5229,N,00825.4274,E,1,7,1.06,154.2,M,47.9,M,,*42",,,,
2022-02-11T18:16:46+01:00,18,19.10,29.43,1020.65,28.30,29.80,0,11.50,"$GNGGA,171641.000,4900.5631,N,00825.4166,E,1,7,1.08,154.6,M,47.9,M,,*42",,,,
2022-02-11T18:17:07+01:00,19,17.58,33.12,1020.68,29.20,30.70,0,11.00,"$GNGGA,171702.000,4900.5625,N,00825.4914,E,1,7,1.06,147.3,M,47.9,M,,*45",,,,
2022-02-11T18:17:28+01:00,20,16.08,36.64,1020.70,29.30,30.80,0,10.00,"$GNGGA,171723.000,4900.5514,N,00825.5655,E,1,8,0.99,152.4,M,47.9,M,,*47",,,,
2022-02-11T18:17:49+01:00,21,14.75,39.75,1020.71,27.90,29.30,0,9.50,"$GNGGA,171744.000,4900.5340,N,00825.6332,E,1,8,0.99,146.2,M,47.9,M,,*45",,,,
2022-02-11T18:18:10+01:00,22,13.57,42.39,1020.70,27.60,29.00,0,9.50,"$GNGGA,171805.000,4900.5231,N,00825.7067,E,1,8,0.99,154.5,M,47.9,M,,*4E",,,,
2022-02-11T18:18:33+01:00,23,12.49,44.11,1020.71,27.10,28.50,0,9.00,"$GNGGA,171827.000,4900.5091,N,00825.7889,E,1,10,0.84,166.2,M,47.9,M,,*7D",,,,
2022-02-11T18:49:07+01:00,24,8.26,50.18,1020.77,22.50,23.70,0,7.00,"$GNGGA,174902.000,4900.5314,N,00825.6627,E,1,6,1.42,141.7,M,47.9,M,,*47",,,,
2022-02-11T18:49:28+01:00,25,8.06,50.16,1020.78,21.50,22.60,0,7.00,"$GNGGA,174923.000,4900.5478,N,00825.5997,E,1,8,0.95,127.6,M,47.9,M,,*4A",,,,
2022-02-11T18:49:49+01:00,26,7.90,50.40,1020.78,21.70,22.80,0,7.00,"$GNGGA,174944.000,4900.5633,N,00825.5373,E,1,7,1.16,133.2,M,47.9,M,,*42",,,,
2022-02-11T18:50:09+01:00,27,7.79,50.67,1020.78,21.90,23.00,0,7.00,"$GNGGA,175004.000,4900.5816,N,00825.4802,E,1,8,0.95,143.2,M,47.9,M,,*49",,,,
2022-02-11T18:50:30+01:00,28,7.70,50.71,1020.77,20.70,21.80,0,7.00,"$GNGGA,175025.000,4900.5735,N,00825.4286,E,1,7,1.16,144.8,M,47.9,M,,*4A",,,,
2022-02-11T18:50:51+01:00,29,7.65,50.63,1020.77,20.70,21.80,0,7.00,"$GNGGA,175046.000,4900.5437,N,00825.4252,E,1,8,0.95,158.1,M,47.9,M,,*46",,,,
2022-02-11T18:51:11+01:00,30,7.65,50.17,1020.77,21.30,22.40,0,7.00,"$GNGGA,175106.000,4900.5224,N,00825.4194,E,1,8,0.95,146.8,M,47.9,M,,*48",,,,
2022-02-11T18:51:32+01:00,31,7.71,50.26,1020.76,21.40,22.50,0,7.00,"$GNGGA,175127.000,4900.5197,N,00825.4202,E,1,8,0.95,130.2,M,47.9,M,,*47",,,,
2022-02-11T18:51:53+01:00,32,7.84,50.52,1020.77,20.80,21.90,0,7.00,"$GNGGA,175148.000,4900.5044,N,00825.4672,E,0,0,,129.2,M,47.9,M,,*51",,,,
2022-02-11T18:52:13+01:00,33,8.03,49.73,1020.77,20.70,21.80,0,7.00,"$GNGGA,175208.000,4900.5089,N,00825.4640,E,0,0,,129.4,M,47.9,M,,*50",,,,
2022-02-11T18:52:33+01:00,34,8.25,48.79,1020.76,21.20,22.30,0,7.00,"$GNGGA,175228.000,4900.5089,N,00825.4640,E,0,0,,129.4,M,47.9,M,,*52",,,,
2022-02-11T18:52:57+01:00,35,8.49,47.91,1020.77,22.20,23.40,0,7.00,"$GNGGA,175249.000,4900.5089,N,00825.4640,E,0,0,,129.4,M,47.9,M,,*55",,,,
2022-02-11T18:53:18+01:00,36,8.72,47.14,1020.77,21.90,23.00,0,7.50,"$GNGGA,175313.000,4900.5089,N,00825.4640,E,0,0,,129.4,M,47.9,M,,*5B",,,,
2022-02-11T18:53:39+01:00,37,8.93,46.67,1020.77,21.80,22.90,0,7.50,"$GNGGA,175334.000,4900.5098,N,00825.4633,E,0,0,,129.5,M,47.9,M,,*5B",,,,
2022-02-11T18:53:59+01:00,38,9.12,47.02,1020.77,20.60,21.70,0,8.00,"$GNGGA,175354.000,4900.5098,N,00825.4633,E,0,0,,129.5,M,47.9,M,,*5D",,,,
2022-02-11T18:54:19+01:00,39,9.32,47.95,1020.77,19.70,20.70,0,9.00,"$GNGGA,175414.000,4900.5224,N,00825.4213,E,1,6,1.31,141.5,M,47.9,M,,*49",,,,
2022-02-11T18:54:40+01:00,40,9.52,49.07,1020.38,18.10,19.10,0,10.00,"$GNGGA,175435.000,4900.5220,N,00825.4315,E,0,0,,141.9,M,47.9,M,,*5F",,,,
2022-02-11T18:55:00+01:00,41,10.08,49.24,1020.11,18.60,19.60,0,12.50,"$GNGGA,175455.000,4900.5187,N,00825.4424,E,1,4,1.35,96.3,M,47.9,M,,*7F",,,,
2022-02-11T18:55:20+01:00,42,10.59,48.63,1019.91,19.40,20.40,0,14.00,"$GNGGA,175515.000,4900.5264,N,00825.4335,E,1,6,0.97,85.6,M,47.9,M,,*7F",,,,
2022-02-11T18:55:41+01:00,43,11.21,46.68,1019.68,21.40,22.50,0,15.00,"$GNGGA,175536.000,4900.5247,N,00825.4323,E,1,6,0.97,104.2,M,47.9,M,,*44",,,,
2022-02-11T18:56:01+01:00,44,11.76,44.91,1019.50,24.30,25.60,0,14.50,"$GNGGA,175556.000,4900.5238,N,00825.4448,E,1,6,1.28,123.9,M,47.9,M,,*4B",,,,
2022-02-11T18:56:22+01:00,45,12.24,43.19,1019.39,27.20,28.60,0,14.00,"$GNGGA,175617.000,4900.5234,N,00825.4476,E,1,9,0.90,127.5,M,47.9,M,,*49",,,,
2022-02-11T18:56:43+01:00,46,12.65,41.13,1019.29,29.10,30.60,0,13.50,"$GNGGA,175638.000,4900.5243,N,00825.4532,E,1,9,0.90,130.8,M,47.9,M,,*4E",,,,
2022-02-11T18:57:04+01:00,47,13.01,41.38,1019.22,29.30,30.80,0,14.00,"$GNGGA,175659.000,4900.5249,N,00825.4660,E,1,8,1.04,140.6,M,47.9,M,,*43",,,,
2022-02-11T18:57:25+01:00,48,13.34,40.80,1019.17,30.90,32.50,0,13.50,"$GNGGA,175720.000,4900.5244,N,00825.4561,E,1,7,1.01,138.2,M,47.9,M,,*42",,,,
2022-02-11T18:57:46+01:00,49,13.64,40.47,1019.13,32.10,33.80,0,13.50,"$GNGGA,175741.000,4900.5256,N,00825.4558,E,1,8,0.98,137.7,M,47.9,M,,*48",,,,
2022-02-11T18:58:07+01:00,50,13.89,39.12,1019.10,33.00,34.70,0,13.00,"$GNGGA,175802.000,4900.5254,N,00825.4589,E,1,8,1.10,138.0,M,47.9,M,,*47",,,,
2022-02-11T18:58:28+01:00,51,14.11,38.10,1019.08,32.20,33.90,0,12.50,"$GNGGA,175823.000,4900.5273,N,00825.4615,E,1,7,1.28,142.6,M,47.9,M,,*48",,,,
2022-02-11T18:58:49+01:00,52,14.29,37.55,1019.07,33.70,35.40,0,12.00,"$GNGGA,175844.000,4900.5311,N,00825.4642,E,1,6,1.91,150.9,M,47.9,M,,*41",,,,
2022-02-11T18:59:09+01:00,53,14.44,37.08,1019.06,35.00,36.80,0,12.00,"$GNGGA,175904.000,4900.5317,N,00825.4624,E,1,7,1.28,152.6,M,47.9,M,,*4C",,,,
2022-02-11T18:59:30+01:00,54,14.59,37.63,1019.04,35.10,36.90,0,12.50,"$GNGGA,175925.000,4900.5306,N,00825.4679,E,1,6,2.23,154.0,M,47.9,M,,*4E",,,,
2022-02-11T18:59:51+01:00,55,14.74,37.18,1019.03,32.40,34.10,0,13.00,"$GNGGA,175946.000,4900.5311,N,00825.4615,E,1,5,2.49,153.8,M,47.9,M,,*47",,,,
2022-02-11T19:00:11+01:00,56,14.89,37.57,1019.03,31.00,32.60,0,13.50,"$GNGGA,180006.000,4900.5317,N,00825.4601,E,1,6,2.22,153.5,M,47.9,M,,*40",,,,
2022-02-11T19:00:32+01:00,57,15.04,37.35,1019.03,32.70,34.40,0,13.00,"$GNGGA,180027.000,4900.5318,N,00825.4637,E,1,7,1.27,153.0,M,47.9,M,,*4B",,,,
2022-02-11T19:00:53+01:00,58,15.25,38.53,1019.10,27.70,29.10,0,15.50,"$GNGGA,180048.000,4900.5503,N,00825.4448,E,1,7,1.63,156.0,M,47.9,M,,*41",,,,
2022-02-11T19:01:14+01:00,59,15.56,38.36,1019.09,22.00,23.20,0,16.50,"$GNGGA,180109.000,4900.5395,N,00825.4422,E,1,6,1.76,157.2,M,47.9,M,,*46",,,,
2022-02-11T19:01:35+01:00,60,15.96,38.65,1019.16,14.70,15.50,0,17.50,"$GNGGA,180130.000,4900.5237,N,00825.4370,E,1,7,1.14,144.8,M,47.9,M,,*48",,,,
2022-02-11T19:01:56+01:00,61,16.36,36.07,1019.22,16.00,16.90,0,17.50,"$GNGGA,180151.000,4900.5226,N,00825.4289,E,1,7,1.14,124.6,M,47.9,M,,*40",,,,
2022-02-11T19:02:17+01:00,62,16.71,36.69,1019.53,16.40,17.30,0,17.00,"$GNGGA,180212.000,4900.5251,N,00825.4250,E,6,3,3.53,121.2,M,47.9,M,,*43",,,,
2022-02-11T19:02:38+01:00,63,16.75,35.07,1019.89,16.20,17.10,0,14.50,"$GNGGA,180233.000,4900.5119,N,00825.4177,E,1,6,1.33,120.9,M,47.9,M,,*45",,,,
2022-02-11T19:02:59+01:00,64,16.21,32.94,1020.17,17.10,18.00,0,11.50,"$GNGGA,180254.000,4900.4997,N,00825.4275,E,1,8,1.09,127.3,M,47.9,M,,*40",,,,
2022-02-11T19:03:20+01:00,65,15.40,34.33,1020.39,17.40,18.30,0,10.00,"$GNGGA,180315.000,4900.4885,N,00825.4281,E,1,8,1.09,142.8,M,47.9,M,,*45",,,,
2022-02-11T19:03:41+01:00,66,14.49,36.48,1020.53,17.60,18.50,0,9.00,"$GNGGA,180336.000,4900.4562,N,00825.4274,E,1,8,1.09,149.6,M,47.9,M,,*4F",,,,
2022-02-11T19:04:01+01:00,67,13.91,38.45,1020.65,16.20,17.10,0,9.50,"$GNGGA,180356.000,4900.4569,N,00825.4247,E,1,8,1.24,146.3,M,47.9,M,,*47",,,,
2022-02-11T19:04:22+01:00,68,13.38,40.09,1020.72,17.30,18.20,0,9.50,"$GNGGA,180417.000,4900.4549,N,00825.4190,E,1,8,1.09,144.9,M,47.9,M,,*49",,,,
2022-02-11T19:04:43+01:00,69,12.66,40.39,1020.79,18.70,19.70,0,8.50,"$GNGGA,180438.000,4900.4513,N,00825.4045,E,1,8,1.09,130.6,M,47.9,M,,*4E",,,,
2022-02-11T19:05:04+01:00,70,11.94,41.91,1020.83,21.00,22.10,0,8.00,"$GNGGA,180459.000,4900.4628,N,00825.3814,E,1,8,1.09,118.8,M,47.9,M,,*4D",,,,
2022-02-11T19:05:25+01:00,71,11.40,43.33,1020.85,23.10,24.30,0,8.50,"$GNGGA,180520.000,4900.4674,N,00825.3589,E,1,8,1.09,121.7,M,47.9,M,,*47",,,,
2022-02-11T19:05:46+01:00,72,10.87,44.40,1020.89,25.30,26.60,0,8.00,"$GNGGA,180541.000,4900.4762,N,00825.3377,E,1,8,1.09,116.2,M,47.9,M,,*40",,,,
2022-02-11T19:06:08+01:00,73,10.28,45.49,1020.93,26.40,27.80,0,7.50,"$GNGGA,180603.000,4900.4819,N,00825.3113,E,1,8,1.09,116.6,M,47.9,M,,*42",,,,
2022-02-11T19:06:29+01:00,74,9.71,46.59,1020.95,26.60,28.00,0,7.00,"$GNGGA,180624.000,4900.4846,N,00825.2833,E,1,8,1.09,116.3,M,47.9,M,,*42",,,,
2022-02-11T19:06:50+01:00,75,9.18,47.91,1020.97,27.30,28.70,0,7.00,"$GNGGA,180645.000,4900.4913,N,00825.2592,E,1,8,1.08,117.4,M,47.9,M,,*45",,,,
2022-02-11T19:07:11+01:00,76,8.87,48.80,1020.98,26.70,28.10,0,7.00,"$GNGGA,180706.000,4900.4946,N,00825.2343,E,1,8,1.08,112.8,M,47.9,M,,*40",,,,
2022-02-11T19:07:32+01:00,77,8.71,48.70,1021.00,23.70,24.90,0,7.00,"$GNGGA,180727.000,4900.4953,N,00825.2111,E,1,8,1.08,107.8,M,47.9,M,,*46",,,,
2022-02-11T19:07:53+01:00,78,8.62,48.38,1021.01,22.70,23.90,0,7.00,"$GNGGA,180748.000,4900.5034,N,00825.1839,E,1,8,1.08,110.7,M,47.9,M,,*4F",,,,
2022-02-11T19:08:14+01:00,79,8.57,48.04,1021.04,24.00,25.30,0,7.00,"$GNGGA,180809.000,4900.5112,N,00825.1614,E,1,7,1.16,114.7,M,47.9,M,,*45",,,,
2022-02-11T19:08:35+01:00,80,8.57,47.80,1021.05,26.30,27.70,0,7.50,"$GNGGA,180830.000,4900.5125,N,00825.1349,E,1,7,1.57,110.0,M,47.9,M,,*40",,,,
2022-02-11T19:08:56+01:00,81,8.47,47.39,1021.05,31.40,33.00,0,7.00,"$GNGGA,180851.000,4900.5244,N,00825.1259,E,1,8,1.08,111.3,M,47.9,M,,*44",,,,
2022-02-11T19:09:17+01:00,82,8.32,47.57,1021.06,32.00,33.70,0,7.00,"$GNGGA,180912.000,4900.5306,N,00825.0996,E,1,8,1.08,118.6,M,47.9,M,,*40",,,,
2022-02-11T19:09:38+01:00,83,8.16,48.16,1021.06,29.30,30.80,0,7.00,"$GNGGA,180933.000,4900.5388,N,00825.0756,E,1,7,1.56,115.3,M,47.9,M,,*4B",,,,
2022-02-11T19:09:59+01:00,84,8.01,48.85,1021.06,20.50,21.60,0,7.00,"$GNGGA,180954.000,4900.5463,N,00825.0478,E,1,8,1.08,123.1,M,47.9,M,,*44",,,,
2022-02-11T19:10:19+01:00,85,7.86,49.14,1021.05,19.40,20.40,0,6.50,"$GNGGA,181014.000,4900.5593,N,00825.0289,E,1,8,1.08,115.1,M,47.9,M,,*4B",,,,
2022-02-11T19:10:40+01:00,86,7.76,49.45,1021.06,18.50,19.50,0,7.00,"$GNGGA,181035.000,4900.5656,N,00825.0132,E,1,7,1.16,110.5,M,47.9,M,,*40",,,,
2022-02-11T19:11:01+01:00,87,7.68,49.50,1021.06,18.30,19.30,0,7.00,"$GNGGA,181056.000,4900.5758,N,00824.9943,E,1,8,1.08,113.5,M,47.9,M,,*4F",,,,
2022-02-11T19:11:22+01:00,88,7.61,49.72,1021.06,16.60,17.50,0,6.50,"$GNGGA,181117.000,4900.5751,N,00824.9681,E,1,8,1.07,115.0,M,47.9,M,,*4F",,,,
2022-02-11T19:11:44+01:00,89,7.53,49.71,1021.07,16.50,17.40,0,6.50,"$GNGGA,181138.000,4900.5791,N,00824.9427,E,1,8,1.07,111.7,M,47.9,M,,*43",,,,
2022-02-11T19:12:05+01:00,90,7.48,49.65,1021.09,16.00,16.90,0,6.50,"$GNGGA,181200.000,4900.5761,N,00824.9172,E,1,8,1.07,107.9,M,47.9,M,,*48",,,,
2022-02-11T19:12:25+01:00,91,7.43,49.96,1021.10,15.80,16.60,0,6.50,"$GNGGA,181220.000,4900.5774,N,00824.8834,E,1,8,1.07,127.2,M,47.9,M,,*4D",,,,
2022-02-11T19:12:46+01:00,92,7.37,50.42,1021.10,15.60,16.40,0,6.50,"$GNGGA,181241.000,4900.5777,N,00824.8606,E,1,8,1.07,125.9,M,47.9,M,,*4F",,,,
2022-02-11T19:13:07+01:00,93,7.34,50.20,1021.13,16.50,17.40,0,6.50,"$GNGGA,181302.000,4900.5806,N,00824.8255,E,1,8,1.07,111.5,M,47.9,M,,*49",,,,
2022-02-11T19:13:28+01:00,94,7.32,50.16,1021.13,15.80,16.60,0,6.50,"$GNGGA,181323.000,4900.5880,N,00824.8027,E,1,8,1.07,119.3,M,47.9,M,,*4D",,,,
2022-02-11T19:13:50+01:00,95,7.29,50.29,1021.13,16.40,17.30,0,6.50,"$GNGGA,181344.000,4900.5945,N,00824.7738,E,1,8,1.07,122.6,M,47.9,M,,*4F",,,,
2022-02-11T19:14:11+01:00,96,7.27,50.30,1021.11,17.10,18.00,0,6.50,"$GNGGA,181406.000,4900.5943,N,00824.7490,E,1,8,1.07,115.0,M,47.9,M,,*4B",,,,
2022-02-11T19:14:38+01:00,97,7.21,50.39,1021.11,18.80,19.80,0,6.50,"$GNGGA,181433.000,4900.5994,N,00824.7102,E,1,8,1.07,122.0,M,47.9,M,,*4D",,,,
2022-02-11T19:14:59+01:00,98,7.18,50.55,1021.11,18.10,19.10,0,32.50,"$GNGGA,181454.000,4900.6009,N,00824.6820,E,1,8,1.07,115.0,M,47.9,M,,*4E",,,,
2022-02-11T21:26:51+01:00,99,18.22,34.19,1022.37,22.00,23.20,0,11.00,"$GNGGA,202646.097,4900.4301,N,00825.7891,E,0,2,,147.2,M,47.9,M,,*5C",,,,
2022-02-11T21:29:52+01:00,100,11.97,45.27,1022.35,21.70,24.20,0,8.50,"$GNGGA,202947.099,4900.5087,N,00825.7566,E,0,1,,147.2,M,47.9,M,,*56",,,,
2022-02-11T21:31:00+01:00,101,11.48,46.70,1022.32,23.60,24.80,0,8.00,"$GNGGA,203056.092,9000.0000,N,00000.0000,E,0,0,,137.0,M,13.0,M,,*5A",,,,
2022-02-11T21:31:21+01:00,102,11.17,47.29,1022.33,22.70,23.90,0,8.00,"$GNGGA,203116.092,9000.0000,N,00000.0000,E,0,0,,137.0,M,13.0,M,,*5F",,,,
2022-02-11T21:31:42+01:00,103,10.84,47.74,1022.34,21.10,22.20,0,8.00,"$GNGGA,203137.000,4900.5740,N,00824.3893,E,1,5,2.33,112.6,M,47.9,M,,*4B",,,,
2022-02-11T21:32:03+01:00,104,10.53,48.41,1022.35,20.00,21.10,0,7.50,"$GNGGA,203158.000,4900.5715,N,00824.3792,E,1,5,2.34,137.6,M,47.9,M,,*4C",,,,
2022-02-11T21:32:24+01:00,105,10.27,48.90,1022.36,19.80,20.80,0,7.50,"$GNGGA,203219.000,4900.5718,N,00824.3636,E,1,5,2.35,139.1,M,47.9,M,,*40",,,,
2022-02-11T21:32:46+01:00,106,10.06,49.17,1022.36,19.00,20.00,0,7.50,"$GNGGA,203239.000,4900.5716,N,00824.3455,E,1,7,1.10,138.8,M,47.9,M,,*45",,,,
2022-02-11T21:33:07+01:00,107,9.91,49.66,1022.36,18.70,19.70,0,7.50,"$GNGGA,203302.000,4900.5703,N,00824.3285,E,1,7,1.10,136.6,M,47.9,M,,*43",,,,
2022-02-11T21:33:28+01:00,108,9.79,49.72,1022.37,18.80,19.80,0,7.50,"$GNGGA,203323.000,4900.5721,N,00824.3132,E,1,7,1.10,134.0,M,47.9,M,,*4B",,,,
2022-02-11T21:33:49+01:00,109,9.69,49.89,1022.37,19.20,20.20,0,7.50,"$GNGGA,203344.000,4900.5704,N,00824.2987,E,1,7,1.10,128.1,M,47.9,M,,*46",,,,
2022-02-11T21:34:10+01:00,110,9.65,49.99,1022.37,18.60,19.60,0,7.50,"$GNGGA,203405.000,4900.5785,N,00824.2884,E,1,7,1.10,123.2,M,47.9,M,,*47",,,,
2022-02-11T21:34:32+01:00,111,9.66,50.07,1022.39,18.80,19.80,0,7.50,"$GNGGA,203427.000,4900.5782,N,00824.2704,E,1,7,1.10,118.4,M,47.9,M,,*49",,,,
2022-02-11T21:34:53+01:00,112,9.69,49.84,1022.39,19.00,20.00,0,7.50,"$GNGGA,203448.000,4900.5760,N,00824.2530,E,1,7,1.10,120.0,M,47.9,M,,*46",,,,
2022-02-11T21:36:39+01:00,113,8.51,53.88,1022.32,22.70,23.90,0,5.50,"$GNGGA,203634.000,4900.6102,N,00824.2372,E,1,5,3.36,173.9,M,47.9,M,,*45",,,,
2022-02-11T21:37:00+01:00,114,8.12,55.28,1022.32,21.90,23.00,0,5.50,"$GNGGA,203655.000,4900.6204,N,00824.2397,E,1,5,1.73,170.3,M,47.9,M,,*46",,,,
2022-02-11T21:37:20+01:00,115,7.77,56.79,1022.32,21.20,22.30,0,5.00,"$GNGGA,203715.000,4900.6396,N,00824.2491,E,1,6,1.40,134.9,M,47.9,M,,*41",,,,
2022-02-11T21:37:41+01:00,116,7.45,57.52,1022.33,20.80,21.90,0,5.00,"$GNGGA,203736.000,4900.6525,N,00824.2426,E,1,6,1.46,124.3,M,47.9,M,,*4F",,,,
2022-02-11T21:38:30+01:00,117,7.37,58.32,1022.28,18.80,19.80,0,4.50,"$GNGGA,203825.000,4900.6660,N,00824.2449,E,1,4,2.05,111.9,M,47.9,M,,*43",,,,
2022-02-11T21:38:50+01:00,118,7.20,58.15,1022.29,17.70,18.60,0,4.50,"$GNGGA,203845.000,4900.6679,N,00824.2486,E,1,7,1.31,112.8,M,47.9,M,,*4B",,,,
2022-02-11T21:39:11+01:00,119,7.04,57.97,1022.31,16.80,17.70,0,4.50,"$GNGGA,203906.000,4900.6689,N,00824.2632,E,1,8,1.15,113.2,M,47.9,M,,*4D",,,,
2022-02-11T21:39:32+01:00,120,6.88,58.12,1022.31,17.00,17.90,0,4.50,"$GNGGA,203927.000,4900.6666,N,00824.2768,E,1,9,1.13,107.8,M,47.9,M,,*49",,,,
2022-02-11T21:39:53+01:00,121,6.74,58.34,1022.31,17.60,18.50,0,4.50,"$GNGGA,203948.000,4900.6636,N,00824.2933,E,1,8,1.29,109.6,M,47.9,M,,*4D",,,,
2022-02-11T21:40:14+01:00,122,6.62,58.59,1022.31,19.30,20.30,0,4.50,"$GNGGA,204009.000,4900.6623,N,00824.3092,E,1,9,1.13,110.5,M,47.9,M,,*42",,,,
2022-02-11T21:40:35+01:00,123,6.49,58.63,1022.30,19.60,20.60,0,4.50,"$GNGGA,204030.000,4900.6629,N,00824.3274,E,1,9,1.13,111.5,M,47.9,M,,*49",,,,
2022-02-11T21:40:56+01:00,124,6.32,59.07,1022.31,21.20,22.30,0,4.50,"$GNGGA,204051.000,4900.6648,N,00824.3482,E,1,9,1.13,112.7,M,47.9,M,,*47",,,,
2022-02-11T21:41:18+01:00,125,6.16,59.76,1022.31,20.60,21.70,0,4.00,"$GNGGA,204113.000,4900.6692,N,00824.3631,E,1,9,1.13,112.3,M,47.9,M,,*49",,,,
2022-02-11T21:41:40+01:00,126,5.99,60.32,1022.31,21.40,22.50,0,4.00,"$GNGGA,204135.000,4900.6744,N,00824.3800,E,1,9,1.13,114.3,M,47.9,M,,*4D",,,,
2022-02-11T21:42:01+01:00,127,5.86,60.99,1022.31,20.30,21.40,0,4.00,"$GNGGA,204156.000,4900.6805,N,00824.3956,E,1,9,1.13,115.7,M,47.9,M,,*45",,,,
2022-02-11T21:42:22+01:00,128,5.73,61.61,1022.32,19.90,20.90,0,4.00,"$GNGGA,204217.000,4900.6868,N,00824.4132,E,1,8,1.25,115.2,M,47.9,M,,*44",,,,
2022-02-11T21:42:43+01:00,129,5.64,61.94,1022.32,19.20,20.20,0,4.00,"$GNGGA,204238.000,4900.6911,N,00824.4312,E,1,9,1.13,116.3,M,47.9,M,,*40",,,,
2022-02-11T21:43:04+01:00,130,5.59,61.78,1022.32,20.10,21.20,0,4.00,"$GNGGA,204259.000,4900.6955,N,00824.4466,E,1,9,1.17,117.3,M,47.9,M,,*46",,,,
2022-02-11T21:43:25+01:00,131,5.51,61.96,1022.35,21.20,22.30,0,4.00,"$GNGGA,204320.000,4900.7005,N,00824.4621,E,1,9,1.13,117.7,M,47.9,M,,*45",,,,
2022-02-11T21:43:46+01:00,132,5.47,62.16,1022.36,21.30,22.40,0,4.00,"$GNGGA,204341.000,4900.7053,N,00824.4783,E,1,9,1.13,119.9,M,47.9,M,,*48",,,,
2022-02-11T21:45:43+01:00,133,6.25,62.50,1022.28,19.80,20.80,0,4.00,"$GNGGA,204537.000,4900.6836,N,00824.5639,E,0,0,,111.0,M,47.9,M,,*50",,,,
2022-02-11T21:46:12+01:00,134,6.12,62.60,1022.30,18.10,19.10,0,4.00,"$GNGGA,204600.000,4900.6835,N,00824.5642,E,0,0,,111.0,M,47.9,M,,*58",,,,
2022-02-11T21:46:32+01:00,135,6.09,62.07,1022.30,17.90,18.80,0,4.50,"$GNGGA,204628.000,4907.5820,N,00831.4214,E,0,0,,101.7,M,47.9,M,,*56",,,,
2022-02-11T21:46:53+01:00,136,6.07,61.35,1022.31,18.10,19.10,0,4.50,"$GNGGA,204648.000,4900.6696,N,00824.6099,E,1,6,1.80,133.7,M,47.9,M,,*47",,,,
2022-02-11T21:48:40+01:00,137,6.86,60.55,1022.29,22.10,23.30,0,4.50,"$GNGGA,204835.000,4900.6332,N,00824.6896,E,1,6,2.32,118.8,M,47.9,M,,*43",,,,
2022-02-11T21:49:01+01:00,138,6.61,60.82,1022.30,20.30,21.40,0,4.00,"$GNGGA,204856.000,4900.6320,N,00824.7048,E,1,7,1.83,111.1,M,47.9,M,,*47",,,,
2022-02-11T21:49:22+01:00,139,6.40,61.26,1022.31,19.80,20.80,0,4.00,"$GNGGA,204917.000,4900.6308,N,00824.7228,E,1,7,1.58,106.3,M,47.9,M,,*4F",,,,
2022-02-11T21:49:43+01:00,140,6.24,61.69,1022.32,20.70,21.80,0,4.00,"$GNGGA,204938.000,4900.6282,N,00824.7433,E,1,6,2.34,104.9,M,47.9,M,,*4D",,,,
2022-02-11T21:50:04+01:00,141,6.13,61.67,1022.32,20.20,21.30,0,4.00,"$GNGGA,204959.000,4900.6275,N,00824.7606,E,1,7,1.58,104.6,M,47.9,M,,*41",,,,
2022-02-11T21:50:25+01:00,142,6.04,61.62,1022.33,19.90,20.90,0,4.50,"$GNGGA,205020.000,4900.6275,N,00824.7786,E,1,6,2.35,103.5,M,47.9,M,,*43",,,,
2022-02-11T21:50:46+01:00,143,5.95,61.50,1022.34,20.80,21.90,0,4.50,"$GNGGA,205041.000,4900.6234,N,00824.7964,E,1,6,2.35,103.3,M,47.9,M,,*45",,,,
2022-02-11T21:51:07+01:00,144,5.87,61.33,1022.34,22.60,23.80,0,4.50,"$GNGGA,205102.000,4900.6266,N,00824.8143,E,1,5,2.39,106.9,M,47.9,M,,*46",,,,
2022-02-11T21:51:28+01:00,145,5.81,61.29,1022.35,23.30,24.50,0,4.50,"$GNGGA,205123.000,4900.6231,N,00824.8296,E,1,6,2.35,112.5,M,47.9,M,,*4A",,,,
2022-02-11T21:51:49+01:00,146,5.72,61.42,1022.38,22.80,24.00,0,4.50,"$GNGGA,205144.000,4900.6271,N,00824.8471,E,1,5,2.40,116.3,M,47.9,M,,*43",,,,
2022-02-11T21:52:09+01:00,147,5.67,61.70,1022.40,20.80,21.90,0,4.00,"$GNGGA,205204.000,4900.6252,N,00824.8663,E,1,7,1.58,115.6,M,47.9,M,,*4A",,,,
2022-02-11T21:52:30+01:00,148,5.67,61.86,1022.40,19.70,20.70,0,4.50,"$GNGGA,205225.000,4900.6242,N,00824.8838,E,1,7,1.58,112.9,M,47.9,M,,*40",,,,
2022-02-11T21:52:51+01:00,149,5.66,61.88,1022.42,18.70,19.70,0,4.00,"$GNGGA,205246.000,4900.6158,N,00824.8889,E,1,7,1.58,109.3,M,47.9,M,,*47",,,,
2022-02-11T21:53:12+01:00,150,5.66,62.04,1022.43,19.70,20.70,0,4.00,"$GNGGA,205307.000,4900.6012,N,00824.8930,E,1,7,1.58,112.6,M,47.9,M,,*40",,,,
2022-02-11T21:53:33+01:00,151,5.62,62.25,1022.44,21.00,22.10,0,4.00,"$GNGGA,205328.000,4900.5842,N,00824.9123,E,1,7,1.58,117.9,M,47.9,M,,*42",,,,
2022-02-11T21:53:54+01:00,152,5.61,62.14,1022.45,21.60,22.70,0,4.50,"$GNGGA,205349.000,4900.5828,N,00824.9263,E,1,7,1.58,128.4,M,47.9,M,,*4F",,,,
2022-02-11T21:54:14+01:00,153,5.57,61.99,1022.45,20.50,21.60,0,4.50,"$GNGGA,205409.000,4900.5935,N,00824.9486,E,1,7,1.58,133.8,M,47.9,M,,*4A",,,,
2022-02-11T21:54:35+01:00,154,5.53,62.04,1022.46,20.80,21.90,0,4.50,"$GNGGA,205430.000,4900.5917,N,00824.9515,E,1,7,1.57,134.5,M,47.9,M,,*4E",,,,
2022-02-11T21:54:56+01:00,155,5.54,62.23,1022.46,20.30,21.40,0,4.50,"$GNGGA,205451.000,4900.5812,N,00824.9615,E,1,7,1.57,132.6,M,47.9,M,,*4B",,,,
2022-02-11T21:55:17+01:00,156,5.55,62.05,1022.46,20.60,21.70,0,4.50,"$GNGGA,205512.000,4900.5747,N,00824.9748,E,1,7,1.57,131.7,M,47.9,M,,*49",,,,
2022-02-11T21:55:38+01:00,157,5.57,62.09,1022.46,20.50,21.60,0,4.50,"$GNGGA,205533.000,4900.5673,N,00824.9940,E,1,7,1.57,122.4,M,47.9,M,,*4B",,,,
2022-02-11T21:55:59+01:00,158,5.53,61.91,1022.47,22.00,23.20,0,4.50,"$GNGGA,205554.000,4900.5604,N,00825.0073,E,1,7,1.57,121.8,M,47.9,M,,*44",,,,
2022-02-11T21:56:20+01:00,159,5.47,61.96,1022.49,24.00,25.30,0,4.50,"$GNGGA,205615.000,4900.5616,N,00825.0252,E,1,7,1.57,120.1,M,47.9,M,,*48",,,,
2022-02-11T21:56:41+01:00,160,5.50,62.66,1022.50,23.70,24.90,0,5.00,"$GNGGA,205636.000,4900.5557,N,00825.0316,E,1,6,2.37,117.3,M,47.9,M,,*4C",,,,
2022-02-11T21:57:02+01:00,161,5.61,63.11,1022.51,24.40,25.70,0,5.50,"$GNGGA,205657.000,4900.5562,N,00825.0336,E,2,6,2.37,118.6,M,47.9,M,,*46",,,,
2022-02-11T21:57:23+01:00,162,5.76,63.55,1022.51,25.90,27.20,0,6.00,"$GNGGA,205718.000,4900.5525,N,00825.0363,E,2,6,1.40,116.6,M,47.9,M,,*42",,,,
2022-02-11T21:57:43+01:00,163,5.88,62.69,1022.51,27.90,29.30,0,5.50,"$GNGGA,205738.000,4900.5518,N,00825.0404,E,2,7,1.29,117.1,M,47.9,M,,*40",,,,
2022-02-11T21:58:04+01:00,164,5.89,61.33,1022.52,28.50,30.00,0,5.00,"$GNGGA,205759.000,4900.5433,N,00825.0586,E,2,6,1.37,117.3,M,47.9,M,,*48",,,,
2022-02-11T21:58:26+01:00,165,5.82,61.20,1022.52,27.60,29.00,0,4.50,"$GNGGA,205821.000,4900.5387,N,00825.0699,E,2,7,1.29,115.0,M,47.9,M,,*42",,,,
2022-02-11T21:58:47+01:00,166,5.67,61.62,1022.52,29.00,30.50,0,4.50,"$GNGGA,205842.000,4900.5344,N,00825.0858,E,2,7,1.29,112.1,M,47.9,M,,*4D",,,,
2022-02-11T21:59:08+01:00,167,5.56,62.33,1022.52,27.60,29.00,0,4.50,"$GNGGA,205903.000,4900.5304,N,00825.1042,E,2,6,1.37,107.7,M,47.9,M,,*43",,,,
2022-02-11T21:59:29+01:00,168,5.41,62.70,1022.52,26.70,28.10,0,4.00,"$GNGGA,205924.000,4900.5273,N,00825.1215,E,2,6,1.37,107.0,M,47.9,M,,*40",,,,
2022-02-11T21:59:50+01:00,169,5.27,63.07,1022.53,25.60,26.90,0,4.00,"$GNGGA,205945.000,4900.5240,N,00825.1411,E,2,6,1.37,104.7,M,47.9,M,,*41",,,,
2022-02-11T22:00:11+01:00,170,5.14,63.34,1022.54,24.50,25.80,0,4.00,"$GNGGA,210006.000,4900.5209,N,00825.1596,E,2,6,1.36,107.1,M,47.9,M,,*4C",,,,
2022-02-11T22:00:32+01:00,171,5.02,63.68,1022.53,23.40,24.60,0,4.00,"$GNGGA,210027.000,4900.5184,N,00825.1751,E,2,6,1.36,116.3,M,47.9,M,,*42",,,,
2022-02-11T22:00:53+01:00,172,4.94,64.05,1022.53,22.60,23.80,0,4.00,"$GNGGA,210048.000,4900.5114,N,00825.1924,E,2,6,1.36,125.4,M,47.9,M,,*49",,,,
2022-02-11T22:01:14+01:00,173,4.88,64.24,1022.54,23.60,24.80,0,4.00,"$GNGGA,210109.000,4900.5139,N,00825.2130,E,2,6,1.36,111.7,M,47.9,M,,*48",,,,
2022-02-11T22:01:35+01:00,174,4.82,64.30,1022.55,25.40,26.70,0,4.00,"$GNGGA,210130.000,4900.5103,N,00825.2332,E,2,6,1.36,103.9,M,47.9,M,,*46",,,,
2022-02-11T22:01:56+01:00,175,4.78,64.53,1022.55,26.10,27.50,0,4.00,"$GNGGA,210151.000,4900.5029,N,00825.2493,E,2,6,1.36,107.9,M,47.9,M,,*40",,,,
2022-02-11T22:02:17+01:00,176,4.77,64.76,1022.54,26.20,27.60,0,4.00,"$GNGGA,210212.000,4900.5017,N,00825.2654,E,2,6,1.36,113.6,M,47.9,M,,*4A",,,,
2022-02-11T22:02:38+01:00,177,4.80,64.74,1022.55,24.90,26.20,0,4.00,"$GNGGA,210233.000,4900.4957,N,00825.2802,E,2,6,1.36,118.6,M,47.9,M,,*43",,,,
2022-02-11T22:02:59+01:00,178,4.84,64.54,1022.55,23.50,24.70,0,4.00,"$GNGGA,210254.000,4900.4930,N,00825.2979,E,2,6,1.36,120.5,M,47.9,M,,*46",,,,
2022-02-11T22:03:20+01:00,179,4.88,64.34,1022.57,23.00,24.20,0,4.00,"$GNGGA,210315.000,4900.4910,N,00825.3156,E,2,6,1.36,118.1,M,47.9,M,,*4B",,,,
2022-02-11T22:03:41+01:00,180,4.91,64.09,1022.56,23.60,24.80,0,4.00,"$GNGGA,210336.000,4900.4855,N,00825.3329,E,2,6,1.36,120.1,M,47.9,M,,*4B",,,,
2022-02-11T22:04:02+01:00,181,4.95,63.94,1022.56,24.40,25.70,0,4.00,"$GNGGA,210357.000,4900.4811,N,00825.3482,E,2,6,1.36,129.8,M,47.9,M,,*4A",,,,
2022-02-11T22:04:23+01:00,182,4.97,63.85,1022.56,26.00,27.40,0,4.00,"$GNGGA,210418.000,4900.4787,N,00825.3652,E,2,6,1.36,129.7,M,47.9,M,,*46",,,,
2022-02-11T22:04:44+01:00,183,4.96,63.73,1022.56,26.30,27.70,0,4.00,"$GNGGA,210439.000,4900.4770,N,00825.3866,E,2,6,1.36,114.1,M,47.9,M,,*4C",,,,
2022-02-11T22:05:05+01:00,184,4.96,63.74,1022.55,26.30,27.70,0,4.00,"$GNGGA,210500.000,4900.4719,N,00825.4024,E,2,6,1.36,115.7,M,47.9,M,,*46",,,,
2022-02-11T22:05:26+01:00,185,4.98,63.74,1022.55,25.30,26.60,0,4.00,"$GNGGA,210521.000,4900.4724,N,00825.4242,E,2,6,1.36,109.6,M,47.9,M,,*45",,,,
2022-02-11T22:05:47+01:00,186,4.99,63.71,1022.56,24.50,25.80,0,4.00,"$GNGGA,210542.000,4900.4802,N,00825.4335,E,2,6,1.36,112.7,M,47.9,M,,*41",,,,
2022-02-11T22:06:08+01:00,187,4.98,63.90,1022.55,24.00,25.30,0,4.50,"$GNGGA,210603.000,4900.4891,N,00825.4384,E,2,6,1.36,123.3,M,47.9,M,,*41",,,,
