created_at,entry_id,field1,field2,field3,field4,field5,field6,field7,field8,latitude,longitude,elevation,status
2022-01-14T01:54:32+01:00,1,23.80,34.60,1023.30,172.70,181.40,0,0,"$GNGGA,005428.097,4900.5233,N,00825.4653,E,0,0,,136.5,M,47.9,M,,*52",,,,
2022-01-14T01:54:52+01:00,2,23.93,33.60,1023.33,140.40,147.50,0,0,"$GNGGA,005448.097,4900.5232,N,00825.4631,E,0,1,,136.5,M,47.9,M,,*50",,,,
2022-01-14T01:55:12+01:00,3,24.27,32.24,1023.34,108.50,114.00,0,0,"$GNGGA,005508.097,4900.5233,N,00825.4654,E,0,1,,136.5,M,47.9,M,,*57",,,,
2022-01-14T01:55:32+01:00,4,24.72,31.11,1023.36,107.40,112.80,0,0,"$GNGGA,005528.097,4900.5233,N,00825.4654,E,0,1,,136.5,M,47.9,M,,*55",,,,
2022-01-14T01:55:52+01:00,5,25.22,30.11,1023.36,111.50,117.10,0,0,"$GNGGA,005548.097,4900.5233,N,00825.4655,E,0,1,,136.5,M,47.9,M,,*52",,,,
2022-01-14T01:56:12+01:00,6,25.74,29.29,1023.38,112.80,118.50,0,0,"$GNGGA,005608.088,4900.5233,N,00825.4652,E,0,1,,136.5,M,47.9,M,,*5C",,,,
2022-01-14T01:56:33+01:00,7,26.25,28.52,1023.39,111.50,117.10,0,0,"$GNGGA,005629.088,4900.5233,N,00825.4654,E,0,1,,136.5,M,47.9,M,,*59",,,,
2022-01-14T01:56:53+01:00,8,26.74,27.99,1023.40,110.20,115.80,0,0,"$GNGGA,005649.088,4900.5233,N,00825.4653,E,0,1,,136.5,M,47.9,M,,*58",,,,
2022-01-14T01:57:13+01:00,9,27.21,27.40,1023.41,114.30,120.10,0,0,"$GNGGA,005709.088,4900.5233,N,00825.4658,E,0,1,,136.5,M,47.9,M,,*56",,,,
2022-01-14T01:57:33+01:00,10,27.64,26.98,1023.42,117.50,123.40,0,0,"$GNGGA,005729.088,4900.5233,N,00825.4655,E,0,1,,136.5,M,47.9,M,,*59",,,,
2022-01-14T01:57:53+01:00,11,28.05,26.59,1023.42,120.90,127.00,0,0,"$GNGGA,005749.088,4900.5233,N,00825.4654,E,0,1,,136.5,M,47.9,M,,*5E",,,,
2022-01-14T01:58:13+01:00,12,28.42,26.19,1023.43,120.10,126.20,0,0,"$GNGGA,005809.088,4900.5233,N,00825.4652,E,0,1,,136.5,M,47.9,M,,*53",,,,
2022-01-14T01:58:33+01:00,13,28.77,25.75,1023.43,118.20,124.20,0,0,"$GNGGA,005829.088,4900.5233,N,00825.4653,E,0,1,,136.5,M,47.9,M,,*50",,,,
2022-01-14T01:58:53+01:00,14,29.09,25.49,1023.43,121.20,127.30,0,0,"$GNGGA,005849.088,9000.0000,N,00000.0000,E,0,0,,137.0,M,13.0,M,,*53",,,,
2022-01-14T01:59:13+01:00,15,29.39,25.25,1023.44,123.70,129.90,0,0,"$GNGGA,005909.086,9000.0000,N,00000.0000,E,0,0,,137.0,M,13.0,M,,*58",,,,
2022-01-14T01:59:33+01:00,16,29.66,24.94,1023.43,125.30,131.60,0,0,"$GNGGA,005929.086,9000.0000,N,00000.0000,E,0,0,,137.0,M,13.0,M,,*5A",,,,
2022-01-14T01:59:53+01:00,17,29.91,24.72,1023.44,122.50,128.70,0,0,"$GNGGA,005949.098,9000.0000,N,00000.0000,E,0,0,,137.0,M,13.0,M,,*53",,,,
2022-01-14T02:00:12+01:00,18,30.15,24.52,1023.44,119.80,125.80,0,0,"$GNGGA,010008.308,9000.0000,N,00000.0000,E,0,0,,137.0,M,13.0,M,,*51",,,,
2022-01-14T02:00:33+01:00,19,30.37,24.26,1023.44,121.50,127.60,0,0,"$GNGGA,010029.090,9000.0000,N,00000.0000,E,0,0,,137.0,M,13.0,M,,*50",,,,
2022-01-14T02:00:53+01:00,20,30.58,24.11,1023.45,121.60,127.70,0,0,"$GNGGA,010049.090,9000.0000,N,00000.0000,E,0,0,,137.0,M,13.0,M,,*56",,,,
2022-01-14T02:01:13+01:00,21,30.78,23.85,1023.44,122.70,128.90,0,0,"$GNGGA,010109.090,9000.0000,N,00000.0000,E,0,0,,137.0,M,13.0,M,,*53",,,,
2022-01-14T02:01:33+01:00,22,30.97,23.67,1023.43,119.90,125.90,0,0,"$GNGGA,010129.090,9000.0000,N,00000.0000,E,0,0,,137.0,M,13.0,M,,*51",,,,
2022-01-14T02:01:53+01:00,23,31.14,23.37,1023.44,120.80,126.90,0,0,"$GNGGA,010149.102,9000.0000,N,00000.0000,E,0,0,,137.0,M,13.0,M,,*5D",,,,
2022-01-14T02:02:13+01:00,24,31.31,23.28,1023.45,118.50,124.50,0,0,"$GNGGA,010209.102,9000.0000,N,00000.0000,E,0,0,,137.0,M,13.0,M,,*5A",,,,
2022-01-14T02:02:33+01:00,25,31.47,23.07,1023.45,118.40,124.40,0,0,"$GNGGA,010229.096,9000.0000,N,00000.0000,E,0,0,,137.0,M,13.0,M,,*54",,,,
2022-01-14T02:02:53+01:00,26,31.63,22.98,1023.47,116.00,121.90,0,0,"$GNGGA,010249.096,9000.0000,N,00000.0000,E,0,0,,137.0,M,13.0,M,,*52",,,,
2022-01-14T02:03:12+01:00,27,31.77,22.77,1023.47,116.80,122.70,0,0,"$GNGGA,010308.307,9000.0000,N,00000.0000,E,0,0,,137.0,M,13.0,M,,*5D",,,,
2022-01-14T02:03:33+01:00,28,31.92,22.64,1023.47,116.40,122.30,0,0,"$GNGGA,010329.092,9000.0000,N,00000.0000,E,0,0,,137.0,M,13.0,M,,*51",,,,
2022-01-14T02:03:53+01:00,29,32.05,22.54,1023.48,118.30,124.30,0,0,"$GNGGA,010348.307,9000.0000,N,00000.0000,E,0,0,,137.0,M,13.0,M,,*59",,,,
2022-01-14T02:04:11+01:00,30,32.19,22.40,1023.49,119.90,125.90,0,0,"$GNGGA,010407.300,9000.0000,N,00000.0000,E,0,0,,137.0,M,13.0,M,,*52",,,,
2022-01-14T02:04:32+01:00,31,32.31,22.26,1023.51,122.10,128.30,0,0,"$GNGGA,010428.098,9000.0000,N,00000.0000,E,0,0,,137.0,M,13.0,M,,*5D",,,,
2022-01-14T02:04:52+01:00,32,32.43,22.19,1023.52,122.60,128.80,0,0,"$GNGGA,010448.094,9000.0000,N,00000.0000,E,0,0,,137.0,M,13.0,M,,*57",,,,
2022-01-14T02:05:11+01:00,33,32.55,22.06,1023.53,122.00,128.20,0,0,"$GNGGA,010507.306,9000.0000,N,00000.0000,E,0,0,,137.0,M,13.0,M,,*55",,,,
2022-01-14T02:05:32+01:00,34,32.66,21.87,1023.54,119.50,125.50,0,0,"$GNGGA,010528.094,9000.0000,N,00000.0000,E,0,0,,137.0,M,13.0,M,,*50",,,,
2022-01-14T02:05:52+01:00,35,32.78,21.77,1023.55,118.60,124.60,0,0,"$GNGGA,010548.094,9000.0000,N,00000.0000,E,0,0,,137.0,M,13.0,M,,*56",,,,
2022-01-14T02:06:11+01:00,36,32.88,21.63,1023.57,119.90,125.90,0,0,"$GNGGA,010607.307,9000.0000,N,00000.0000,E,0,0,,137.0,M,13.0,M,,*57",,,,
2022-01-14T02:06:32+01:00,37,32.98,21.55,1023.57,119.90,125.90,0,0,"$GNGGA,010628.096,9000.0000,N,00000.0000,E,0,0,,137.0,M,13.0,M,,*51",,,,
2022-01-14T02:06:52+01:00,38,33.08,21.41,1023.57,120.00,126.10,0,0,"$GNGGA,010648.090,9000.0000,N,00000.0000,E,0,0,,137.0,M,13.0,M,,*51",,,,
2022-01-14T02:07:12+01:00,39,33.18,21.35,1023.57,117.90,123.80,0,0,"$GNGGA,010708.084,9000.0000,N,00000.0000,E,0,0,,137.0,M,13.0,M,,*51",,,,
2022-01-14T02:07:32+01:00,40,33.27,21.25,1023.58,118.50,124.50,0,0,"$GNGGA,010728.084,9000.0000,N,00000.0000,E,0,0,,137.0,M,13.0,M,,*53",,,,
2022-01-14T02:07:52+01:00,41,33.37,21.12,1023.57,116.90,122.80,0,0,"$GNGGA,010748.084,9000.0000,N,00000.0000,E,0,0,,137.0,M,13.0,M,,*55",,,,
2022-01-14T02:08:12+01:00,42,33.46,21.04,1023.58,117.10,123.00,0,0,"$GNGGA,010808.084,9000.0000,N,00000.0000,E,0,0,,137.0,M,13.0,M,,*5E",,,,
2022-01-14T02:08:32+01:00,43,33.54,21.00,1023.59,116.30,122.20,0,0,"$GNGGA,010828.084,9000.0000,N,00000.0000,E,0,0,,137.0,M,13.0,M,,*5C",,,,
2022-01-14T02:08:52+01:00,44,33.63,20.92,1023.58,117.20,123.10,0,0,"$GNGGA,010848.084,9000.0000,N,00000.0000,E,0,0,,137.0,M,13.0,M,,*5A",,,,
2022-01-14T02:09:12+01:00,45,33.71,20.74,1023.58,116.20,122.10,0,0,"$GNGGA,010908.084,9000.0000,N,00000.0000,E,0,0,,137.0,M,13.0,M,,*5F",,,,
2022-01-14T02:09:32+01:00,46,33.78,20.72,1023.58,117.20,123.10,0,0,"$GNGGA,010928.084,9000.0000,N,00000.0000,E,0,0,,137.0,M,13.0,M,,*5D",,,,
2022-01-14T02:09:52+01:00,47,33.86,20.72,1023.57,116.70,122.60,0,0,"$GNGGA,010948.084,9000.0000,N,00000.0000,E,0,0,,137.0,M,13.0,M,,*5B",,,,
2022-01-14T02:10:12+01:00,48,33.94,20.51,1023.57,120.50,126.60,0,0,"$GNGGA,011008.084,9000.0000,N,00000.0000,E,0,0,,137.0,M,13.0,M,,*57",,,,
2022-01-14T02:10:32+01:00,49,34.01,20.49,1023.57,121.10,127.20,0,0,"$GNGGA,011028.084,9000.0000,N,00000.0000,E,0,0,,137.0,M,13.0,M,,*55",,,,
2022-01-14T02:10:52+01:00,50,34.08,20.32,1023.58,121.10,127.20,0,0,"$GNGGA,011048.084,9000.0000,N,00000.0000,E,0,0,,137.0,M,13.0,M,,*53",,,,
2022-01-14T02:11:12+01:00,51,34.15,20.25,1023.59,116.60,122.50,0,0,"$GNGGA,011108.084,9000.0000,N,00000.0000,E,0,0,,137.0,M,13.0,M,,*56",,,,
2022-01-14T02:11:32+01:00,52,34.21,20.18,1023.58,115.10,120.90,0,0,"$GNGGA,011128.084,9000.0000,N,00000.0000,E,0,0,,137.0,M,13.0,M,,*54",,,,
2022-01-14T02:11:52+01:00,53,34.28,20.17,1023.57,117.60,123.50,0,0,"$GNGGA,011148.084,9000.0000,N,00000.0000,E,0,0,,137.0,M,13.0,M,,*52",,,,
2022-01-14T02:12:12+01:00,54,34.34,20.14,1023.56,115.60,121.40,0,0,"$GNGGA,011208.084,9000.0000,N,00000.0000,E,0,0,,137.0,M,13.0,M,,*55",,,,
2022-01-14T02:12:32+01:00,55,34.40,20.06,1023.56,113.80,119.50,0,0,"$GNGGA,011228.084,9000.0000,N,00000.0000,E,0,0,,137.0,M,13.0,M,,*57",,,,
2022-01-14T02:12:52+01:00,56,34.46,19.99,1023.56,110.10,115.70,0,0,"$GNGGA,011248.084,9000.0000,N,00000.0000,E,0,0,,137.0,M,13.0,M,,*51",,,,
2022-01-14T02:13:12+01:00,57,34.52,19.90,1023.56,111.30,116.90,0,0,"$GNGGA,011308.084,9000.0000,N,00000.0000,E,0,0,,137.0,M,13.0,M,,*54",,,,
2022-01-14T02:13:32+01:00,58,34.58,19.82,1023.56,110.90,116.50,0,0,"$GNGGA,011328.084,9000.0000,N,00000.0000,E,0,0,,137.0,M,13.0,M,,*56",,,,
2022-01-14T02:13:52+01:00,59,34.63,19.78,1023.56,111.30,116.90,0,0,"$GNGGA,011348.084,9000.0000,N,00000.0000,E,0,0,,137.0,M,13.0,M,,*50",,,,
2022-01-14T02:14:12+01:00,60,34.68,19.69,1023.56,113.60,119.30,0,0,"$GNGGA,011408.084,9000.0000,N,00000.0000,E,0,0,,137.0,M,13.0,M,,*53",,,,
2022-01-14T02:14:32+01:00,61,34.74,19.69,1023.56,114.50,120.30,0,0,"$GNGGA,011428.084,9000.0000,N,00000.0000,E,0,0,,137.0,M,13.0,M,,*51",,,,
2022-01-14T02:14:52+01:00,62,34.79,19.60,1023.56,115.40,121.20,0,0,"$GNGGA,011448.084,9000.0000,N,00000.0000,E,0,0,,137.0,M,13.0,M,,*57",,,,
2022-01-14T02:15:12+01:00,63,34.84,19.55,1023.56,113.60,119.30,0,0,"$GNGGA,011508.084,9000.0000,N,00000.0000,E,0,0,,137.0,M,13.0,M,,*52",,,,
2022-01-14T02:15:32+01:00,64,34.89,19.51,1023.56,113.20,118.90,0,0,"$GNGGA,011528.084,9000.0000,N,00000.0000,E,0,0,,137.0,M,13.0,M,,*50",,,,
2022-01-14T02:15:52+01:00,65,34.94,19.53,1023.55,112.60,118.30,0,0,"$GNGGA,011548.084,9000.0000,N,00000.0000,E,0,0,,137.0,M,13.0,M,,*56",,,,
2022-01-14T02:16:12+01:00,66,34.99,19.43,1023.55,113.70,119.40,0,0,"$GNGGA,011608.084,9000.0000,N,00000.0000,E,0,0,,137.0,M,13.0,M,,*51",,,,
2022-01-14T02:16:32+01:00,67,35.04,19.34,1023.54,113.80,119.50,0,0,"$GNGGA,011628.084,9000.0000,N,00000.0000,E,0,0,,137.0,M,13.0,M,,*53",,,,
2022-01-14T02:16:52+01:00,68,35.08,19.27,1023.54,112.50,118.20,0,0,"$GNGGA,011648.084,9000.0000,N,00000.0000,E,0,0,,137.0,M,13.0,M,,*55",,,,
2022-01-14T02:17:12+01:00,69,35.13,19.22,1023.53,111.70,117.30,0,0,"$GNGGA,011708.084,9000.0000,N,00000.0000,E,0,0,,137.0,M,13.0,M,,*50",,,,
2022-01-14T02:17:32+01:00,70,35.17,19.23,1023.53,112.20,117.90,0,0,"$GNGGA,011728.084,9000.0000,N,00000.0000,E,0,0,,137.0,M,13.0,M,,*52",,,,
2022-01-14T02:17:52+01:00,71,35.22,19.13,1023.53,112.90,118.60,0,0,"$GNGGA,011748.084,9000.0000,N,00000.0000,E,0,0,,137.0,M,13.0,M,,*54",,,,
2022-01-14T02:18:12+01:00,72,35.26,19.08,1023.53,113.10,118.80,0,0,"$GNGGA,011808.084,9000.0000,N,00000.0000,E,0,0,,137.0,M,13.0,M,,*5F",,,,
2022-01-14T02:18:32+01:00,73,35.30,19.17,1023.52,113.60,119.30,0,0,"$GNGGA,011828.084,9000.0000,N,00000.0000,E,0,0,,137.0,M,13.0,M,,*5D",,,,
2022-01-14T02:18:52+01:00,74,35.34,19.04,1023.52,115.00,120.80,0,0,"$GNGGA,011848.084,9000.0000,N,00000.0000,E,0,0,,137.0,M,13.0,M,,*5B",,,,
2022-01-14T02:19:12+01:00,75,35.37,18.93,1023.52,115.50,121.30,0,0,"$GNGGA,011908.084,9000.0000,N,00000.0000,E,0,0,,137.0,M,13.0,M,,*5E",,,,
2022-01-14T02:19:32+01:00,76,35.41,18.94,1023.52,116.30,122.20,0,0,"$GNGGA,011928.084,9000.0000,N,00000.0000,E,0,0,,137.0,M,13.0,M,,*5C",,,,
2022-01-14T02:19:52+01:00,77,35.44,18.85,1023.52,117.10,123.00,0,0,"$GNGGA,011948.084,9000.0000,N,00000.0000,E,0,0,,137.0,M,13.0,M,,*5A",,,,
2022-01-14T02:20:12+01:00,78,35.47,18.70,1023.51,119.90,125.90,0,0,"$GNGGA,012008.084,9000.0000,N,00000.0000,E,0,0,,137.0,M,13.0,M,,*54",,,,
2022-01-14T02:20:32+01:00,79,35.51,18.83,1023.51,118.80,124.80,0,0,"$GNGGA,012028.084,9000.0000,N,00000.0000,E,0,0,,137.0,M,13.0,M,,*56",,,,
2022-01-14T02:20:52+01:00,80,35.54,18.79,1023.51,114.50,120.30,0,0,"$GNGGA,012048.084,9000.0000,N,00000.0000,E,0,0,,137.0,M,13.0,M,,*50",,,,
2022-01-14T02:21:12+01:00,81,35.58,18.74,1023.51,109.00,114.50,0,0,"$GNGGA,012108.084,9000.0000,N,00000.0000,E,0,0,,137.0,M,13.0,M,,*55",,,,
2022-01-14T02:21:32+01:00,82,35.61,18.78,1023.51,106.50,111.90,0,0,"$GNGGA,012128.084,9000.0000,N,00000.0000,E,0,0,,137.0,M,13.0,M,,*57",,,,
2022-01-14T02:21:52+01:00,83,35.64,18.69,1023.51,110.50,116.10,0,0,"$GNGGA,012148.084,9000.0000,N,00000.0000,E,0,0,,137.0,M,13.0,M,,*51",,,,
2022-01-14T02:22:12+01:00,84,35.67,18.61,1023.51,112.70,118.40,0,0,"$GNGGA,012208.084,9000.0000,N,00000.0000,E,0,0,,137.0,M,13.0,M,,*56",,,,
2022-01-14T02:22:32+01:00,85,35.70,18.57,1023.51,115.00,120.80,0,0,"$GNGGA,012228.084,9000.0000,N,00000.0000,E,0,0,,137.0,M,13.0,M,,*54",,,,
2022-01-14T02:22:52+01:00,86,35.72,18.59,1023.51,114.00,119.80,0,0,"$GNGGA,012248.084,9000.0000,N,00000.0000,E,0,0,,137.0,M,13.0,M,,*52",,,,
2022-01-14T02:23:12+01:00,87,35.75,18.59,1023.51,113.30,119.00,0,0,"$GNGGA,012308.084,9000.0000,N,00000.0000,E,0,0,,137.0,M,13.0,M,,*57",,,,
2022-01-14T02:23:32+01:00,88,35.78,18.60,1023.51,111.90,117.50,0,0,"$GNGGA,012328.084,9000.0000,N,00000.0000,E,0,0,,137.0,M,13.0,M,,*55",,,,
2022-01-14T02:23:52+01:00,89,35.80,18.55,1023.51,110.10,115.70,0,0,"$GNGGA,012348.084,9000.0000,N,00000.0000,E,0,0,,137.0,M,13.0,M,,*53",,,,
2022-01-14T02:24:12+01:00,90,35.83,18.51,1023.50,109.90,115.40,0,0,"$GNGGA,012408.084,9000.0000,N,00000.0000,E,0,0,,137.0,M,13.0,M,,*50",,,,
2022-01-14T02:24:32+01:00,91,35.85,18.48,1023.51,111.80,117.40,0,0,"$GNGGA,012428.084,9000.0000,N,00000.0000,E,0,0,,137.0,M,13.0,M,,*52",,,,
2022-01-14T02:24:52+01:00,92,35.87,18.41,1023.51,112.50,118.20,0,0,"$GNGGA,012448.084,9000.0000,N,00000.0000,E,0,0,,137.0,M,13.0,M,,*54",,,,
2022-01-14T02:25:12+01:00,93,35.89,18.45,1023.50,113.50,119.20,0,0,"$GNGGA,012508.084,9000.0000,N,00000.0000,E,0,0,,137.0,M,13.0,M,,*51",,,,
2022-01-14T02:25:32+01:00,94,35.91,18.26,1023.50,110.50,116.10,0,0,"$GNGGA,012528.084,9000.0000,N,00000.0000,E,0,0,,137.0,M,13.0,M,,*53",,,,
2022-01-14T02:25:52+01:00,95,35.92,18.23,1023.49,110.80,116.40,0,0,"$GNGGA,012548.084,9000.0000,N,00000.0000,E,0,0,,137.0,M,13.0,M,,*55",,,,
2022-01-14T02:26:12+01:00,96,35.94,18.14,1023.49,108.60,114.10,0,0,"$GNGGA,012608.084,9000.0000,N,00000.0000,E,0,0,,137.0,M,13.0,M,,*52",,,,
2022-01-14T02:26:32+01:00,97,35.96,18.19,1023.49,110.80,116.40,0,0,"$GNGGA,012628.084,9000.0000,N,00000.0000,E,0,0,,137.0,M,13.0,M,,*50",,,,
2022-01-14T02:26:52+01:00,98,35.98,18.14,1023.48,111.50,117.10,0,0,"$GNGGA,012648.084,9000.0000,N,00000.0000,E,0,0,,137.0,M,13.0,M,,*56",,,,
2022-01-14T02:27:12+01:00,99,36.00,18.18,1023.48,112.30,118.00,0,0,"$GNGGA,012708.084,9000.0000,N,00000.0000,E,0,0,,137.0,M,13.0,M,,*53",,,,
2022-01-14T02:27:32+01:00,100,36.02,18.13,1023.47,112.20,117.90,0,0,"$GNGGA,012728.084,9000.0000,N,00000.0000,E,0,0,,137.0,M,13.0,M,,*51",,,,
2022-01-14T02:27:52+01:00,101,36.04,18.08,1023.47,110.30,115.90,0,0,"$GNGGA,012748.084,9000.0000,N,00000.0000,E,0,0,,137.0,M,13.0,M,,*57",,,,
2022-01-14T02:28:12+01:00,102,36.07,18.06,1023.47,111.30,116.90,0,0,"$GNGGA,012808.084,9000.0000,N,00000.0000,E,0,0,,137.0,M,13.0,M,,*5C",,,,
2022-01-14T02:28:32+01:00,103,36.09,17.99,1023.47,108.30,113.80,0,0,"$GNGGA,012828.084,9000.0000,N,00000.0000,E,0,0,,137.0,M,13.0,M,,*5E",,,,
2022-01-14T02:28:52+01:00,104,36.11,17.97,1023.46,107.50,112.90,0,0,"$GNGGA,012848.090,9000.0000,N,00000.0000,E,0,0,,137.0,M,13.0,M,,*5D",,,,
2022-01-14T02:29:12+01:00,105,36.13,18.03,1023.47,106.00,111.40,0,0,"$GNGGA,012908.089,9000.0000,N,00000.0000,E,0,0,,137.0,M,13.0,M,,*50",,,,
2022-01-14T02:29:32+01:00,106,36.16,18.01,1023.47,108.20,113.70,0,0,"$GNGGA,012928.089,9000.0000,N,00000.0000,E,0,0,,137.0,M,13.0,M,,*52",,,,
2022-01-14T02:29:52+01:00,107,36.18,17.99,1023.47,109.20,114.70,0,0,"$GNGGA,012948.085,9000.0000,N,00000.0000,E,0,0,,137.0,M,13.0,M,,*58",,,,
2022-01-14T02:30:12+01:00,108,36.20,18.01,1023.47,109.00,114.50,0,0,"$GNGGA,013008.085,9000.0000,N,00000.0000,E,0,0,,137.0,M,13.0,M,,*54",,,,
2022-01-14T02:30:32+01:00,109,36.23,17.97,1023.47,108.10,113.60,0,0,"$GNGGA,013028.085,9000.0000,N,00000.0000,E,0,0,,137.0,M,13.0,M,,*56",,,,
2022-01-14T02:30:52+01:00,110,36.25,17.91,1023.47,108.10,113.60,0,0,"$GNGGA,013048.085,9000.0000,N,00000.0000,E,0,0,,137.0,M,13.0,M,,*50",,,,
2022-01-14T02:31:15+01:00,111,36.28,17.90,1023.48,108.40,113.90,0,0,"$GNGGA,013111.085,9000.0000,N,00000.0000,E,0,0,,137.0,M,13.0,M,,*5D",,,,
2022-01-14T02:31:35+01:00,112,36.30,17.90,1023.48,110.20,115.80,0,0,"$GNGGA,013131.085,9000.0000,N,00000.0000,E,0,0,,137.0,M,13.0,M,,*5F",,,,
2022-01-14T02:31:55+01:00,113,36.32,17.82,1023.48,111.10,116.70,0,0,"$GNGGA,013151.085,9000.0000,N,00000.0000,E,0,0,,137.0,M,13.0,M,,*59",,,,
2022-01-14T02:32:15+01:00,114,36.34,17.75,1023.48,112.60,118.30,0,0,"$GNGGA,013211.085,9000.0000,N,00000.0000,E,0,0,,137.0,M,13.0,M,,*5E",,,,
2022-01-14T02:32:35+01:00,115,36.35,17.79,1023.48,110.60,116.20,0,0,"$GNGGA,013231.085,9000.0000,N,00000.0000,E,0,0,,137.0,M,13.0,M,,*5C",,,,
2022-01-14T02:32:55+01:00,116,36.36,17.74,1023.48,106.90,112.30,0,0,"$GNGGA,013251.085,9000.0000,N,00000.0000,E,0,0,,137.0,M,13.0,M,,*5A",,,,
2022-01-14T02:33:15+01:00,117,36.37,17.73,1023.48,102.70,107.90,0,0,"$GNGGA,013311.085,9000.0000,N,00000.0000,E,0,0,,137.0,M,13.0,M,,*5F",,,,
2022-01-14T02:33:35+01:00,118,36.38,17.76,1023.48,100.70,105.80,0,0,"$GNGGA,013331.085,9000.0000,N,00000.0000,E,0,0,,137.0,M,13.0,M,,*5D",,,,
2022-01-14T02:33:55+01:00,119,36.39,17.71,1023.48,102.90,108.10,0,0,"$GNGGA,013351.085,9000.0000,N,00000.0000,E,0,0,,137.0,M,13.0,M,,*5B",,,,
2022-01-14T02:34:15+01:00,120,36.41,17.80,1023.49,106.30,111.70,0,0,"$GNGGA,013411.085,9000.0000,N,00000.0000,E,0,0,,137.0,M,13.0,M,,*58",,,,
2022-01-14T02:34:35+01:00,121,36.42,17.75,1023.49,111.20,116.80,0,0,"$GNGGA,013431.085,9000.0000,N,00000.0000,E,0,0,,137.0,M,13.0,M,,*5A",,,,
2022-01-14T02:34:55+01:00,122,36.43,17.69,1023.49,113.80,119.50,0,0,"$GNGGA,013451.085,9000.0000,N,00000.0000,E,0,0,,137.0,M,13.0,M,,*5C",,,,
2022-01-14T02:35:15+01:00,123,36.44,17.68,1023.49,113.00,118.70,0,0,"$GNGGA,013511.085,9000.0000,N,00000.0000,E,0,0,,137.0,M,13.0,M,,*59",,,,
2022-01-14T02:35:35+01:00,124,36.45,17.67,1023.49,109.60,115.10,0,0,"$GNGGA,013531.085,9000.0000,N,00000.0000,E,0,0,,137.0,M,13.0,M,,*5B",,,,
2022-01-14T02:35:55+01:00,125,36.46,17.56,1023.49,104.70,110.00,0,0,"$GNGGA,013551.085,9000.0000,N,00000.0000,E,0,0,,137.0,M,13.0,M,,*5D",,,,
2022-01-14T02:36:15+01:00,126,36.46,17.58,1023.48,102.00,107.20,0,0,"$GNGGA,013611.085,9000.0000,N,00000.0000,E,0,0,,137.0,M,13.0,M,,*5A",,,,
2022-01-14T02:36:35+01:00,127,36.47,17.65,1023.48,103.90,109.10,0,0,"$GNGGA,013631.085,9000.0000,N,00000.0000,E,0,0,,137.0,M,13.0,M,,*58",,,,
2022-01-14T02:36:55+01:00,128,36.48,17.66,1023.48,107.30,112.70,0,0,"$GNGGA,013651.085,9000.0000,N,00000.0000,E,0,0,,137.0,M,13.0,M,,*5E",,,,
2022-01-14T02:37:15+01:00,129,36.49,17.66,1023.48,111.70,117.30,0,0,"$GNGGA,013711.085,9000.0000,N,00000.0000,E,0,0,,137.0,M,13.0,M,,*5B",,,,
2022-01-14T02:37:35+01:00,130,36.50,17.70,1023.47,113.80,119.50,0,0,"$GNGGA,013731.085,9000.0000,N,00000.0000,E,0,0,,137.0,M,13.0,M,,*59",,,,
2022-01-14T02:37:55+01:00,131,36.51,17.56,1023.46,112.20,117.90,0,0,"$GNGGA,013751.085,9000.0000,N,00000.0000,E,0,0,,137.0,M,13.0,M,,*5F",,,,
2022-01-14T02:38:15+01:00,132,36.52,17.65,1023.45,107.30,112.70,0,0,"$GNGGA,013811.085,9000.0000,N,00000.0000,E,0,0,,137.0,M,13.0,M,,*54",,,,
2022-01-14T02:38:35+01:00,133,36.53,17.70,1023.45,106.10,111.50,0,0,"$GNGGA,013831.085,9000.0000,N,00000.0000,E,0,0,,137.0,M,13.0,M,,*56",,,,
2022-01-14T02:38:55+01:00,134,36.54,17.65,1023.45,109.80,115.30,0,0,"$GNGGA,013851.085,9000.0000,N,00000.0000,E,0,0,,137.0,M,13.0,M,,*50",,,,
2022-01-14T02:39:15+01:00,135,36.55,17.60,1023.43,112.80,118.50,0,0,"$GNGGA,013911.085,9000.0000,N,00000.0000,E,0,0,,137.0,M,13.0,M,,*55",,,,
2022-01-14T02:39:35+01:00,136,36.57,17.65,1023.43,112.10,117.80,0,0,"$GNGGA,013931.085,9000.0000,N,00000.0000,E,0,0,,137.0,M,13.0,M,,*57",,,,
2022-01-14T02:39:55+01:00,137,36.58,17.67,1023.44,110.20,115.80,0,0,"$GNGGA,013951.085,9000.0000,N,00000.0000,E,0,0,,137.0,M,13.0,M,,*51",,,,
2022-01-14T02:40:15+01:00,138,36.59,17.65,1023.43,112.30,118.00,0,0,"$GNGGA,014011.085,9000.0000,N,00000.0000,E,0,0,,137.0,M,13.0,M,,*5B",,,,
2022-01-14T02:40:35+01:00,139,36.60,17.56,1023.43,108.60,114.10,0,0,"$GNGGA,014031.085,9000.0000,N,00000.0000,E,0,0,,137.0,M,13.0,M,,*59",,,,
2022-01-14T02:40:55+01:00,140,36.61,17.59,1023.44,106.40,111.80,0,0,"$GNGGA,014051.085,9000.0000,N,00000.0000,E,0,0,,137.0,M,13.0,M,,*5F",,,,
2022-01-14T02:41:15+01:00,141,36.61,17.62,1023.43,105.90,111.20,0,0,"$GNGGA,014111.085,9000.0000,N,00000.0000,E,0,0,,137.0,M,13.0,M,,*5A",,,,
2022-01-14T02:41:35+01:00,142,36.62,17.60,1023.43,111.00,116.60,0,0,"$GNGGA,014131.085,9000.0000,N,00000.0000,E,0,0,,137.0,M,13.0,M,,*58",,,,
2022-01-14T02:41:55+01:00,143,36.62,17.57,1023.42,112.90,118.60,0,0,"$GNGGA,014151.085,9000.0000,N,00000.0000,E,0,0,,137.0,M,13.0,M,,*5E",,,,
2022-01-14T02:42:15+01:00,144,36.63,17.57,1023.41,111.10,116.70,0,0,"$GNGGA,014211.085,9000.0000,N,00000.0000,E,0,0,,137.0,M,13.0,M,,*59",,,,
2022-01-14T02:42:35+01:00,145,36.64,17.55,1023.41,108.90,114.40,0,0,"$GNGGA,014231.085,9000.0000,N,00000.0000,E,0,0,,137.0,M,13.0,M,,*5B",,,,
2022-01-14T02:42:55+01:00,146,36.65,17.55,1023.40,107.10,112.50,0,0,"$GNGGA,014251.085,9000.0000,N,00000.0000,E,0,0,,137.0,M,13.0,M,,*5D",,,,
2022-01-14T02:43:15+01:00,147,36.65,17.56,1023.39,108.50,114.00,0,0,"$GNGGA,014311.085,9000.0000,N,00000.0000,E,0,0,,137.0,M,13.0,M,,*58",,,,
2022-01-14T02:43:35+01:00,148,36.66,17.58,1023.39,110.30,115.90,0,0,"$GNGGA,014331.085,9000.0000,N,00000.0000,E,0,0,,137.0,M,13.0,M,,*5A",,,,
2022-01-14T02:43:55+01:00,149,36.67,17.56,1023.39,111.10,116.70,0,0,"$GNGGA,014351.085,9000.0000,N,00000.0000,E,0,0,,137.0,M,13.0,M,,*5C",,,,
2022-01-14T02:44:15+01:00,150,36.68,17.55,1023.38,109.40,114.90,0,0,"$GNGGA,014411.085,9000.0000,N,00000.0000,E,0,0,,137.0,M,13.0,M,,*5F",,,,
2022-01-14T02:44:35+01:00,151,36.68,17.55,1023.37,106.60,112.00,0,0,"$GNGGA,014431.091,9000.0000,N,00000.0000,E,0,0,,137.0,M,13.0,M,,*58",,,,
2022-01-14T02:44:55+01:00,152,36.69,17.52,1023.36,107.10,112.50,0,0,"$GNGGA,014451.088,9000.0000,N,00000.0000,E,0,0,,137.0,M,13.0,M,,*56",,,,
2022-01-14T02:45:15+01:00,153,36.70,17.44,1023.36,106.60,112.00,0,0,"$GNGGA,014511.088,9000.0000,N,00000.0000,E,0,0,,137.0,M,13.0,M,,*53",,,,
2022-01-14T02:45:35+01:00,154,36.70,17.46,1023.37,108.70,114.20,0,0,"$GNGGA,014531.086,9000.0000,N,00000.0000,E,0,0,,137.0,M,13.0,M,,*5F",,,,
2022-01-14T02:45:55+01:00,155,36.70,17.47,1023.36,108.60,114.10,0,0,"$GNGGA,014551.086,9000.0000,N,00000.0000,E,0,0,,137.0,M,13.0,M,,*59",,,,
2022-01-14T02:46:15+01:00,156,36.70,17.50,1023.35,109.10,114.60,0,0,"$GNGGA,014611.086,9000.0000,N,00000.0000,E,0,0,,137.0,M,13.0,M,,*5E",,,,
2022-01-14T02:46:35+01:00,157,36.70,17.49,1023.35,108.20,113.70,0,0,"$GNGGA,014631.086,9000.0000,N,00000.0000,E,0,0,,137.0,M,13.0,M,,*5C",,,,
2022-01-14T02:46:55+01:00,158,36.70,17.50,1023.34,109.30,114.80,0,0,"$GNGGA,014651.086,9000.0000,N,00000.0000,E,0,0,,137.0,M,13.0,M,,*5A",,,,
2022-01-14T02:47:15+01:00,159,36.70,17.50,1023.34,109.20,114.70,0,0,"$GNGGA,014711.086,9000.0000,N,00000.0000,E,0,0,,137.0,M,13.0,M,,*5F",,,,
2022-01-14T02:47:35+01:00,160,36.70,17.49,1023.34,109.60,115.10,0,0,"$GNGGA,014731.086,9000.0000,N,00000.0000,E,0,0,,137.0,M,13.0,M,,*5D",,,,
2022-01-14T02:47:55+01:00,161,36.70,17.47,1023.33,109.90,115.40,0,0,"$GNGGA,014751.086,9000.0000,N,00000.0000,E,0,0,,137.0,M,13.0,M,,*5B",,,,
2022-01-14T02:48:15+01:00,162,36.70,17.49,1023.33,110.80,116.40,0,0,"$GNGGA,014811.086,9000.0000,N,00000.0000,E,0,0,,137.0,M,13.0,M,,*50",,,,
2022-01-14T02:48:35+01:00,163,36.70,17.44,1023.32,110.20,115.80,0,0,"$GNGGA,014831.086,9000.0000,N,00000.0000,E,0,0,,137.0,M,13.0,M,,*52",,,,
2022-01-14T02:48:55+01:00,164,36.70,17.40,1023.32,108.00,113.50,0,0,"$GNGGA,014851.086,9000.0000,N,00000.0000,E,0,0,,137.0,M,13.0,M,,*54",,,,
2022-01-14T02:49:15+01:00,165,36.70,17.48,1023.31,106.90,112.30,0,0,"$GNGGA,014911.086,9000.0000,N,00000.0000,E,0,0,,137.0,M,13.0,M,,*51",,,,
2022-01-14T02:49:35+01:00,166,36.71,17.48,1023.31,106.60,112.00,0,0,"$GNGGA,014931.086,9000.0000,N,00000.0000,E,0,0,,137.0,M,13.0,M,,*53",,,,
2022-01-14T02:49:55+01:00,167,36.71,17.46,1023.30,107.40,112.80,0,0,"$GNGGA,014951.086,9000.0000,N,00000.0000,E,0,0,,137.0,M,13.0,M,,*55",,,,
2022-01-14T02:50:15+01:00,168,36.71,17.45,1023.30,107.60,113.00,0,0,"$GNGGA,015011.086,9000.0000,N,00000.0000,E,0,0,,137.0,M,13.0,M,,*59",,,,
2022-01-14T02:50:35+01:00,169,36.72,17.46,1023.31,107.30,112.70,0,0,"$GNGGA,015031.086,9000.0000,N,00000.0000,E,0,0,,137.0,M,13.0,M,,*5B",,,,
2022-01-14T02:50:55+01:00,170,36.73,17.45,1023.31,107.20,112.60,0,0,"$GNGGA,015051.086,9000.0000,N,00000.0000,E,0,0,,137.0,M,13.0,M,,*5D",,,,
2022-01-14T02:51:15+01:00,171,36.73,17.44,1023.30,106.60,112.00,0,0,"$GNGGA,015111.086,9000.0000,N,00000.0000,E,0,0,,137.0,M,13.0,M,,*58",,,,
2022-01-14T02:51:35+01:00,172,36.74,17.40,1023.29,106.90,112.30,0,0,"$GNGGA,015131.086,9000.0000,N,00000.0000,E,0,0,,137.0,M,13.0,M,,*5A",,,,
2022-01-14T02:51:55+01:00,173,36.74,17.42,1023.29,106.20,111.60,0,0,"$GNGGA,015151.086,9000.0000,N,00000.0000,E,0,0,,137.0,M,13.0,M,,*5C",,,,
2022-01-14T02:52:15+01:00,174,36.74,17.42,1023.29,107.30,112.70,0,0,"$GNGGA,015211.086,9000.0000,N,00000.0000,E,0,0,,137.0,M,13.0,M,,*5B",,,,
2022-01-14T02:52:35+01:00,175,36.74,17.39,1023.29,108.80,114.30,0,0,"$GNGGA,015231.086,9000.0000,N,00000.0000,E,0,0,,137.0,M,13.0,M,,*59",,,,
2022-01-14T02:52:55+01:00,176,36.74,17.39,1023.29,111.20,116.80,0,0,"$GNGGA,015251.086,9000.0000,N,00000.0000,E,0,0,,137.0,M,13.0,M,,*5F",,,,
2022-01-14T02:53:15+01:00,177,36.74,17.36,1023.28,111.00,116.60,0,0,"$GNGGA,015311.086,9000.0000,N,00000.0000,E,0,0,,137.0,M,13.0,M,,*5A",,,,
2022-01-14T02:53:35+01:00,178,36.74,17.35,1023.28,109.80,115.30,0,0,"$GNGGA,015331.086,9000.0000,N,00000.0000,E,0,0,,137.0,M,13.0,M,,*58",,,,
2022-01-14T02:53:55+01:00,179,36.74,17.38,1023.28,108.00,113.50,0,0,"$GNGGA,015351.086,9000.0000,N,00000.0000,E,0,0,,137.0,M,13.0,M,,*5E",,,,
2022-01-14T02:54:15+01:00,180,36.74,17.32,1023.29,106.70,112.10,0,0,"$GNGGA,015411.086,9000.0000,N,00000.0000,E,0,0,,137.0,M,13.0,M,,*5D",,,,
2022-01-14T02:54:35+01:00,181,36.74,17.36,1023.29,107.80,113.20,0,0,"$GNGGA,015431.086,9000.0000,N,00000.0000,E,0,0,,137.0,M,13.0,M,,*5F",,,,
2022-01-14T02:54:55+01:00,182,36.74,17.33,1023.29,107.70,113.10,0,0,"$GNGGA,015451.086,9000.0000,N,00000.0000,E,0,0,,137.0,M,13.0,M,,*59",,,,
2022-01-14T02:55:15+01:00,183,36.74,17.31,1023.28,107.30,112.70,0,0,"$GNGGA,015511.086,9000.0000,N,00000.0000,E,0,0,,137.0,M,13.0,M,,*5C",,,,
2022-01-14T02:55:35+01:00,184,36.75,17.30,1023.28,106.90,112.30,0,0,"$GNGGA,015531.086,9000.0000,N,00000.0000,E,0,0,,137.0,M,13.0,M,,*5E",,,,
2022-01-14T02:55:55+01:00,185,36.74,17.33,1023.27,109.10,114.60,0,0,"$GNGGA,015551.086,9000.0000,N,00000.0000,E,0,0,,137.0,M,13.0,M,,*58",,,,
2022-01-14T02:56:15+01:00,186,36.74,17.34,1023.27,112.70,118.40,0,0,"$GNGGA,015611.086,9000.0000,N,00000.0000,E,0,0,,137.0,M,13.0,M,,*5F",,,,
2022-01-14T02:56:35+01:00,187,36.74,17.29,1023.27,107.60,113.00,0,0,"$GNGGA,015631.086,9000.0000,N,00000.0000,E,0,0,,137.0,M,13.0,M,,*5D",,,,
2022-01-14T02:56:55+01:00,188,36.73,17.22,1023.26,104.10,109.40,0,0,"$GNGGA,015651.086,9000.0000,N,00000.0000,E,0,0,,137.0,M,13.0,M,,*5B",,,,
2022-01-14T02:57:15+01:00,189,36.73,17.31,1023.26,102.10,107.30,0,0,"$GNGGA,015711.086,9000.0000,N,00000.0000,E,0,0,,137.0,M,13.0,M,,*5E",,,,
2022-01-14T02:57:35+01:00,190,36.73,17.35,1023.25,107.10,112.50,0,0,"$GNGGA,015731.086,9000.0000,N,00000.0000,E,0,0,,137.0,M,13.0,M,,*5C",,,,
2022-01-14T02:57:55+01:00,191,36.72,17.35,1023.24,109.00,114.50,0,0,"$GNGGA,015751.086,9000.0000,N,00000.0000,E,0,0,,137.0,M,13.0,M,,*5A",,,,
2022-01-14T02:58:15+01:00,192,36.71,17.36,1023.24,107.30,112.70,0,0,"$GNGGA,015811.086,9000.0000,N,00000.0000,E,0,0,,137.0,M,13.0,M,,*51",,,,
2022-01-14T02:58:35+01:00,193,36.70,17.39,1023.23,109.10,114.60,0,0,"$GNGGA,015831.095,9000.0000,N,00000.0000,E,0,0,,137.0,M,13.0,M,,*51",,,,
2022-01-14T02:58:55+01:00,194,36.69,17.42,1023.23,107.10,112.50,0,0,"$GNGGA,015851.095,9000.0000,N,00000.0000,E,0,0,,137.0,M,13.0,M,,*57",,,,
2022-01-14T02:59:15+01:00,195,36.68,17.48,1023.22,106.80,112.20,0,0,"$GNGGA,015911.095,9000.0000,N,00000.0000,E,0,0,,137.0,M,13.0,M,,*52",,,,
2022-01-14T02:59:35+01:00,196,36.67,17.44,1023.22,106.10,111.50,0,0,"$GNGGA,015931.095,9000.0000,N,00000.0000,E,0,0,,137.0,M,13.0,M,,*50",,,,
2022-01-14T02:59:55+01:00,197,36.67,17.46,1023.21,107.70,113.10,0,0,"$GNGGA,015951.094,9000.0000,N,00000.0000,E,0,0,,137.0,M,13.0,M,,*57",,,,
2022-01-14T03:00:15+01:00,198,36.66,17.42,1023.19,108.70,114.20,0,0,"$GNGGA,020011.094,9000.0000,N,00000.0000,E,0,0,,137.0,M,13.0,M,,*5C",,,,
2022-01-14T03:00:35+01:00,199,36.66,17.40,1023.18,109.60,115.10,0,0,"$GNGGA,020031.094,9000.0000,N,00000.0000,E,0,0,,137.0,M,13.0,M,,*5E",,,,
2022-01-14T03:00:55+01:00,200,36.66,17.40,1023.18,108.90,114.40,0,0,"$GNGGA,020051.094,9000.0000,N,00000.0000,E,0,0,,137.0,M,13.0,M,,*58",,,,
2022-01-14T03:01:15+01:00,201,36.66,17.39,1023.17,107.40,112.80,0,0,"$GNGGA,020111.094,9000.0000,N,00000.0000,E,0,0,,137.0,M,13.0,M,,*5D",,,,
2022-01-14T03:01:35+01:00,202,36.66,17.35,1023.16,101.40,106.50,0,0,"$GNGGA,020131.094,9000.0000,N,00000.0000,E,0,0,,137.0,M,13.0,M,,*5F",,,,
2022-01-14T03:01:55+01:00,203,36.65,17.34,1023.14,102.20,107.40,0,0,"$GNGGA,020151.094,9000.0000,N,00000.0000,E,0,0,,137.0,M,13.0,M,,*59",,,,
2022-01-14T03:02:15+01:00,204,36.64,17.40,1023.14,105.40,110.70,0,0,"$GNGGA,020211.094,9000.0000,N,00000.0000,E,0,0,,137.0,M,13.0,M,,*5E",,,,
2022-01-14T03:02:35+01:00,205,36.63,17.43,1023.15,111.80,117.40,0,0,"$GNGGA,020231.094,9000.0000,N,00000.0000,E,0,0,,137.0,M,13.0,M,,*5C",,,,
2022-01-14T03:02:55+01:00,206,36.62,17.44,1023.14,111.00,116.60,0,0,"$GNGGA,020251.094,9000.0000,N,00000.0000,E,0,0,,137.0,M,13.0,M,,*5A",,,,
2022-01-14T03:03:15+01:00,207,36.62,17.45,1023.14,108.80,114.30,0,0,"$GNGGA,020311.094,9000.0000,N,00000.0000,E,0,0,,137.0,M,13.0,M,,*5F",,,,
2022-01-14T03:03:35+01:00,208,36.62,17.39,1023.14,104.80,110.10,0,0,"$GNGGA,020331.094,9000.0000,N,00000.0000,E,0,0,,137.0,M,13.0,M,,*5D",,,,
2022-01-14T03:03:55+01:00,209,36.62,17.38,1023.13,104.00,109.30,0,0,"$GNGGA,020351.094,9000.0000,N,00000.0000,E,0,0,,137.0,M,13.0,M,,*5B",,,,
2022-01-14T03:04:15+01:00,210,36.62,17.42,1023.13,103.20,108.40,0,0,"$GNGGA,020411.094,9000.0000,N,00000.0000,E,0,0,,137.0,M,13.0,M,,*58",,,,
2022-01-14T03:04:35+01:00,211,36.61,17.45,1023.12,101.90,107.00,0,0,"$GNGGA,020431.094,9000.0000,N,00000.0000,E,0,0,,137.0,M,13.0,M,,*5A",,,,
2022-01-14T03:04:55+01:00,212,36.62,17.46,1023.13,103.00,108.20,0,0,"$GNGGA,020451.094,9000.0000,N,00000.0000,E,0,0,,137.0,M,13.0,M,,*5C",,,,
2022-01-14T03:05:15+01:00,213,36.62,17.49,1023.12,105.10,110.40,0,0,"$GNGGA,020511.094,9000.0000,N,00000.0000,E,0,0,,137.0,M,13.0,M,,*59",,,,
2022-01-14T03:05:35+01:00,214,36.62,17.50,1023.11,106.20,111.60,0,0,"$GNGGA,020531.094,9000.0000,N,00000.0000,E,0,0,,137.0,M,13.0,M,,*5B",,,,
2022-01-14T03:05:55+01:00,215,36.62,17.38,1023.12,104.70,110.00,0,0,"$GNGGA,020551.094,9000.0000,N,00000.0000,E,0,0,,137.0,M,13.0,M,,*5D",,,,
2022-01-14T03:06:15+01:00,216,36.62,17.33,1023.13,102.60,107.80,0,0,"$GNGGA,020611.094,9000.0000,N,00000.0000,E,0,0,,137.0,M,13.0,M,,*5A",,,,
2022-01-14T03:06:35+01:00,217,36.62,17.28,1023.12,103.10,108.30,0,0,"$GNGGA,020631.094,9000.0000,N,00000.0000,E,0,0,,137.0,M,13.0,M,,*58",,,,
2022-01-14T03:06:55+01:00,218,36.61,17.32,1023.12,104.90,110.20,0,0,"$GNGGA,020651.094,9000.0000,N,00000.0000,E,0,0,,137.0,M,13.0,M,,*5E",,,,
2022-01-14T03:07:15+01:00,219,36.61,17.38,1023.12,105.30,110.60,0,0,"$GNGGA,020711.094,9000.0000,N,00000.0000,E,0,0,,137.0,M,13.0,M,,*5B",,,,
2022-01-14T03:07:35+01:00,220,36.61,17.32,1023.12,104.20,109.50,0,0,"$GNGGA,020731.094,9000.0000,N,00000.0000,E,0,0,,137.0,M,13.0,M,,*59",,,,
2022-01-14T03:07:55+01:00,221,36.61,17.39,1023.10,104.40,109.70,0,0,"$GNGGA,020751.094,9000.0000,N,00000.0000,E,0,0,,137.0,M,13.0,M,,*5F",,,,
2022-01-14T03:08:15+01:00,222,36.60,17.41,1023.10,108.20,113.70,0,0,"$GNGGA,020811.094,9000.0000,N,00000.0000,E,0,0,,137.0,M,13.0,M,,*54",,,,
2022-01-14T03:08:35+01:00,223,36.59,17.51,1023.09,112.50,118.20,0,0,"$GNGGA,020831.094,9000.0000,N,00000.0000,E,0,0,,137.0,M,13.0,M,,*56",,,,
2022-01-14T03:08:55+01:00,224,36.59,17.42,1023.09,108.60,114.10,0,0,"$GNGGA,020851.093,9000.0000,N,00000.0000,E,0,0,,137.0,M,13.0,M,,*57",,,,
2022-01-14T03:09:15+01:00,225,36.60,17.46,1023.09,105.00,110.30,0,0,"$GNGGA,020911.093,9000.0000,N,00000.0000,E,0,0,,137.0,M,13.0,M,,*52",,,,
2022-01-14T03:09:35+01:00,226,36.61,17.48,1023.08,99.60,104.60,0,0,"$GNGGA,020931.093,9000.0000,N,00000.0000,E,0,0,,137.0,M,13.0,M,,*50",,,,
2022-01-14T03:09:55+01:00,227,36.62,17.45,1023.09,100.70,105.80,0,0,"$GNGGA,020951.093,9000.0000,N,00000.0000,E,0,0,,137.0,M,13.0,M,,*56",,,,
2022-01-14T03:10:15+01:00,228,36.62,17.32,1023.08,99.00,104.00,0,0,"$GNGGA,021011.093,9000.0000,N,00000.0000,E,0,0,,137.0,M,13.0,M,,*5A",,,,
2022-01-14T03:10:35+01:00,229,36.62,17.33,1023.07,98.40,103.40,0,0,"$GNGGA,021031.093,9000.0000,N,00000.0000,E,0,0,,137.0,M,13.0,M,,*58",,,,
2022-01-14T03:10:55+01:00,230,36.62,17.17,1023.07,98.10,103.10,0,0,"$GNGGA,021051.093,9000.0000,N,00000.0000,E,0,0,,137.0,M,13.0,M,,*5E",,,,
2022-01-14T03:11:15+01:00,231,36.62,17.00,1023.06,99.50,104.50,0,0,"$GNGGA,021111.093,9000.0000,N,00000.0000,E,0,0,,137.0,M,13.0,M,,*5B",,,,
2022-01-14T03:11:35+01:00,232,36.62,17.05,1023.06,101.00,106.10,0,0,"$GNGGA,021131.093,9000.0000,N,00000.0000,E,0,0,,137.0,M,13.0,M,,*59",,,,
2022-01-14T03:11:55+01:00,233,36.63,16.88,1023.06,101.10,106.20,0,0,"$GNGGA,021151.093,9000.0000,N,00000.0000,E,0,0,,137.0,M,13.0,M,,*5F",,,,
2022-01-14T03:12:15+01:00,234,36.63,16.74,1023.05,102.40,107.60,0,0,"$GNGGA,021211.093,9000.0000,N,00000.0000,E,0,0,,137.0,M,13.0,M,,*58",,,,
2022-01-14T03:12:35+01:00,235,36.64,16.70,1023.05,103.30,108.50,0,0,"$GNGGA,021231.093,9000.0000,N,00000.0000,E,0,0,,137.0,M,13.0,M,,*5A",,,,
2022-01-14T03:12:55+01:00,236,36.64,16.67,1023.06,102.00,107.20,0,0,"$GNGGA,021251.093,9000.0000,N,00000.0000,E,0,0,,137.0,M,13.0,M,,*5C",,,,
2022-01-14T03:13:15+01:00,237,36.64,16.72,1023.05,100.20,105.30,0,0,"$GNGGA,021311.305,9000.0000,N,00000.0000,E,0,0,,137.0,M,13.0,M,,*55",,,,
2022-01-14T03:13:36+01:00,238,36.64,16.80,1023.05,100.80,105.90,0,0,"$GNGGA,021332.098,9000.0000,N,00000.0000,E,0,0,,137.0,M,13.0,M,,*53",,,,
2022-01-14T03:13:55+01:00,239,36.64,16.80,1023.05,103.90,109.10,0,0,"$GNGGA,021351.305,9000.0000,N,00000.0000,E,0,0,,137.0,M,13.0,M,,*51",,,,
2022-01-14T03:14:15+01:00,240,36.64,16.82,1023.05,106.80,112.20,0,0,"$GNGGA,021411.305,9000.0000,N,00000.0000,E,0,0,,137.0,M,13.0,M,,*52",,,,
2022-01-14T03:14:35+01:00,241,36.64,16.83,1023.04,107.10,112.50,0,0,"$GNGGA,021430.302,9000.0000,N,00000.0000,E,0,0,,137.0,M,13.0,M,,*56",,,,
2022-01-14T03:14:54+01:00,242,36.64,16.82,1023.04,106.70,112.10,0,0,"$GNGGA,021450.090,9000.0000,N,00000.0000,E,0,0,,137.0,M,13.0,M,,*58",,,,
2022-01-14T03:15:13+01:00,243,36.64,16.81,1023.04,105.50,110.80,0,0,"$GNGGA,021509.311,9000.0000,N,00000.0000,E,0,0,,137.0,M,13.0,M,,*5F",,,,
2022-01-14T03:15:34+01:00,244,36.65,16.85,1023.05,105.30,110.60,0,0,"$GNGGA,021530.089,9000.0000,N,00000.0000,E,0,0,,137.0,M,13.0,M,,*57",,,,
2022-01-14T03:15:54+01:00,245,36.65,16.82,1023.04,103.90,109.10,0,0,"$GNGGA,021550.094,9000.0000,N,00000.0000,E,0,0,,137.0,M,13.0,M,,*5D",,,,
2022-01-14T03:16:14+01:00,246,36.65,16.82,1023.03,104.40,109.70,0,0,"$GNGGA,021610.094,9000.0000,N,00000.0000,E,0,0,,137.0,M,13.0,M,,*5A",,,,
2022-01-14T03:16:35+01:00,247,36.65,16.80,1023.03,106.00,111.40,0,0,"$GNGGA,021631.000,4900.5181,N,00825.4261,E,1,3,3.23,102.1,M,47.9,M,,*42",,,,
2022-01-14T03:16:55+01:00,248,36.64,16.83,1023.03,108.10,113.60,0,0,"$GNGGA,021651.000,4900.5178,N,00825.4303,E,1,3,3.23,102.2,M,47.9,M,,*44",,,,
2022-01-14T03:17:16+01:00,249,36.64,16.80,1023.02,109.40,114.90,0,0,"$GNGGA,021711.000,4900.5217,N,00825.4224,E,1,3,3.23,102.2,M,47.9,M,,*4F",,,,
2022-01-14T03:17:37+01:00,250,36.63,16.86,1023.03,111.40,117.00,0,0,"$GNGGA,021732.000,4900.5209,N,00825.4221,E,1,3,3.23,101.9,M,47.9,M,,*4C",,,,
2022-01-14T03:17:56+01:00,251,36.63,17.03,1023.03,108.60,114.10,0,0,"$GNGGA,021752.000,4900.5163,N,00825.4236,E,1,3,3.24,101.7,M,47.9,M,,*4A",,,,
2022-01-14T03:18:17+01:00,252,36.63,17.18,1023.02,108.00,113.50,0,0,"$GNGGA,021812.000,4900.5155,N,00825.4119,E,1,3,3.24,101.3,M,47.9,M,,*4E",,,,
2022-01-14T03:18:38+01:00,253,36.63,17.07,1023.03,109.30,114.80,0,0,"$GNGGA,021833.000,4900.5159,N,00825.4316,E,1,3,3.24,101.2,M,47.9,M,,*4D",,,,
2022-01-14T03:18:58+01:00,254,36.63,17.08,1023.03,115.00,120.80,0,0,"$GNGGA,021853.000,4900.5124,N,00825.4435,E,1,3,3.24,101.3,M,47.9,M,,*46",,,,
2022-01-14T03:19:17+01:00,255,36.64,17.03,1023.03,119.10,125.10,0,0,"$GNGGA,021913.000,4900.5147,N,00825.4420,E,1,3,3.24,101.5,M,47.9,M,,*44",,,,
2022-01-14T03:19:38+01:00,256,36.64,16.98,1023.03,119.30,125.30,0,0,"$GNGGA,021934.000,4900.5153,N,00825.4293,E,1,3,3.25,101.5,M,47.9,M,,*4B",,,,
2022-01-14T03:19:58+01:00,257,36.64,16.95,1023.04,120.40,126.50,0,0,"$GNGGA,021954.000,4900.5171,N,00825.4193,E,1,3,3.25,101.3,M,47.9,M,,*48",,,,
2022-01-14T03:20:19+01:00,258,36.64,16.96,1023.04,115.50,121.30,0,0,"$GNGGA,022014.000,4900.5175,N,00825.4268,E,1,3,3.25,101.7,M,47.9,M,,*41",,,,
2022-01-14T03:20:39+01:00,259,36.64,16.93,1023.04,111.70,117.30,0,0,"$GNGGA,022035.000,4900.5194,N,00825.4313,E,1,3,3.25,102.5,M,47.9,M,,*41",,,,
2022-01-14T03:21:00+01:00,260,36.63,16.96,1023.05,110.70,116.30,0,0,"$GNGGA,022055.000,4900.5222,N,00825.4326,E,1,3,3.26,102.9,M,47.9,M,,*40",,,,
2022-01-14T03:21:20+01:00,261,36.63,16.95,1023.06,115.70,121.50,0,0,"$GNGGA,022116.000,4900.5207,N,00825.4370,E,1,3,3.26,103.0,M,47.9,M,,*4A",,,,
2022-01-14T03:21:42+01:00,262,36.63,16.94,1023.05,120.10,126.20,0,0,"$GNGGA,022137.000,4900.5142,N,00825.4320,E,1,3,3.26,103.5,M,47.9,M,,*4B",,,,
2022-01-14T03:22:02+01:00,263,36.62,16.91,1023.06,120.00,126.10,0,0,"$GNGGA,022157.000,4900.5149,N,00825.4233,E,1,3,3.26,104.1,M,47.9,M,,*46",,,,
2022-01-14T03:22:23+01:00,264,36.62,16.94,1023.06,118.40,124.40,0,0,"$GNGGA,022218.000,4900.5251,N,00825.4135,E,1,3,3.27,104.0,M,47.9,M,,*41",,,,
2022-01-14T03:22:42+01:00,265,36.61,16.96,1023.07,116.70,122.60,0,0,"$GNGGA,022238.000,4900.5206,N,00825.4273,E,1,3,3.27,104.0,M,47.9,M,,*40",,,,
2022-01-14T03:23:03+01:00,266,36.60,16.96,1023.07,118.90,124.90,0,0,"$GNGGA,022258.000,4900.5191,N,00825.4408,E,1,3,3.27,104.6,M,47.9,M,,*47",,,,
2022-01-14T03:23:23+01:00,267,36.59,16.99,1023.08,121.50,127.60,0,0,"$GNGGA,022319.000,4900.5171,N,00825.4449,E,1,3,3.27,105.2,M,47.9,M,,*4D",,,,
2022-01-14T03:23:44+01:00,268,36.57,17.03,1023.08,121.30,127.40,0,0,"$GNGGA,022339.000,4900.5152,N,00825.4332,E,1,3,3.28,105.3,M,47.9,M,,*4B",,,,
2022-01-14T03:24:04+01:00,269,36.57,17.04,1023.09,117.50,123.40,0,0,"$GNGGA,022359.000,4900.5132,N,00825.4322,E,1,3,3.28,105.2,M,47.9,M,,*4B",,,,
2022-01-14T03:24:24+01:00,270,36.56,17.04,1023.08,112.90,118.60,0,0,"$GNGGA,022420.000,4900.5116,N,00825.4623,E,0,2,,105.0,M,47.9,M,,*55",,,,
2022-01-14T03:24:45+01:00,271,36.55,17.04,1023.08,112.00,117.70,0,0,"$GNGGA,022440.000,4900.5121,N,00825.4624,E,1,3,3.28,105.1,M,47.9,M,,*46",,,,
2022-01-14T03:25:04+01:00,272,36.54,17.08,1023.08,114.70,120.50,0,0,"$GNGGA,022500.000,4900.5105,N,00825.4626,E,0,2,,106.5,M,47.9,M,,*57",,,,
2022-01-14T03:25:25+01:00,273,36.53,17.09,1023.08,117.30,123.20,0,0,"$GNGGA,022521.000,4900.5107,N,00825.4633,E,1,3,3.29,106.4,M,47.9,M,,*45",,,,
2022-01-14T03:25:46+01:00,274,36.53,17.12,1023.07,121.20,127.30,0,0,"$GNGGA,022541.000,4900.5170,N,00825.4265,E,1,3,3.29,106.8,M,47.9,M,,*48",,,,
2022-01-14T03:26:05+01:00,275,36.52,17.11,1023.07,123.40,129.60,0,0,"$GNGGA,022601.000,4900.5163,N,00825.4031,E,6,2,99.99,106.6,M,47.9,M,,*7E",,,,
2022-01-14T03:26:26+01:00,276,36.51,17.13,1023.07,121.00,127.10,0,0,"$GNGGA,022622.000,4900.5167,N,00825.4011,E,0,2,,106.4,M,47.9,M,,*53",,,,
2022-01-14T03:26:46+01:00,277,36.50,17.13,1023.07,115.90,121.70,0,0,"$GNGGA,022642.000,4900.5174,N,00825.4004,E,0,2,,106.4,M,47.9,M,,*53",,,,
2022-01-14T03:27:06+01:00,278,36.49,17.15,1023.07,110.50,116.10,0,0,"$GNGGA,022702.000,4900.5175,N,00825.4003,E,1,3,3.31,106.2,M,47.9,M,,*49",,,,
2022-01-14T03:27:27+01:00,279,36.48,17.14,1023.07,112.20,117.90,0,0,"$GNGGA,022723.000,4900.5127,N,00825.4302,E,1,3,3.31,106.0,M,47.9,M,,*4D",,,,
2022-01-14T03:27:48+01:00,280,36.46,17.17,1023.07,117.00,122.90,0,0,"$GNGGA,022743.000,4900.5072,N,00825.4404,E,1,3,3.31,105.9,M,47.9,M,,*41",,,,
2022-01-14T03:28:07+01:00,281,36.45,17.18,1023.07,120.70,126.80,0,0,"$GNGGA,022803.000,4900.5119,N,00825.4250,E,1,3,3.32,105.9,M,47.9,M,,*42",,,,
2022-01-14T03:28:28+01:00,282,36.44,17.20,1023.07,116.90,122.80,0,0,"$GNGGA,022824.000,4900.5139,N,00825.4297,E,1,3,3.32,106.1,M,47.9,M,,*45",,,,
2022-01-14T03:28:48+01:00,283,36.42,17.23,1023.07,110.90,116.50,0,0,"$GNGGA,022844.000,4900.5145,N,00825.4219,E,1,3,3.32,106.0,M,47.9,M,,*4F",,,,
2022-01-14T03:29:09+01:00,284,36.41,17.25,1023.07,108.80,114.30,0,0,"$GNGGA,022904.000,4900.5109,N,00825.4150,E,1,3,3.32,106.0,M,47.9,M,,*4C",,,,
2022-01-14T03:29:30+01:00,285,36.40,17.25,1023.07,112.30,118.00,0,0,"$GNGGA,022925.000,4900.5110,N,00825.4149,E,1,3,3.33,105.9,M,47.9,M,,*44",,,,
2022-01-14T03:29:50+01:00,286,36.38,17.26,1023.07,117.80,123.70,0,0,"$GNGGA,022945.000,4900.5147,N,00825.4271,E,1,3,3.33,105.9,M,47.9,M,,*48",,,,
2022-01-14T03:30:10+01:00,287,36.37,17.28,1023.07,120.60,126.70,0,0,"$GNGGA,023005.000,4900.5154,N,00825.4342,E,1,3,3.34,106.0,M,47.9,M,,*4A",,,,
2022-01-14T03:30:31+01:00,288,36.35,17.28,1023.07,121.30,127.40,0,0,"$GNGGA,023026.000,4900.5125,N,00825.4476,E,1,3,3.34,106.0,M,47.9,M,,*4D",,,,
2022-01-14T03:30:51+01:00,289,36.33,17.30,1023.07,119.90,125.90,0,0,"$GNGGA,023046.000,4900.5193,N,00825.4321,E,1,3,78.29,106.0,M,47.9,M,,*73",,,,
2022-01-14T03:31:10+01:00,290,36.32,17.32,1023.07,120.00,126.10,0,0,"$GNGGA,023106.000,4900.5183,N,00825.4315,E,1,3,78.12,106.0,M,47.9,M,,*78",,,,
2022-01-14T03:31:32+01:00,291,36.30,17.34,1023.07,120.00,126.10,0,0,"$GNGGA,023127.000,4900.5140,N,00825.4406,E,1,3,3.35,106.0,M,47.9,M,,*48",,,,
2022-01-14T03:31:51+01:00,292,36.28,17.36,1023.07,122.30,128.50,0,0,"$GNGGA,023147.000,4900.5145,N,00825.4544,E,1,3,3.35,106.0,M,47.9,M,,*4C",,,,
2022-01-14T03:32:11+01:00,293,36.27,17.36,1023.07,123.00,129.20,0,0,"$GNGGA,023207.000,4900.5127,N,00825.4713,E,1,3,3.36,106.4,M,47.9,M,,*48",,,,
2022-01-14T03:32:32+01:00,294,36.25,17.37,1023.07,118.90,124.90,0,0,"$GNGGA,023228.000,4900.5138,N,00825.4540,E,1,3,3.37,106.8,M,47.9,M,,*42",,,,
2022-01-14T03:32:52+01:00,295,36.23,17.42,1023.07,116.30,122.20,0,0,"$GNGGA,023248.000,4900.5121,N,00825.4519,E,0,2,,106.8,M,47.9,M,,*59",,,,
2022-01-14T03:33:12+01:00,296,36.21,17.44,1023.07,114.10,119.90,0,0,"$GNGGA,023308.000,4900.5124,N,00825.4514,E,0,2,,106.7,M,47.9,M,,*5B",,,,
2022-01-14T03:33:33+01:00,297,36.19,17.44,1023.08,113.70,119.40,0,0,"$GNGGA,023329.000,4900.5125,N,00825.4509,E,1,3,3.38,106.5,M,47.9,M,,*41",,,,
2022-01-14T03:33:54+01:00,298,36.17,17.47,1023.07,112.00,117.70,0,0,"$GNGGA,023349.000,4900.5125,N,00825.4511,E,1,3,3.38,106.5,M,47.9,M,,*4E",,,,
2022-01-14T03:34:13+01:00,299,36.16,17.48,1023.06,109.00,114.50,0,0,"$GNGGA,023409.000,4900.5122,N,00825.4511,E,1,3,3.39,106.5,M,47.9,M,,*4B",,,,
2022-01-14T03:34:34+01:00,300,36.14,17.49,1023.06,110.20,115.80,0,0,"$GNGGA,023430.000,4900.5242,N,00825.4255,E,1,3,3.39,105.7,M,47.9,M,,*42",,,,
2022-01-14T03:34:54+01:00,301,36.12,17.51,1023.05,112.30,118.00,0,0,"$GNGGA,023450.000,4900.5327,N,00825.4201,E,1,3,3.39,103.1,M,47.9,M,,*47",,,,
2022-01-14T03:35:15+01:00,302,36.10,17.53,1023.05,116.30,122.20,0,0,"$GNGGA,023510.000,4900.5215,N,00825.4538,E,1,3,3.40,101.5,M,47.9,M,,*47",,,,
2022-01-14T03:35:35+01:00,303,36.08,17.56,1023.04,120.70,126.80,0,0,"$GNGGA,023531.000,4900.5156,N,00825.4498,E,1,3,3.40,98.7,M,47.9,M,,*78",,,,
2022-01-14T03:35:56+01:00,304,36.06,17.58,1023.03,122.70,128.90,0,0,"$GNGGA,023551.000,4900.5153,N,00825.4491,E,1,3,3.41,98.6,M,47.9,M,,*72",,,,
2022-01-14T03:36:16+01:00,305,36.04,17.60,1023.01,120.10,126.20,0,0,"$GNGGA,023611.000,4900.5129,N,00825.4387,E,1,3,3.41,97.8,M,47.9,M,,*79",,,,
2022-01-14T03:36:37+01:00,306,36.02,17.62,1023.01,115.20,121.00,0,0,"$GNGGA,023632.000,4900.5171,N,00825.4187,E,1,3,3.42,95.0,M,47.9,M,,*7E",,,,
2022-01-14T03:36:56+01:00,307,36.00,17.64,1023.01,115.00,120.80,0,0,"$GNGGA,023652.000,4900.5177,N,00825.4251,E,0,2,,91.3,M,47.9,M,,*6A",,,,
2022-01-14T03:37:17+01:00,308,35.98,17.64,1023.01,114.30,120.10,0,0,"$GNGGA,023712.000,4900.5172,N,00825.4251,E,6,2,99.99,90.4,M,47.9,M,,*44",,,,
2022-01-14T03:37:38+01:00,309,35.95,17.66,1023.00,114.40,120.20,0,0,"$GNGGA,023733.000,4900.5173,N,00825.4253,E,6,2,99.99,90.3,M,47.9,M,,*43",,,,
2022-01-14T03:37:58+01:00,310,35.93,17.67,1022.99,111.00,116.60,0,0,"$GNGGA,023753.000,4900.5156,N,00825.4256,E,1,3,3.44,90.2,M,47.9,M,,*73",,,,
2022-01-14T03:38:17+01:00,311,35.91,17.68,1022.99,112.70,118.40,0,0,"$GNGGA,023813.000,4900.5133,N,00825.4228,E,1,3,3.45,88.8,M,47.9,M,,*70",,,,
2022-01-14T03:38:38+01:00,312,35.89,17.70,1022.98,110.90,116.50,0,0,"$GNGGA,023834.000,4900.5104,N,00825.4432,E,1,3,3.45,86.0,M,47.9,M,,*7A",,,,
2022-01-14T03:38:58+01:00,313,35.87,17.73,1022.99,107.30,112.70,0,0,"$GNGGA,023854.000,4900.5000,N,00825.4465,E,1,3,3.46,81.9,M,47.9,M,,*76",,,,
2022-01-14T03:39:18+01:00,314,35.85,17.75,1022.99,104.50,109.80,0,0,"$GNGGA,023914.000,4900.5087,N,00825.4470,E,1,3,3.46,76.2,M,47.9,M,,*7B",,,,
2022-01-14T03:39:39+01:00,315,35.82,17.77,1022.99,107.10,112.50,0,0,"$GNGGA,023935.000,4900.5123,N,00825.4416,E,1,3,3.47,69.3,M,47.9,M,,*79",,,,
2022-01-14T03:39:59+01:00,316,35.80,17.79,1023.00,113.80,119.50,0,0,"$GNGGA,023955.000,4900.5106,N,00825.4190,E,1,3,3.48,64.0,M,47.9,M,,*72",,,,
2022-01-14T03:40:20+01:00,317,35.77,17.80,1023.00,115.10,120.90,0,0,"$GNGGA,024015.000,4900.5132,N,00825.4352,E,1,3,3.48,57.6,M,47.9,M,,*75",,,,
2022-01-14T03:40:40+01:00,318,35.75,17.83,1023.01,114.70,120.50,0,0,"$GNGGA,024036.000,4900.5219,N,00825.4492,E,1,3,3.49,50.1,M,47.9,M,,*74",,,,
2022-01-14T03:41:01+01:00,319,35.72,17.86,1023.01,113.10,118.80,0,0,"$GNGGA,024056.000,4900.5111,N,00825.4143,E,1,3,3.49,43.0,M,47.9,M,,*73",,,,
2022-01-14T03:41:21+01:00,320,35.70,17.89,1023.02,118.70,124.70,0,0,"$GNGGA,024116.000,4900.4970,N,00825.3894,E,1,3,3.50,36.4,M,47.9,M,,*72",,,,
2022-01-14T03:41:41+01:00,321,35.67,17.91,1023.02,118.50,124.50,0,0,"$GNGGA,024137.000,4900.5057,N,00825.4066,E,1,3,3.51,30.4,M,47.9,M,,*79",,,,
2022-01-14T03:42:01+01:00,322,35.64,17.93,1023.01,114.70,120.50,0,0,"$GNGGA,024157.000,4900.5051,N,00825.3908,E,1,3,3.51,25.2,M,47.9,M,,*7D",,,,
2022-01-14T03:42:22+01:00,323,35.61,17.94,1023.01,109.80,115.30,0,0,"$GNGGA,024217.000,4900.5015,N,00825.3756,E,1,3,3.52,20.0,M,47.9,M,,*7B",,,,
2022-01-14T03:42:42+01:00,324,35.59,17.94,1023.01,106.70,112.10,0,0,"$GNGGA,024238.000,4900.4999,N,00825.3800,E,1,3,3.52,15.0,M,47.9,M,,*70",,,,
2022-01-14T03:43:02+01:00,325,35.56,17.96,1023.00,106.90,112.30,0,0,"$GNGGA,024258.000,4900.5016,N,00825.3904,E,1,3,3.53,10.7,M,47.9,M,,*7F",,,,
2022-01-14T03:43:22+01:00,326,35.54,18.01,1023.00,107.00,112.40,0,0,"$GNGGA,024318.000,4900.5002,N,00825.3923,E,1,3,3.54,10.4,M,47.9,M,,*7E",,,,
2022-01-14T03:43:43+01:00,327,35.52,18.02,1023.00,109.30,114.80,0,0,"$GNGGA,024339.000,4900.4960,N,00825.3768,E,1,3,3.54,9.5,M,47.9,M,,*49",,,,
2022-01-14T03:44:03+01:00,328,35.49,18.05,1022.99,110.30,115.90,0,0,"$GNGGA,024359.000,4900.4972,N,00825.3801,E,1,3,3.55,9.1,M,47.9,M,,*49",,,,
2022-01-14T03:44:23+01:00,329,35.47,18.01,1022.99,114.90,120.70,0,0,"$GNGGA,024419.000,4900.4992,N,00825.3844,E,1,3,3.56,8.5,M,47.9,M,,*43",,,,
2022-01-14T03:44:44+01:00,330,35.45,18.04,1022.99,114.00,119.80,0,0,"$GNGGA,024440.000,4900.5013,N,00825.3870,E,1,3,3.57,7.2,M,47.9,M,,*40",,,,
2022-01-14T03:45:05+01:00,331,35.43,18.09,1022.99,113.00,118.70,0,0,"$GNGGA,024500.000,4900.5027,N,00825.4098,E,1,3,3.57,5.5,M,47.9,M,,*4E",,,,
2022-01-14T03:45:24+01:00,332,35.40,18.13,1022.99,111.80,117.40,0,0,"$GNGGA,024520.000,4900.5044,N,00825.3999,E,1,3,3.58,3.8,M,47.9,M,,*42",,,,
2022-01-14T03:45:46+01:00,333,35.38,18.17,1022.98,116.90,122.80,0,0,"$GNGGA,024541.000,4900.4963,N,00825.3668,E,1,3,3.59,1.7,M,47.9,M,,*45",,,,
2022-01-14T03:46:06+01:00,334,35.35,18.17,1022.98,119.20,125.20,0,0,"$GNGGA,024601.000,4900.4963,N,00825.3742,E,1,3,3.60,-0.8,M,47.9,M,,*62",,,,
2022-01-14T03:46:26+01:00,335,35.32,18.19,1022.98,115.30,121.10,0,0,"$GNGGA,024621.000,4900.5004,N,00825.4013,E,1,3,3.61,-3.6,M,47.9,M,,*61",,,,
2022-01-14T03:46:47+01:00,336,35.30,18.24,1022.98,109.60,115.10,0,0,"$GNGGA,024642.000,4900.5025,N,00825.3934,E,1,3,3.61,-6.5,M,47.9,M,,*6A",,,,
2022-01-14T03:47:07+01:00,337,35.27,18.27,1022.99,110.70,116.30,0,0,"$GNGGA,024702.000,4900.5020,N,00825.3879,E,1,3,3.62,-7.3,M,47.9,M,,*66",,,,
2022-01-14T03:47:27+01:00,338,35.25,18.28,1022.98,114.90,120.70,0,0,"$GNGGA,024722.000,4900.4956,N,00825.3848,E,1,3,3.63,-7.7,M,47.9,M,,*6A",,,,
2022-01-14T03:47:48+01:00,339,35.22,18.30,1022.99,114.60,120.40,0,0,"$GNGGA,024743.000,4900.4941,N,00825.3759,E,1,3,3.64,-8.6,M,47.9,M,,*6D",,,,
2022-01-14T03:48:08+01:00,340,35.19,18.30,1022.99,113.20,118.90,0,0,"$GNGGA,024803.000,4900.4935,N,00825.3789,E,1,3,3.65,-9.6,M,47.9,M,,*68",,,,
2022-01-14T03:48:28+01:00,341,35.17,18.33,1022.99,114.60,120.40,0,0,"$GNGGA,024824.000,4900.4975,N,00825.3822,E,1,3,3.66,-11.1,M,47.9,M,,*5A",,,,
2022-01-14T03:48:49+01:00,342,35.14,18.33,1022.98,114.60,120.40,0,0,"$GNGGA,024844.000,4900.4976,N,00825.3857,E,1,3,3.67,-12.2,M,47.9,M,,*5C",,,,
2022-01-14T03:49:09+01:00,343,35.12,18.35,1022.98,109.60,115.10,0,0,"$GNGGA,024904.000,4900.5273,N,00825.4824,E,1,4,2.66,149.8,M,47.9,M,,*4A",,,,
2022-01-14T03:49:30+01:00,344,35.10,18.38,1022.97,105.30,110.60,0,0,"$GNGGA,024925.000,4900.5274,N,00825.4782,E,1,4,2.67,150.0,M,47.9,M,,*4C",,,,
2022-01-14T03:49:50+01:00,345,35.07,18.40,1022.96,110.30,115.90,0,0,"$GNGGA,024945.000,4900.5262,N,00825.4752,E,1,4,9.74,149.9,M,47.9,M,,*48",,,,
2022-01-14T03:50:10+01:00,346,35.05,18.42,1022.95,114.80,120.60,0,0,"$GNGGA,025005.000,4900.5255,N,00825.4603,E,1,4,2.68,149.7,M,47.9,M,,*4D",,,,
2022-01-14T03:50:31+01:00,347,35.02,18.45,1022.94,114.00,119.80,0,0,"$GNGGA,025026.000,4900.5273,N,00825.4635,E,1,4,2.69,150.0,M,47.9,M,,*43",,,,
2022-01-14T03:50:51+01:00,348,34.99,18.46,1022.94,109.30,114.80,0,0,"$GNGGA,025046.000,4900.5310,N,00825.4725,E,1,4,2.69,150.7,M,47.9,M,,*46",,,,
2022-01-14T03:51:11+01:00,349,34.97,18.51,1022.94,109.30,114.80,0,0,"$GNGGA,025106.000,4900.5292,N,00825.4744,E,1,4,2.70,151.0,M,47.9,M,,*41",,,,
2022-01-14T03:51:32+01:00,350,34.94,18.54,1022.93,112.90,118.60,0,0,"$GNGGA,025127.000,4900.5274,N,00825.4734,E,1,4,2.71,151.6,M,47.9,M,,*4A",,,,
2022-01-14T03:51:52+01:00,351,34.92,18.56,1022.93,114.80,120.60,0,0,"$GNGGA,025147.000,4900.5291,N,00825.4723,E,1,4,2.71,152.1,M,47.9,M,,*45",,,,
2022-01-14T03:52:12+01:00,352,34.89,18.56,1022.92,116.20,122.10,0,0,"$GNGGA,025207.000,4900.5295,N,00825.4758,E,1,4,2.72,152.3,M,47.9,M,,*4B",,,,
2022-01-14T03:52:33+01:00,353,34.87,18.59,1022.91,117.00,122.90,0,0,"$GNGGA,025228.000,4900.5270,N,00825.4794,E,1,4,2.73,152.4,M,47.9,M,,*4B",,,,
2022-01-14T03:52:53+01:00,354,34.84,18.61,1022.91,118.40,124.40,0,0,"$GNGGA,025248.000,4900.5266,N,00825.4637,E,1,4,2.73,152.6,M,47.9,M,,*40",,,,
2022-01-14T03:53:13+01:00,355,34.82,18.65,1022.91,117.20,123.10,0,0,"$GNGGA,025308.000,4900.5304,N,00825.4677,E,1,4,2.74,154.5,M,47.9,M,,*46",,,,
2022-01-14T03:53:34+01:00,356,34.79,18.69,1022.91,117.10,123.00,0,0,"$GNGGA,025329.000,4900.5267,N,00825.4629,E,1,4,2.75,152.9,M,47.9,M,,*41",,,,
2022-01-14T03:53:53+01:00,357,34.77,18.71,1022.91,115.70,121.50,0,0,"$GNGGA,025349.000,4900.5258,N,00825.4621,E,1,4,2.76,153.1,M,47.9,M,,*49",,,,
2022-01-14T03:54:13+01:00,358,34.74,18.74,1022.90,116.60,122.50,0,0,"$GNGGA,025409.000,4900.5268,N,00825.4691,E,1,3,3.83,153.6,M,47.9,M,,*49",,,,
2022-01-14T03:54:35+01:00,359,34.72,18.75,1022.89,115.80,121.60,0,0,"$GNGGA,025430.000,4900.5282,N,00825.4702,E,1,3,3.84,154.0,M,47.9,M,,*4A",,,,
2022-01-14T03:54:55+01:00,360,34.69,18.77,1022.89,119.10,125.10,0,0,"$GNGGA,025450.000,4900.5284,N,00825.4541,E,1,4,2.78,154.1,M,47.9,M,,*4B",,,,
2022-01-14T03:55:15+01:00,361,34.67,18.78,1022.88,113.60,119.30,0,0,"$GNGGA,025510.000,4900.5234,N,00825.4729,E,1,4,2.79,154.1,M,47.9,M,,*48",,,,
2022-01-14T03:55:36+01:00,362,34.64,18.78,1022.87,112.30,118.00,0,0,"$GNGGA,025531.000,4900.5280,N,00825.4736,E,1,4,2.80,154.1,M,47.9,M,,*4C",,,,
2022-01-14T03:55:56+01:00,363,34.62,18.81,1022.86,111.20,116.80,0,0,"$GNGGA,025551.000,4900.5319,N,00825.4749,E,1,4,2.80,153.8,M,47.9,M,,*4D",,,,
2022-01-14T03:56:15+01:00,364,34.59,18.83,1022.86,115.70,121.50,0,0,"$GNGGA,025611.000,4900.5321,N,00825.4550,E,6,2,99.99,153.7,M,47.9,M,,*7F",,,,
2022-01-14T03:56:37+01:00,365,34.57,18.86,1022.86,118.30,124.30,0,0,"$GNGGA,025632.000,4900.5620,N,00825.3880,E,1,3,4.29,153.6,M,47.9,M,,*45",,,,
2022-01-14T03:56:57+01:00,366,34.51,18.94,1022.85,118.30,124.30,0,0,"$GNGGA,025652.000,4900.5263,N,00825.4332,E,1,4,2.83,154.5,M,47.9,M,,*40",,,,
2022-01-14T03:57:17+01:00,367,34.39,19.11,1022.82,120.30,126.40,0,0,"$GNGGA,025712.000,4900.5226,N,00825.4885,E,1,4,2.84,153.1,M,47.9,M,,*47",,,,
2022-01-14T03:57:38+01:00,368,34.25,19.28,1022.82,120.10,126.20,0,0,"$GNGGA,025733.000,4900.5324,N,00825.4535,E,1,4,2.85,149.7,M,47.9,M,,*4D",,,,
2022-01-14T03:58:00+01:00,369,34.09,19.49,1022.80,123.40,129.60,0,0,"$GNGGA,025755.000,4900.5334,N,00825.4444,E,1,4,2.86,145.2,M,47.9,M,,*41",,,,
2022-01-14T03:58:20+01:00,370,33.93,19.62,1022.79,125.20,131.50,0,0,"$GNGGA,025815.000,4900.5267,N,00825.4498,E,1,4,6.04,140.0,M,47.9,M,,*45",,,,
2022-01-14T03:58:41+01:00,371,33.78,19.75,1022.78,123.00,129.20,0,0,"$GNGGA,025836.000,4900.5336,N,00825.4213,E,1,3,3.99,138.4,M,47.9,M,,*49",,,,
2022-01-14T03:59:01+01:00,372,33.63,19.93,1022.77,118.30,124.30,0,0,"$GNGGA,025856.000,4900.5166,N,00825.4792,E,1,4,2.88,136.4,M,47.9,M,,*4C",,,,
2022-01-14T03:59:21+01:00,373,33.49,20.03,1022.78,111.30,116.90,0,0,"$GNGGA,025916.000,4900.5149,N,00825.4954,E,1,4,2.89,134.2,M,47.9,M,,*45",,,,
2022-01-14T03:59:42+01:00,374,33.37,20.08,1022.78,110.10,115.70,0,0,"$GNGGA,025937.000,4900.5158,N,00825.4846,E,1,4,2.90,131.9,M,47.9,M,,*42",,,,
2022-01-14T04:00:02+01:00,375,33.25,20.19,1022.77,110.40,116.00,0,0,"$GNGGA,025957.000,4900.5156,N,00825.4642,E,1,4,2.91,129.3,M,47.9,M,,*42",,,,
2022-01-14T04:00:22+01:00,376,33.14,20.28,1022.76,115.10,120.90,0,0,"$GNGGA,030017.000,4900.5136,N,00825.4723,E,1,4,5.58,125.2,M,47.9,M,,*44",,,,
2022-01-14T04:00:43+01:00,377,33.04,20.33,1022.76,119.40,125.40,0,0,"$GNGGA,030038.000,4900.5110,N,00825.4771,E,1,4,2.93,121.0,M,47.9,M,,*4C",,,,
2022-01-14T04:01:03+01:00,378,32.95,20.42,1022.77,124.20,130.50,0,0,"$GNGGA,030058.000,4900.5122,N,00825.4836,E,1,4,2.94,117.5,M,47.9,M,,*40",,,,
2022-01-14T04:01:23+01:00,379,32.87,20.45,1022.76,127.80,134.20,0,0,"$GNGGA,030118.000,4900.5166,N,00825.4667,E,1,4,2.95,115.7,M,47.9,M,,*4E",,,,
2022-01-14T04:01:44+01:00,380,32.80,20.49,1022.75,123.50,129.70,0,0,"$GNGGA,030139.000,4900.5117,N,00825.4683,E,1,4,2.96,115.4,M,47.9,M,,*41",,,,
2022-01-14T04:02:04+01:00,381,32.73,20.55,1022.75,117.50,123.40,0,0,"$GNGGA,030159.000,4900.5102,N,00825.4980,E,1,4,2.97,114.6,M,47.9,M,,*4D",,,,
2022-01-14T04:02:24+01:00,382,32.67,20.57,1022.75,110.90,116.50,0,0,"$GNGGA,030219.000,4900.5157,N,00825.4867,E,1,4,2.98,113.1,M,47.9,M,,*4D",,,,
2022-01-14T04:02:45+01:00,383,32.61,20.61,1022.75,109.90,115.40,0,0,"$GNGGA,030240.000,4900.5156,N,00825.4652,E,1,4,2.99,112.6,M,47.9,M,,*4F",,,,
2022-01-14T04:03:05+01:00,384,32.55,20.70,1022.74,110.80,116.40,0,0,"$GNGGA,030300.000,4900.5061,N,00825.4648,E,1,4,3.00,111.8,M,47.9,M,,*48",,,,
2022-01-14T04:03:25+01:00,385,32.50,20.75,1022.73,114.00,119.80,0,0,"$GNGGA,030320.000,4900.5117,N,00825.4644,E,1,4,3.02,110.6,M,47.9,M,,*4B",,,,
2022-01-14T04:03:45+01:00,386,32.45,20.80,1022.72,117.40,123.30,0,0,"$GNGGA,030341.000,4900.5132,N,00825.4610,E,1,4,3.03,110.0,M,47.9,M,,*4D",,,,
2022-01-14T04:04:06+01:00,387,32.40,20.86,1022.72,122.00,128.20,0,0,"$GNGGA,030401.000,4900.5171,N,00825.4481,E,1,4,3.04,111.5,M,47.9,M,,*40",,,,
2022-01-14T04:04:26+01:00,388,32.35,20.93,1022.72,121.70,127.80,0,0,"$GNGGA,030422.000,4900.5177,N,00825.4397,E,1,4,3.05,114.5,M,47.9,M,,*43",,,,
2022-01-14T04:04:47+01:00,389,32.31,20.95,1022.71,119.50,125.50,0,0,"$GNGGA,030443.000,4900.5120,N,00825.4601,E,1,4,3.06,114.2,M,47.9,M,,*48",,,,
2022-01-14T04:05:07+01:00,390,32.27,20.96,1022.70,112.20,117.90,0,0,"$GNGGA,030503.000,4900.5112,N,00825.4973,E,1,4,3.07,113.7,M,47.9,M,,*45",,,,
2022-01-14T04:05:28+01:00,391,32.23,20.98,1022.69,109.00,114.50,0,0,"$GNGGA,030523.000,4900.5087,N,00825.4961,E,1,4,3.09,113.0,M,47.9,M,,*40",,,,
2022-01-14T04:05:49+01:00,392,32.19,21.02,1022.68,112.70,118.40,0,0,"$GNGGA,030544.000,4900.5133,N,00825.4740,E,1,4,3.10,113.8,M,47.9,M,,*42",,,,
2022-01-14T04:06:08+01:00,393,32.16,21.07,1022.68,118.00,124.00,0,0,"$GNGGA,030604.000,4900.5193,N,00825.4505,E,1,4,3.11,114.8,M,47.9,M,,*4A",,,,
2022-01-14T04:06:28+01:00,394,32.13,21.11,1022.67,122.60,128.80,0,0,"$GNGGA,030624.000,4900.5227,N,00825.4281,E,1,3,4.64,114.6,M,47.9,M,,*43",,,,
2022-01-14T04:06:50+01:00,395,32.10,21.14,1022.67,122.60,128.80,0,0,"$GNGGA,030645.000,4900.5137,N,00825.4403,E,1,4,3.13,113.6,M,47.9,M,,*4D",,,,
2022-01-14T04:07:10+01:00,396,32.08,21.15,1022.65,122.10,128.30,0,0,"$GNGGA,030705.000,4900.5246,N,00825.4435,E,1,4,3.15,113.9,M,47.9,M,,*41",,,,
2022-01-14T04:07:30+01:00,397,32.06,21.18,1022.64,121.50,127.60,0,0,"$GNGGA,030725.000,4900.5195,N,00825.4432,E,1,4,3.16,115.0,M,47.9,M,,*45",,,,
2022-01-14T04:07:50+01:00,398,32.03,21.18,1022.64,121.60,127.70,0,0,"$GNGGA,030746.000,4900.5134,N,00825.4540,E,1,4,3.17,116.5,M,47.9,M,,*48",,,,
2022-01-14T04:08:10+01:00,399,32.01,21.22,1022.62,122.60,128.80,0,0,"$GNGGA,030806.000,4900.5032,N,00825.4837,E,1,4,3.19,112.2,M,47.9,M,,*44",,,,
2022-01-14T04:08:31+01:00,400,31.98,21.25,1022.62,120.80,126.90,0,0,"$GNGGA,030826.000,4900.5090,N,00825.4601,E,1,4,3.20,111.2,M,47.9,M,,*4C",,,,
2022-01-14T04:08:52+01:00,401,31.96,21.29,1022.61,115.00,120.80,0,0,"$GNGGA,030847.000,4900.5230,N,00825.4512,E,1,4,4.49,115.0,M,47.9,M,,*4C",,,,
2022-01-14T04:09:12+01:00,402,31.93,21.30,1022.60,113.20,118.90,0,0,"$GNGGA,030907.000,4900.5212,N,00825.4444,E,1,4,3.23,118.3,M,47.9,M,,*4E",,,,
2022-01-14T04:09:32+01:00,403,31.90,21.34,1022.60,118.80,124.80,0,0,"$GNGGA,030927.000,4900.5242,N,00825.4472,E,1,4,3.24,119.8,M,47.9,M,,*41",,,,
2022-01-14T04:09:53+01:00,404,31.87,21.37,1022.60,125.80,132.10,0,0,"$GNGGA,030948.000,4900.5278,N,00825.4457,E,1,4,3.26,121.8,M,47.9,M,,*4F",,,,
2022-01-14T04:10:13+01:00,405,31.85,21.37,1022.59,124.90,131.20,0,0,"$GNGGA,031008.000,4900.5261,N,00825.4644,E,1,4,3.27,124.3,M,47.9,M,,*44",,,,
2022-01-14T04:10:33+01:00,406,31.83,21.41,1022.58,118.80,124.80,0,0,"$GNGGA,031028.000,4900.5278,N,00825.4468,E,1,4,3.29,125.5,M,47.9,M,,*4B",,,,
2022-01-14T04:10:53+01:00,407,31.80,21.44,1022.57,112.40,118.10,0,0,"$GNGGA,031049.000,4900.5261,N,00825.4452,E,1,4,3.30,125.9,M,47.9,M,,*49",,,,
2022-01-14T04:11:14+01:00,408,31.78,21.45,1022.56,108.80,114.30,0,0,"$GNGGA,031109.000,4900.5202,N,00825.4491,E,1,4,3.31,122.5,M,47.9,M,,*4C",,,,
2022-01-14T04:11:34+01:00,409,31.76,21.44,1022.56,111.70,117.30,0,0,"$GNGGA,031129.000,4900.5169,N,00825.4369,E,1,4,3.33,121.3,M,47.9,M,,*47",,,,
2022-01-14T04:11:55+01:00,410,31.74,21.47,1022.54,118.80,124.80,0,0,"$GNGGA,031150.000,4900.5156,N,00825.4503,E,1,4,3.34,118.2,M,47.9,M,,*43",,,,
2022-01-14T04:12:15+01:00,411,31.72,21.52,1022.54,120.90,127.00,0,0,"$GNGGA,031210.000,4900.5199,N,00825.4547,E,1,4,3.36,115.7,M,47.9,M,,*4D",,,,
2022-01-14T04:12:35+01:00,412,31.70,21.54,1022.54,115.40,121.20,0,0,"$GNGGA,031230.000,4900.5208,N,00825.4638,E,1,4,3.38,116.1,M,47.9,M,,*44",,,,
2022-01-14T04:12:56+01:00,413,31.68,21.53,1022.53,108.00,113.50,0,0,"$GNGGA,031251.000,4900.5149,N,00825.4726,E,1,4,3.39,116.2,M,47.9,M,,*49",,,,
2022-01-14T04:13:16+01:00,414,31.66,21.53,1022.53,106.60,112.00,0,0,"$GNGGA,031311.000,4900.5215,N,00825.4518,E,1,4,3.41,113.9,M,47.9,M,,*48",,,,
2022-01-14T04:13:35+01:00,415,31.65,21.56,1022.53,106.90,112.30,0,0,"$GNGGA,031331.000,4900.5170,N,00825.4570,E,1,4,3.42,114.0,M,47.9,M,,*49",,,,
2022-01-14T04:13:55+01:00,416,31.64,21.60,1022.52,107.60,113.00,0,0,"$GNGGA,031351.000,4900.5177,N,00825.4593,E,1,4,3.44,116.8,M,47.9,M,,*49",,,,
2022-01-14T04:14:16+01:00,417,31.63,21.60,1022.52,108.10,113.60,0,0,"$GNGGA,031411.000,4900.5157,N,00825.4607,E,1,4,3.46,118.9,M,47.9,M,,*4B",,,,
2022-01-14T04:14:36+01:00,418,31.62,21.59,1022.52,107.80,113.20,0,0,"$GNGGA,031431.000,4900.5147,N,00825.4766,E,1,4,3.47,119.7,M,47.9,M,,*40",,,,
