created_at,entry_id,field1,field2,field3,field4,field5,field6,field7,field8,latitude,longitude,elevation,status
2022-03-09T20:29:20+01:00,1,22.08,19.77,1011.23,42.10,44.30,0,-127.00,"$GNGGA,192916.093,4900.5677,N,00824.8317,E,0,0,,150.0,M,47.9,M,,*50",,,,
2022-03-09T20:29:41+01:00,2,21.86,18.92,1011.25,40.90,43.00,0,-127.00,"$GNGGA,192936.302,4900.5677,N,00824.8317,E,0,0,,150.0,M,47.9,M,,*59",,,,
2022-03-09T20:30:01+01:00,3,21.65,17.60,1011.27,42.80,45.00,0,-127.00,"$GNGGA,192956.302,5117.3001,N,00854.6114,E,0,1,,3692.7,M,47.7,M,,*6B",,,,
2022-03-09T20:30:22+01:00,4,21.45,17.05,1011.28,42.80,45.00,0,-127.00,"$GNGGA,193017.296,4900.7936,N,00824.8798,E,0,1,,150.0,M,47.9,M,,*54",,,,
2022-03-09T20:30:42+01:00,5,21.29,16.91,1011.29,44.70,47.00,0,-127.00,"$GNGGA,193037.296,4900.5677,N,00824.8317,E,0,1,,150.0,M,47.9,M,,*5D",,,,
2022-03-09T20:31:02+01:00,6,21.18,16.94,1011.29,45.00,47.30,0,-127.00,"$GNGGA,193057.296,4900.4221,N,00824.8720,E,0,2,,149.9,M,47.9,M,,*5F",,,,
2022-03-09T20:31:23+01:00,7,21.06,16.94,1011.29,44.50,46.80,0,-127.00,"$GNGGA,193118.296,4900.4227,N,00824.8689,E,0,2,,149.9,M,47.9,M,,*51",,,,
2022-03-09T20:31:43+01:00,8,21.00,17.20,1011.29,44.50,46.80,0,-127.00,"$GNGGA,193138.295,4900.4242,N,00824.8683,E,0,2,,149.9,M,47.9,M,,*59",,,,
2022-03-09T20:32:04+01:00,9,20.98,17.30,1011.29,44.10,46.40,0,-127.00,"$GNGGA,193159.092,4900.4842,N,00825.4234,E,0,3,,150.0,M,47.9,M,,*54",,,,
2022-03-09T20:32:24+01:00,10,20.98,17.94,1011.28,44.40,46.70,0,-127.00,"$GNGGA,193219.097,4900.4974,N,00825.4651,E,0,3,,150.0,M,47.9,M,,*55",,,,
2022-03-09T20:32:45+01:00,11,21.02,18.75,1011.27,44.70,47.00,0,-127.00,"$GNGGA,193240.000,4900.4823,N,00825.4090,E,1,5,1.46,148.6,M,47.9,M,,*4A",,,,
2022-03-09T20:33:05+01:00,12,21.07,19.37,1011.27,43.50,45.70,0,-127.00,"$GNGGA,193300.000,4900.4829,N,00825.4125,E,1,5,1.46,141.4,M,47.9,M,,*41",,,,
2022-03-09T20:33:26+01:00,13,21.13,19.68,1011.27,43.10,45.30,0,-127.00,"$GNGGA,193321.000,4900.4807,N,00825.4120,E,1,6,1.31,156.8,M,47.9,M,,*42",,,,
2022-03-09T20:33:46+01:00,14,21.02,17.64,1011.27,43.70,45.90,0,-127.00,"$GNGGA,193341.000,4900.4877,N,00825.4115,E,1,6,1.52,164.4,M,47.9,M,,*4D",,,,
2022-03-09T20:34:06+01:00,15,20.76,16.94,1011.26,46.50,48.90,0,-127.00,"$GNGGA,193401.000,4900.4984,N,00825.4107,E,1,6,1.31,161.7,M,47.9,M,,*43",,,,
2022-03-09T20:34:27+01:00,16,20.38,17.05,1011.25,47.50,49.90,0,-127.00,"$GNGGA,193422.000,4900.5126,N,00825.4117,E,1,6,1.51,159.8,M,47.9,M,,*40",,,,
2022-03-09T20:34:47+01:00,17,19.86,17.43,1011.26,46.80,49.20,0,-127.00,"$GNGGA,193442.000,4900.5260,N,00825.4077,E,1,6,1.52,155.7,M,47.9,M,,*40",,,,
2022-03-09T20:35:07+01:00,18,19.32,18.05,1011.24,45.80,48.10,0,-127.00,"$GNGGA,193502.000,4900.5348,N,00825.4084,E,1,6,1.31,153.2,M,47.9,M,,*44",,,,
2022-03-09T20:35:28+01:00,19,18.85,18.53,1011.24,44.00,46.30,0,-127.00,"$GNGGA,193523.000,4900.5479,N,00825.4045,E,1,6,1.31,149.1,M,47.9,M,,*47",,,,
2022-03-09T20:35:48+01:00,20,18.34,18.97,1011.23,43.60,45.80,0,-127.00,"$GNGGA,193543.000,4900.5629,N,00825.4166,E,1,6,1.30,141.4,M,47.9,M,,*4A",,,,
2022-03-09T20:36:08+01:00,21,17.90,19.36,1011.23,42.20,44.40,0,-127.00,"$GNGGA,193603.000,4900.5693,N,00825.4088,E,1,6,1.30,135.8,M,47.9,M,,*42",,,,
2022-03-09T20:36:29+01:00,22,17.50,19.72,1011.24,41.70,43.80,0,-127.00,"$GNGGA,193624.000,4900.5811,N,00825.3976,E,1,6,1.30,135.9,M,47.9,M,,*4D",,,,
2022-03-09T20:36:49+01:00,23,17.15,20.05,1011.25,41.90,44.00,0,-127.00,"$GNGGA,193644.000,4900.5970,N,00825.4052,E,1,6,1.30,134.4,M,47.9,M,,*49",,,,
2022-03-09T20:37:10+01:00,24,16.81,20.35,1011.24,44.30,46.60,0,-127.00,"$GNGGA,193705.000,4900.6071,N,00825.3962,E,1,6,1.30,135.2,M,47.9,M,,*4C",,,,
2022-03-09T20:37:31+01:00,25,16.59,20.59,1011.24,47.20,49.60,0,-127.00,"$GNGGA,193726.000,4900.6180,N,00825.3958,E,1,6,1.30,136.8,M,47.9,M,,*42",,,,
2022-03-09T20:37:51+01:00,26,16.33,20.71,1011.24,47.80,50.20,0,-127.00,"$GNGGA,193746.000,4900.6267,N,00825.3903,E,1,6,1.30,136.0,M,47.9,M,,*48",,,,
2022-03-09T20:38:12+01:00,27,16.02,21.05,1011.22,45.00,47.30,0,-127.00,"$GNGGA,193807.000,4900.6449,N,00825.4007,E,1,6,1.30,135.7,M,47.9,M,,*46",,,,
2022-03-09T20:38:33+01:00,28,15.67,21.48,1011.21,41.90,44.00,0,-127.00,"$GNGGA,193828.000,4900.6552,N,00825.3952,E,1,6,1.29,133.9,M,47.9,M,,*4E",,,,
2022-03-09T20:38:54+01:00,29,15.29,22.07,1011.21,40.10,42.20,0,-127.00,"$GNGGA,193849.000,4900.6904,N,00825.4015,E,1,6,1.52,132.1,M,47.9,M,,*4E",,,,
2022-03-09T20:39:14+01:00,30,14.98,22.50,1011.21,39.90,41.90,0,-127.00,"$GNGGA,193909.000,4900.6985,N,00825.4018,E,1,6,1.29,120.3,M,47.9,M,,*42",,,,
2022-03-09T20:39:35+01:00,31,14.67,22.89,1011.20,40.30,42.40,0,-127.00,"$GNGGA,193930.000,4900.7017,N,00825.3860,E,1,6,1.29,114.6,M,47.9,M,,*49",,,,
2022-03-09T20:39:55+01:00,32,14.36,23.32,1011.20,40.40,42.50,0,-127.00,"$GNGGA,193950.000,4900.7130,N,00825.3821,E,1,6,1.51,112.7,M,47.9,M,,*46",,,,
2022-03-09T20:40:15+01:00,33,14.07,23.65,1011.20,40.30,42.40,0,-127.00,"$GNGGA,194010.000,4900.7280,N,00825.3772,E,1,6,1.29,111.9,M,47.9,M,,*4F",,,,
2022-03-09T20:40:36+01:00,34,13.84,24.07,1011.20,41.00,43.10,0,-127.00,"$GNGGA,194031.000,4900.7393,N,00825.3684,E,1,5,1.85,115.2,M,47.9,M,,*4D",,,,
2022-03-09T20:40:56+01:00,35,13.59,24.30,1011.20,41.50,43.60,0,-127.00,"$GNGGA,194051.000,4900.7572,N,00825.3732,E,1,6,1.29,111.2,M,47.9,M,,*4F",,,,
2022-03-09T20:41:17+01:00,36,13.32,24.66,1011.20,41.00,43.10,0,-127.00,"$GNGGA,194112.000,4900.7695,N,00825.3661,E,1,5,1.72,109.4,M,47.9,M,,*46",,,,
2022-03-09T20:41:38+01:00,37,13.13,25.13,1011.20,40.00,42.10,0,-127.00,"$GNGGA,194133.000,4900.7831,N,00825.3623,E,1,6,1.28,110.4,M,47.9,M,,*47",,,,
2022-03-09T20:44:09+01:00,38,13.11,26.78,1011.23,36.00,37.90,0,-127.00,"$GNGGA,194404.000,4900.8221,N,00825.2386,E,1,5,1.45,100.9,M,47.9,M,,*4D",,,,
2022-03-09T20:44:30+01:00,39,12.78,26.81,1011.24,36.70,38.60,0,-127.00,"$GNGGA,194425.000,4900.8140,N,00825.2164,E,1,6,1.32,108.8,M,47.9,M,,*4E",,,,
2022-03-09T20:44:50+01:00,40,12.46,26.91,1011.26,37.20,39.10,0,-127.00,"$GNGGA,194445.000,4900.8121,N,00825.1952,E,1,6,1.32,112.9,M,47.9,M,,*4B",,,,
2022-03-09T20:45:10+01:00,41,12.10,27.47,1011.27,38.20,40.20,0,-127.00,"$GNGGA,194505.000,4900.8132,N,00825.1735,E,1,6,1.32,115.6,M,47.9,M,,*4B",,,,
2022-03-09T20:45:31+01:00,42,11.72,28.12,1011.27,37.90,39.80,0,-127.00,"$GNGGA,194526.000,4900.8137,N,00825.1495,E,1,6,1.32,113.6,M,47.9,M,,*40",,,,
2022-03-09T20:45:51+01:00,43,11.40,28.33,1011.27,37.20,39.10,0,-127.00,"$GNGGA,194546.000,4900.8144,N,00825.1275,E,1,6,1.32,115.4,M,47.9,M,,*4E",,,,
2022-03-09T20:46:12+01:00,44,11.16,28.69,1011.27,36.80,38.70,0,-127.00,"$GNGGA,194607.000,4900.8155,N,00825.1052,E,1,6,1.32,115.0,M,47.9,M,,*4B",,,,
2022-03-09T20:46:33+01:00,45,11.01,28.69,1011.27,35.50,37.30,0,-127.00,"$GNGGA,194628.000,4900.8117,N,00825.0867,E,1,7,1.21,113.1,M,47.9,M,,*4B",,,,
2022-03-09T20:46:53+01:00,46,10.86,28.88,1011.26,34.90,36.70,0,-127.00,"$GNGGA,194648.000,4900.8065,N,00825.0681,E,1,7,1.21,114.8,M,47.9,M,,*41",,,,
2022-03-09T20:47:14+01:00,47,10.70,28.73,1011.27,34.60,36.40,0,-127.00,"$GNGGA,194709.000,4900.8095,N,00825.0467,E,1,7,1.20,117.2,M,47.9,M,,*48",,,,
2022-03-09T20:47:37+01:00,48,10.57,28.81,1011.28,36.20,38.10,0,-127.00,"$GNGGA,194730.000,4900.8107,N,00825.0231,E,1,7,1.20,114.4,M,47.9,M,,*48",,,,
2022-03-09T20:48:22+01:00,49,11.39,28.74,1011.26,60.60,82.60,0,-127.00,"$GNGGA,194818.000,4900.8219,N,00824.9668,E,0,3,,125.5,M,47.9,M,,*5A",,,,
2022-03-09T20:48:43+01:00,50,11.15,28.81,1011.26,49.90,58.30,0,-127.00,"$GNGGA,194838.000,4900.8151,N,00824.9632,E,0,4,,134.5,M,47.9,M,,*5F",,,,
2022-03-09T20:49:03+01:00,51,10.98,29.41,1011.27,36.70,38.60,0,-127.00,"$GNGGA,194858.000,4900.8039,N,00824.9578,E,0,4,,147.8,M,47.9,M,,*52",,,,
2022-03-09T20:49:23+01:00,52,10.87,29.51,1011.27,33.80,35.50,0,-127.00,"$GNGGA,194918.000,4900.7572,N,00824.9669,E,1,5,2.23,135.9,M,47.9,M,,*48",,,,
2022-03-09T20:49:44+01:00,53,10.83,29.29,1011.27,34.00,35.80,0,-127.00,"$GNGGA,194939.000,4900.7431,N,00824.9649,E,1,5,2.21,133.7,M,47.9,M,,*45",,,,
2022-03-09T20:50:04+01:00,54,10.85,29.03,1011.28,32.70,34.40,0,-127.00,"$GNGGA,194959.000,4900.7295,N,00824.9643,E,1,6,1.37,120.0,M,47.9,M,,*43",,,,
2022-03-09T20:50:25+01:00,55,10.89,28.55,1011.28,33.00,34.70,0,-127.00,"$GNGGA,195020.000,4900.7138,N,00824.9602,E,1,6,1.37,119.6,M,47.9,M,,*48",,,,
2022-03-09T20:50:45+01:00,56,10.92,28.28,1011.29,33.40,35.10,0,-127.00,"$GNGGA,195040.000,4900.6995,N,00824.9604,E,1,6,1.36,117.4,M,47.9,M,,*4B",,,,
2022-03-09T20:51:05+01:00,57,10.89,28.31,1011.27,34.10,35.90,0,-127.00,"$GNGGA,195100.000,4900.6864,N,00824.9589,E,1,6,1.36,113.5,M,47.9,M,,*42",,,,
2022-03-09T20:51:26+01:00,58,10.80,28.41,1011.27,34.50,36.30,0,-127.00,"$GNGGA,195121.000,4900.6742,N,00824.9638,E,1,6,1.36,107.1,M,47.9,M,,*42",,,,
2022-03-09T20:51:46+01:00,59,10.70,29.01,1011.26,34.40,36.20,0,-127.00,"$GNGGA,195141.000,4900.6537,N,00824.9507,E,1,6,1.36,120.0,M,47.9,M,,*4F",,,,
2022-03-09T20:52:06+01:00,60,10.63,29.42,1011.25,35.30,37.10,0,-127.00,"$GNGGA,195201.000,4900.6453,N,00824.9582,E,2,6,1.36,121.5,M,47.9,M,,*41",,,,
2022-03-09T20:52:27+01:00,61,10.61,29.53,1011.26,36.60,38.50,0,-127.00,"$GNGGA,195222.000,4900.6527,N,00824.9803,E,2,6,1.35,124.1,M,47.9,M,,*44",,,,
2022-03-09T20:52:47+01:00,62,10.58,29.16,1011.26,35.70,37.50,0,-127.00,"$GNGGA,195242.000,4900.6532,N,00825.0022,E,2,6,1.35,124.5,M,47.9,M,,*41",,,,
2022-03-09T20:53:07+01:00,63,10.43,28.83,1011.27,36.00,37.90,0,-127.00,"$GNGGA,195302.000,4900.6492,N,00825.0242,E,2,7,1.26,119.6,M,47.9,M,,*45",,,,
2022-03-09T20:53:28+01:00,64,10.25,29.01,1011.28,37.00,38.90,0,-127.00,"$GNGGA,195323.000,4900.6476,N,00825.0444,E,2,8,1.12,113.0,M,47.9,M,,*48",,,,
2022-03-09T20:53:48+01:00,65,10.13,29.35,1011.29,38.40,40.40,0,-127.00,"$GNGGA,195343.000,4900.6454,N,00825.0654,E,2,9,0.95,113.2,M,47.9,M,,*40",,,,
2022-03-09T20:54:08+01:00,66,10.16,29.41,1011.30,38.10,40.10,0,-127.00,"$GNGGA,195403.000,4900.6381,N,00825.0714,E,2,9,0.94,112.4,M,47.9,M,,*4F",,,,
2022-03-09T20:54:29+01:00,67,10.20,29.28,1011.30,37.80,39.70,0,-127.00,"$GNGGA,195424.000,4900.6314,N,00825.0879,E,2,7,1.25,112.7,M,47.9,M,,*44",,,,
2022-03-09T20:54:49+01:00,68,10.32,29.18,1011.29,36.50,38.40,0,-127.00,"$GNGGA,195444.000,4900.6195,N,00825.0896,E,2,7,1.25,112.0,M,47.9,M,,*4F",,,,
2022-03-09T20:55:09+01:00,69,10.48,28.94,1011.30,36.40,38.30,0,-127.00,"$GNGGA,195504.000,4900.6059,N,00825.0935,E,2,7,1.25,112.0,M,47.9,M,,*43",,,,
2022-03-09T20:55:30+01:00,70,10.60,28.59,1011.31,35.70,37.50,0,-127.00,"$GNGGA,195525.000,4900.5908,N,00825.0999,E,2,7,1.25,117.3,M,47.9,M,,*4E",,,,
2022-03-09T20:55:50+01:00,71,10.71,28.46,1011.33,35.20,37.00,0,-127.00,"$GNGGA,195545.000,4900.5843,N,00825.1144,E,2,7,1.24,115.8,M,47.9,M,,*47",,,,
2022-03-09T20:56:10+01:00,72,10.79,28.40,1011.33,34.90,36.70,0,-127.00,"$GNGGA,195605.000,4900.5741,N,00825.1185,E,2,7,1.20,116.4,M,47.9,M,,*4B",,,,
2022-03-09T20:56:32+01:00,73,10.82,28.29,1011.35,36.70,38.60,0,-127.00,"$GNGGA,195627.000,4900.5710,N,00825.1380,E,2,8,0.98,119.8,M,47.9,M,,*46",,,,
2022-03-09T20:56:52+01:00,74,10.88,28.36,1011.31,38.50,40.50,0,-127.00,"$GNGGA,195647.000,4900.5650,N,00825.1495,E,2,7,1.24,125.6,M,47.9,M,,*4E",,,,
2022-03-09T20:57:12+01:00,75,10.90,28.51,1011.28,39.00,41.00,0,-127.00,"$GNGGA,195707.000,4900.5498,N,00825.1531,E,2,9,0.94,130.2,M,47.9,M,,*46",,,,
2022-03-09T20:57:33+01:00,76,10.91,28.75,1011.30,37.50,39.40,0,-127.00,"$GNGGA,195728.000,4900.5492,N,00825.1725,E,2,8,1.11,125.5,M,47.9,M,,*48",,,,
2022-03-09T20:57:54+01:00,77,10.89,28.64,1011.30,39.40,41.40,0,-127.00,"$GNGGA,195749.000,4900.5559,N,00825.1990,E,2,8,1.11,119.9,M,47.9,M,,*4A",,,,
2022-03-09T20:58:14+01:00,78,10.91,28.46,1011.31,38.70,40.70,0,-127.00,"$GNGGA,195809.000,4900.5590,N,00825.2179,E,2,8,1.11,117.3,M,47.9,M,,*4C",,,,
2022-03-09T20:58:35+01:00,79,10.94,28.37,1011.33,39.10,41.10,0,-127.00,"$GNGGA,195830.000,4900.5616,N,00825.2343,E,2,7,1.27,114.7,M,47.9,M,,*4D",,,,
2022-03-09T20:58:55+01:00,80,10.99,28.39,1011.34,38.60,40.60,0,-127.00,"$GNGGA,195850.000,4900.5632,N,00825.2509,E,2,8,1.11,117.3,M,47.9,M,,*48",,,,
2022-03-09T20:59:15+01:00,81,11.03,28.55,1011.34,40.20,42.30,0,-127.00,"$GNGGA,195910.000,4900.5596,N,00825.2665,E,2,8,1.11,112.4,M,47.9,M,,*4B",,,,
2022-03-09T20:59:36+01:00,82,11.07,28.16,1011.34,40.00,42.10,0,-127.00,"$GNGGA,195931.000,4900.5610,N,00825.2852,E,2,7,1.23,108.3,M,47.9,M,,*4D",,,,
2022-03-09T20:59:56+01:00,83,11.12,27.92,1011.34,39.20,41.20,0,-127.00,"$GNGGA,195951.000,4900.5619,N,00825.3043,E,2,7,1.23,107.5,M,47.9,M,,*42",,,,
2022-03-09T21:00:16+01:00,84,11.19,27.78,1011.34,39.20,41.20,0,-127.00,"$GNGGA,200011.000,4900.5684,N,00825.3298,E,2,7,1.22,114.9,M,47.9,M,,*4F",,,,
2022-03-09T21:00:37+01:00,85,11.27,27.41,1011.34,39.50,41.50,0,-127.00,"$GNGGA,200032.000,4900.5674,N,00825.3500,E,2,8,0.98,124.9,M,47.9,M,,*4B",,,,
2022-03-09T21:00:58+01:00,86,11.31,27.17,1011.35,39.80,41.80,0,-127.00,"$GNGGA,200052.000,4900.5682,N,00825.3664,E,2,7,1.22,121.6,M,47.9,M,,*40",,,,
2022-03-09T21:01:18+01:00,87,11.34,27.09,1011.35,39.00,41.00,0,-127.00,"$GNGGA,200113.000,4900.5717,N,00825.3878,E,2,7,1.22,114.0,M,47.9,M,,*4A",,,,
2022-03-09T21:01:39+01:00,88,11.40,27.11,1011.36,38.20,40.20,0,-127.00,"$GNGGA,200134.000,4900.5697,N,00825.4080,E,2,7,1.22,115.5,M,47.9,M,,*4A",,,,
2022-03-09T21:01:59+01:00,89,11.43,26.93,1011.35,38.40,40.40,0,-127.00,"$GNGGA,200154.000,4900.5697,N,00825.4185,E,2,6,1.39,123.0,M,47.9,M,,*43",,,,
2022-03-09T21:02:20+01:00,90,11.45,26.90,1011.35,38.90,40.90,0,-127.00,"$GNGGA,200215.000,4900.5475,N,00825.4106,E,2,7,1.22,131.0,M,47.9,M,,*48",,,,
2022-03-09T21:02:41+01:00,91,11.47,26.91,1011.36,38.40,40.40,0,-127.00,"$GNGGA,200236.000,4900.5265,N,00825.4105,E,2,7,1.21,136.2,M,47.9,M,,*4B",,,,
2022-03-09T21:03:01+01:00,92,11.53,26.95,1011.34,39.90,41.90,0,-127.00,"$GNGGA,200256.000,4900.5133,N,00825.4121,E,2,7,1.21,135.7,M,47.9,M,,*4D",,,,
