created_at,entry_id,field1,field2,field3,field4,field5,field6,field7,field8,latitude,longitude,elevation,status
2022-03-04T20:24:52+01:00,50,21.31,18.65,1007.21,42,44.2,0,-127,"$GNGGA,192447.000,4900.4898,N,00825.4347,E,1,6,1.26,131.1,M,47.9,M,,*4F",,,,
2022-03-04T20:25:13+01:00,51,21.1,18.55,1007.22,39.8,41.8,0,-127,"$GNGGA,192508.000,4900.4868,N,00825.4301,E,1,5,1.99,133.4,M,47.9,M,,*48",,,,
2022-03-04T20:25:33+01:00,52,20.97,18.88,1007.23,38.6,40.6,0,-127,"$GNGGA,192528.000,4900.4868,N,00825.4265,E,1,7,1.19,135.4,M,47.9,M,,*45",,,,
2022-03-04T20:25:54+01:00,53,20.91,19.05,1007.24,36,37.9,0,-127,"$GNGGA,192549.000,4900.4843,N,00825.4282,E,1,7,1.19,139.9,M,47.9,M,,*43",,,,
2022-03-04T20:26:14+01:00,54,20.77,17.88,1007.23,36.6,38.5,0,-127,"$GNGGA,192609.000,4900.4854,N,00825.4295,E,1,6,1.37,141.5,M,47.9,M,,*4A",,,,
2022-03-04T20:26:34+01:00,55,20.67,17.47,1007.24,37,38.9,0,-127,"$GNGGA,192629.000,4900.4789,N,00825.4296,E,1,8,1.09,142.0,M,47.9,M,,*41",,,,
2022-03-04T20:26:55+01:00,56,20.54,17.28,1007.24,36.1,38,0,-127,"$GNGGA,192650.000,4900.4674,N,00825.4269,E,1,8,1.09,144.8,M,47.9,M,,*42",,,,
2022-03-04T20:27:16+01:00,57,20.38,17.22,1007.25,35.4,37.2,0,-127,"$GNGGA,192711.000,4900.4546,N,00825.4241,E,1,8,1.09,151.6,M,47.9,M,,*44",,,,
2022-03-04T20:27:36+01:00,58,20.24,17.48,1007.24,34.8,36.6,0,-127,"$GNGGA,192731.000,4900.4534,N,00825.4399,E,1,8,1.09,155.4,M,47.9,M,,*41",,,,
2022-03-04T20:27:57+01:00,59,20.21,17.77,1007.25,34.8,36.6,0,-127,"$GNGGA,192752.000,4900.4524,N,00825.4384,E,1,8,1.11,156.1,M,47.9,M,,*46",,,,
2022-03-04T20:28:17+01:00,60,20.17,17.5,1007.25,34.7,36.5,0,-127,"$GNGGA,192812.000,4900.4497,N,00825.4416,E,1,8,1.09,153.2,M,47.9,M,,*47",,,,
2022-03-04T20:28:38+01:00,61,20.13,17.55,1007.25,34.1,35.9,0,-127,"$GNGGA,192833.000,4900.4458,N,00825.4421,E,1,8,1.09,149.9,M,47.9,M,,*43",,,,
2022-03-04T20:28:59+01:00,62,19.8,17.37,1007.25,34.2,36,0,-127,"$GNGGA,192854.000,4900.4404,N,00825.4555,E,2,8,1.09,136.6,M,47.9,M,,*4D",,,,
2022-03-04T20:29:19+01:00,63,19.62,17.84,1007.25,33.4,35.1,0,-127,"$GNGGA,192914.000,4900.4321,N,00825.4589,E,2,8,1.09,132.7,M,47.9,M,,*4C",,,,
2022-03-04T20:29:39+01:00,64,19.51,18.02,1007.25,32.9,34.6,0,-127,"$GNGGA,192934.000,4900.4183,N,00825.4518,E,2,8,1.09,129.0,M,47.9,M,,*41",,,,
2022-03-04T20:30:00+01:00,65,19.36,17.94,1007.26,33,34.7,0,-127,"$GNGGA,192955.000,4900.4055,N,00825.4541,E,2,8,1.09,122.7,M,47.9,M,,*4C",,,,
2022-03-04T20:30:20+01:00,66,19.23,18.05,1007.27,34.5,36.3,0,-127,"$GNGGA,193015.000,4900.3929,N,00825.4585,E,2,8,1.09,118.7,M,47.9,M,,*44",,,,
2022-03-04T20:30:41+01:00,67,19.07,18.02,1007.27,35.2,37,0,-127,"$GNGGA,193036.000,4900.3803,N,00825.4568,E,2,7,1.29,119.6,M,47.9,M,,*42",,,,
2022-03-04T20:31:02+01:00,68,18.93,18.23,1007.28,35.4,37.2,0,-127,"$GNGGA,193057.000,4900.3647,N,00825.4536,E,2,6,1.36,128.8,M,47.9,M,,*43",,,,
2022-03-04T20:31:22+01:00,69,18.81,18.27,1007.28,35.1,36.9,0,-127,"$GNGGA,193117.000,4900.3521,N,00825.4550,E,2,7,1.29,132.1,M,47.9,M,,*48",,,,
2022-03-04T20:31:43+01:00,70,18.73,18.37,1007.28,36.3,38.2,0,-127,"$GNGGA,193138.000,4900.3409,N,00825.4617,E,2,6,1.36,127.7,M,47.9,M,,*43",,,,
2022-03-04T20:32:04+01:00,71,18.58,18.4,1007.29,36.6,38.5,0,-127,"$GNGGA,193159.000,4900.3329,N,00825.4652,E,2,6,1.36,111.5,M,47.9,M,,*47",,,,
2022-03-04T20:32:24+01:00,72,18.29,18.52,1007.29,36.9,38.8,0,-127,"$GNGGA,193219.000,4900.3201,N,00825.4649,E,2,6,1.36,107.0,M,47.9,M,,*43",,,,
2022-03-04T20:32:45+01:00,73,17.99,18.95,1007.27,35.4,37.2,0,-127,"$GNGGA,193240.000,4900.3068,N,00825.4666,E,2,6,1.36,105.4,M,47.9,M,,*49",,,,
2022-03-04T20:33:06+01:00,74,17.66,19.37,1007.26,32.3,34,0,-127,"$GNGGA,193301.000,4900.2934,N,00825.4657,E,2,6,1.36,107.8,M,47.9,M,,*40",,,,
2022-03-04T20:33:26+01:00,75,17.35,19.85,1007.25,32.1,33.8,0,-127,"$GNGGA,193321.000,4900.2824,N,00825.4649,E,2,6,1.36,110.3,M,47.9,M,,*40",,,,
2022-03-04T20:33:47+01:00,76,16.98,20.23,1007.24,32.4,34.1,0,-127,"$GNGGA,193342.000,4900.2710,N,00825.4624,E,2,6,1.36,109.0,M,47.9,M,,*4D",,,,
2022-03-04T20:34:08+01:00,77,16.76,20.46,1007.25,33.8,35.5,0,-127,"$GNGGA,193403.000,4900.2580,N,00825.4631,E,2,6,1.36,108.0,M,47.9,M,,*41",,,,
2022-03-04T20:34:28+01:00,78,16.65,20.48,1007.24,34.3,36.1,0,-127,"$GNGGA,193423.000,4900.2449,N,00825.4647,E,2,6,1.36,108.9,M,47.9,M,,*4F",,,,
2022-03-04T20:34:49+01:00,79,16.59,20.36,1007.24,35.3,37.1,0,-127,"$GNGGA,193444.000,4900.2317,N,00825.4633,E,2,6,1.36,109.9,M,47.9,M,,*40",,,,
2022-03-04T20:35:10+01:00,80,16.49,20.28,1007.23,35.1,36.9,0,-127,"$GNGGA,193505.000,4900.2217,N,00825.4559,E,2,6,1.36,109.5,M,47.9,M,,*46",,,,
2022-03-04T20:35:30+01:00,81,16.39,20.36,1007.25,34.4,36.2,0,-127,"$GNGGA,193525.000,4900.2187,N,00825.4381,E,2,6,1.36,108.2,M,47.9,M,,*4B",,,,
2022-03-04T20:35:51+01:00,82,16.21,20.47,1007.25,34.6,36.4,0,-127,"$GNGGA,193546.000,4900.2196,N,00825.4196,E,2,6,1.36,107.2,M,47.9,M,,*45",,,,
2022-03-04T20:36:11+01:00,83,15.75,20.93,1007.25,35.8,37.6,0,-127,"$GNGGA,193606.000,4900.2233,N,00825.4017,E,2,5,2.38,106.8,M,47.9,M,,*43",,,,
2022-03-04T20:36:31+01:00,84,15.32,21.69,1007.25,35.4,37.2,0,-127,"$GNGGA,193626.000,4900.2284,N,00825.3847,E,2,6,1.36,106.1,M,47.9,M,,*40",,,,
2022-03-04T20:36:52+01:00,85,15.01,22.29,1007.25,34,35.8,0,-127,"$GNGGA,193647.000,4900.2320,N,00825.3654,E,2,6,1.36,107.7,M,47.9,M,,*43",,,,
2022-03-04T20:37:12+01:00,86,14.68,22.61,1007.26,34.4,36.2,0,-127,"$GNGGA,193707.000,4900.2365,N,00825.3479,E,2,6,1.36,107.4,M,47.9,M,,*49",,,,
2022-03-04T20:37:33+01:00,87,14.54,22.8,1007.25,33.3,35,0,-127,"$GNGGA,193728.000,4900.2421,N,00825.3286,E,2,6,1.35,109.2,M,47.9,M,,*4E",,,,
2022-03-04T20:37:54+01:00,88,14.52,22.89,1007.26,33.7,35.4,0,-127,"$GNGGA,193749.000,4900.2453,N,00825.3114,E,2,6,1.35,108.2,M,47.9,M,,*45",,,,
2022-03-04T20:38:14+01:00,89,14.54,22.82,1007.24,32.8,34.5,0,-127,"$GNGGA,193809.000,4900.2499,N,00825.2940,E,2,6,1.35,109.5,M,47.9,M,,*46",,,,
2022-03-04T20:38:34+01:00,90,14.58,22.48,1007.24,33,34.7,0,-127,"$GNGGA,193829.000,4900.2545,N,00825.2743,E,2,6,1.35,110.6,M,47.9,M,,*42",,,,
2022-03-04T20:38:55+01:00,91,14.43,22.56,1007.24,33.3,35,0,-127,"$GNGGA,193850.000,4900.2582,N,00825.2546,E,2,6,1.35,110.6,M,47.9,M,,*40",,,,
2022-03-04T20:39:15+01:00,92,14.35,22.92,1007.24,34.6,36.4,0,-127,"$GNGGA,193910.000,4900.2625,N,00825.2346,E,2,6,1.36,109.4,M,47.9,M,,*44",,,,
2022-03-04T20:39:35+01:00,93,14.33,23.08,1007.24,34.6,36.4,0,-127,"$GNGGA,193930.000,4900.2645,N,00825.2104,E,2,6,1.35,130.5,M,47.9,M,,*4C",,,,
2022-03-04T20:39:56+01:00,94,14.3,22.95,1007.25,35.4,37.2,0,-127,"$GNGGA,193951.000,4900.2686,N,00825.1964,E,2,5,1.65,124.0,M,47.9,M,,*4F",,,,
2022-03-04T20:40:16+01:00,95,14.15,22.97,1007.26,34.6,36.4,0,-127,"$GNGGA,194011.000,4900.2700,N,00825.1770,E,2,6,1.35,125.2,M,47.9,M,,*44",,,,
2022-03-04T20:40:36+01:00,96,13.95,23.38,1007.26,34.3,36.1,0,-127,"$GNGGA,194031.000,4900.2736,N,00825.1604,E,2,6,1.35,124.6,M,47.9,M,,*44",,,,
2022-03-04T20:40:57+01:00,97,13.75,23.75,1007.26,33.5,35.2,0,-127,"$GNGGA,194052.000,4900.2696,N,00825.1321,E,2,6,1.64,147.0,M,47.9,M,,*4F",,,,
2022-03-04T20:41:17+01:00,98,13.61,23.92,1007.26,33,34.7,0,-127,"$GNGGA,194112.000,4900.2782,N,00825.1174,E,2,6,1.35,142.1,M,47.9,M,,*4C",,,,
2022-03-04T20:41:37+01:00,99,13.53,23.91,1007.28,32.7,34.4,0,-127,"$GNGGA,194132.000,4900.2876,N,00825.1059,E,2,6,1.35,124.7,M,47.9,M,,*42",,,,
2022-03-04T20:41:58+01:00,100,13.53,23.81,1007.29,31.3,32.9,0,-127,"$GNGGA,194153.000,4900.2910,N,00825.0867,E,2,6,1.35,116.3,M,47.9,M,,*45",,,,
2022-03-04T20:42:18+01:00,101,13.58,23.67,1007.29,29.6,31.1,0,-127,"$GNGGA,194213.000,4900.2963,N,00825.0664,E,2,6,1.35,115.4,M,47.9,M,,*4F",,,,
2022-03-04T20:42:39+01:00,102,13.68,23.5,1007.28,29.2,30.7,0,-127,"$GNGGA,194234.000,4900.3029,N,00825.0481,E,2,6,1.39,113.6,M,47.9,M,,*4D",,,,
2022-03-04T20:43:00+01:00,103,13.75,23.32,1007.28,30.5,32.1,0,-127,"$GNGGA,194255.000,4900.3078,N,00825.0300,E,2,6,1.35,110.4,M,47.9,M,,*4D",,,,
2022-03-04T20:43:20+01:00,104,13.79,23.18,1007.28,31.1,32.7,0,-127,"$GNGGA,194315.000,4900.3114,N,00825.0112,E,2,6,1.35,112.5,M,47.9,M,,*41",,,,
2022-03-04T20:43:41+01:00,105,13.76,23.26,1007.29,32.3,34,0,-127,"$GNGGA,194336.000,4900.3153,N,00824.9906,E,2,6,1.35,112.4,M,47.9,M,,*47",,,,
2022-03-04T20:44:02+01:00,106,13.71,23.4,1007.29,30.2,31.8,0,-127,"$GNGGA,194357.000,4900.3228,N,00824.9721,E,2,6,1.35,111.3,M,47.9,M,,*40",,,,
2022-03-04T20:44:22+01:00,107,13.68,23.48,1007.29,29.9,31.4,0,-127,"$GNGGA,194417.000,4900.3277,N,00824.9541,E,2,6,1.35,114.2,M,47.9,M,,*49",,,,
2022-03-04T20:44:43+01:00,108,13.57,23.64,1007.27,29.6,31.1,0,-127,"$GNGGA,194438.000,4900.3304,N,00824.9366,E,2,7,1.22,118.5,M,47.9,M,,*4E",,,,
2022-03-04T20:45:04+01:00,109,13.35,23.78,1007.24,31.8,33.4,0,-127,"$GNGGA,194459.000,4900.3403,N,00824.9266,E,2,7,1.21,116.2,M,47.9,M,,*42",,,,
2022-03-04T20:45:24+01:00,110,13.2,24.15,1007.22,34.1,35.9,0,-127,"$GNGGA,194519.000,4900.3458,N,00824.9112,E,2,7,1.21,121.3,M,47.9,M,,*4C",,,,
2022-03-04T20:45:45+01:00,111,13.21,24.24,1007.21,33.6,35.3,0,-127,"$GNGGA,194539.000,4900.3516,N,00824.8935,E,2,7,1.21,134.9,M,47.9,M,,*47",,,,
2022-03-04T20:46:06+01:00,112,13.29,24.11,1007.2,32.8,34.5,0,-127,"$GNGGA,194601.000,4900.3701,N,00824.8787,E,2,7,1.21,150.4,M,47.9,M,,*43",,,,
2022-03-04T20:46:26+01:00,113,13.41,23.85,1007.21,32.9,34.6,0,-127,"$GNGGA,194621.000,4900.3839,N,00824.8694,E,2,7,1.21,144.2,M,47.9,M,,*45",,,,
2022-03-04T20:46:46+01:00,114,13.49,23.79,1007.22,33.2,34.9,0,-127,"$GNGGA,194641.000,4900.3891,N,00824.8571,E,2,7,1.21,133.5,M,47.9,M,,*4E",,,,
2022-03-04T20:47:09+01:00,115,13.52,24.12,1007.22,33.5,35.2,0,-127,"$GNGGA,194704.000,4900.3970,N,00824.8433,E,2,7,1.20,127.3,M,47.9,M,,*45",,,,
2022-03-04T20:47:29+01:00,116,13.51,24.11,1007.22,33.4,35.1,0,-127,"$GNGGA,194724.000,4900.4079,N,00824.8293,E,2,7,1.20,125.4,M,47.9,M,,*49",,,,
2022-03-04T20:47:51+01:00,117,13.55,24.33,1007.22,32.5,34.2,0,-127,"$GNGGA,194746.000,4900.4202,N,00824.8216,E,2,7,1.20,129.7,M,47.9,M,,*41",,,,
2022-03-04T20:48:12+01:00,118,13.64,24.29,1007.21,32.4,34.1,0,-127,"$GNGGA,194807.000,4900.4306,N,00824.8140,E,2,7,1.20,128.9,M,47.9,M,,*41",,,,
2022-03-04T20:48:32+01:00,119,13.67,23.9,1007.22,33.3,35,0,-127,"$GNGGA,194827.000,4900.4331,N,00824.8014,E,2,7,1.20,130.5,M,47.9,M,,*42",,,,
2022-03-04T20:48:52+01:00,120,13.55,23.73,1007.23,34.7,36.5,0,-127,"$GNGGA,194847.000,4900.4380,N,00824.7842,E,2,7,1.20,131.1,M,47.9,M,,*4F",,,,
2022-03-04T20:49:13+01:00,121,13.53,23.86,1007.23,35.7,37.5,0,-127,"$GNGGA,194908.000,4900.4467,N,00824.7692,E,2,7,1.20,133.0,M,47.9,M,,*4B",,,,
2022-03-04T20:49:33+01:00,122,13.58,23.9,1007.24,35.2,37,0,-127,"$GNGGA,194928.000,4900.4653,N,00824.7561,E,2,7,1.19,139.0,M,47.9,M,,*43",,,,
2022-03-04T20:49:53+01:00,123,13.63,23.72,1007.24,35.1,36.9,0,-127,"$GNGGA,194948.000,4900.4701,N,00824.7362,E,2,7,1.19,148.6,M,47.9,M,,*46",,,,
2022-03-04T20:50:14+01:00,124,13.58,23.62,1007.24,32.7,34.4,0,-127,"$GNGGA,195009.000,4900.4779,N,00824.7327,E,2,7,1.19,136.6,M,47.9,M,,*4C",,,,
2022-03-04T20:50:34+01:00,125,13.55,23.71,1007.24,32.5,34.2,0,-127,"$GNGGA,195029.000,4900.4855,N,00824.7190,E,2,7,1.19,131.6,M,47.9,M,,*46",,,,
2022-03-04T20:50:54+01:00,126,13.57,23.7,1007.25,31.5,33.1,0,-127,"$GNGGA,195049.000,4900.4959,N,00824.7065,E,2,7,1.19,135.3,M,47.9,M,,*47",,,,
2022-03-04T20:51:15+01:00,127,13.6,23.68,1007.26,34.4,36.2,0,-127,"$GNGGA,195110.000,4900.5079,N,00824.6945,E,2,7,1.19,139.1,M,47.9,M,,*44",,,,
2022-03-04T20:51:36+01:00,128,13.64,23.53,1007.26,34.9,36.7,0,-127,"$GNGGA,195131.000,4900.5149,N,00824.6797,E,2,7,1.18,136.1,M,47.9,M,,*4A",,,,
2022-03-04T20:51:58+01:00,129,13.69,23.49,1007.26,35.8,37.6,0,-127,"$GNGGA,195152.000,4900.5249,N,00824.6678,E,2,7,1.18,137.2,M,47.9,M,,*4E",,,,
2022-03-04T20:52:23+01:00,130,13.73,23.56,1007.27,35.6,37.4,0,-127,"$GNGGA,195218.000,4900.5416,N,00824.6527,E,2,7,1.18,142.4,M,47.9,M,,*42",,,,
2022-03-04T20:52:46+01:00,131,13.76,23.5,1007.27,36.2,38.1,0,-127,"$GNGGA,195239.000,4900.5557,N,00824.6468,E,2,7,1.18,130.9,M,47.9,M,,*47",,,,
2022-03-04T20:54:29+01:00,132,13.32,25.21,1007.14,33.2,34.9,0,-127,"$GNGGA,195424.000,4900.5993,N,00824.6755,E,1,6,1.21,126.7,M,47.9,M,,*45",,,,
2022-03-04T20:54:50+01:00,133,13.22,25.28,1007.15,32.9,34.6,0,-127,"$GNGGA,195445.000,4900.5952,N,00824.6907,E,0,2,,129.9,M,47.9,M,,*5E",,,,
2022-03-04T20:55:10+01:00,134,13.25,24.96,1007.16,33.7,35.4,0,-127,"$GNGGA,195505.000,4900.5992,N,00824.6684,E,1,7,1.17,114.6,M,47.9,M,,*4F",,,,
2022-03-04T20:55:30+01:00,135,13.35,24.56,1007.16,34.4,36.2,0,-127,"$GNGGA,195525.000,4900.5988,N,00824.6712,E,1,7,1.17,117.9,M,47.9,M,,*44",,,,
2022-03-04T20:55:50+01:00,136,13.5,24.17,1007.17,34.7,36.5,0,-127,"$GNGGA,195545.000,4900.5995,N,00824.6706,E,1,8,1.01,117.6,M,47.9,M,,*4C",,,,
2022-03-04T20:56:11+01:00,137,13.67,23.84,1007.19,34.1,35.9,0,-127,"$GNGGA,195606.000,4900.5986,N,00824.6724,E,1,8,1.01,118.4,M,47.9,M,,*47",,,,
2022-03-04T20:56:31+01:00,138,13.85,23.51,1007.19,32.1,33.8,0,-127,"$GNGGA,195626.000,4900.5974,N,00824.6718,E,1,8,1.01,113.0,M,47.9,M,,*48",,,,
2022-03-04T20:56:51+01:00,139,14.03,23.3,1007.19,31.9,33.5,0,-127,"$GNGGA,195646.000,4900.5978,N,00824.6718,E,1,8,1.01,113.5,M,47.9,M,,*47",,,,
2022-03-04T20:57:12+01:00,140,14.19,23.1,1007.19,33,34.7,0,-127,"$GNGGA,195707.000,4900.6011,N,00824.6728,E,1,8,1.01,108.8,M,47.9,M,,*42",,,,
2022-03-04T20:57:32+01:00,141,14.35,22.91,1007.19,34.2,36,0,-127,"$GNGGA,195727.000,4900.5992,N,00824.6749,E,2,8,1.01,110.3,M,47.9,M,,*47",,,,
2022-03-04T20:57:52+01:00,142,14.49,22.81,1007.19,33.8,35.5,0,-127,"$GNGGA,195747.000,4900.5946,N,00824.6784,E,2,8,1.01,118.9,M,47.9,M,,*4B",,,,
2022-03-04T20:58:13+01:00,143,14.63,22.69,1007.18,33.4,35.1,0,-127,"$GNGGA,195808.000,4900.5934,N,00824.6751,E,2,8,1.01,117.6,M,47.9,M,,*42",,,,
2022-03-04T20:58:33+01:00,144,14.71,22.61,1007.19,32.6,34.3,0,-127,"$GNGGA,195828.000,4900.5943,N,00824.6755,E,2,8,1.01,113.4,M,47.9,M,,*42",,,,
2022-03-04T20:58:53+01:00,145,14.81,22.58,1007.18,32.5,34.2,0,-127,"$GNGGA,195848.000,4900.5912,N,00824.6796,E,2,8,1.15,118.3,M,47.9,M,,*46",,,,
2022-03-04T20:59:14+01:00,146,14.89,22.5,1007.17,32,33.7,0,-127,"$GNGGA,195909.000,4900.5909,N,00824.6760,E,2,8,1.01,127.3,M,47.9,M,,*48",,,,
2022-03-04T20:59:34+01:00,147,14.97,22.43,1007.17,32.6,34.3,0,-127,"$GNGGA,195929.000,4900.5912,N,00824.6741,E,2,8,1.01,125.9,M,47.9,M,,*4B",,,,
2022-03-04T20:59:55+01:00,148,15.07,22.36,1007.18,34.1,35.9,0,-127,"$GNGGA,195950.000,4900.5915,N,00824.6752,E,2,8,1.04,125.6,M,47.9,M,,*4A",,,,
2022-03-04T21:00:16+01:00,149,15.18,22.25,1007.18,34.2,36,0,-127,"$GNGGA,200011.000,4900.5938,N,00824.6768,E,2,8,1.01,124.6,M,47.9,M,,*4B",,,,
2022-03-04T21:00:36+01:00,150,15.25,22.01,1007.18,34.5,36.3,0,-127,"$GNGGA,200031.000,4900.5943,N,00824.6731,E,2,8,1.00,124.7,M,47.9,M,,*49",,,,
2022-03-04T21:00:56+01:00,151,15.31,21.88,1007.18,32.8,34.5,0,-127,"$GNGGA,200051.000,4900.5945,N,00824.6748,E,2,8,1.00,123.0,M,47.9,M,,*47",,,,
2022-03-04T21:01:17+01:00,152,15.37,21.9,1007.17,33.4,35.1,0,-127,"$GNGGA,200112.000,4900.5996,N,00824.6763,E,2,8,1.03,114.3,M,47.9,M,,*42",,,,
2022-03-04T21:01:37+01:00,153,15.37,21.85,1007.19,32.9,34.6,0,-127,"$GNGGA,200132.000,4900.5974,N,00824.6777,E,2,8,1.00,117.0,M,47.9,M,,*4A",,,,
2022-03-04T21:02:01+01:00,154,15.16,21.93,1007.19,33.8,35.5,0,-127,"$GNGGA,200156.000,4900.5935,N,00824.6960,E,2,7,1.23,129.9,M,47.9,M,,*4F",,,,
2022-03-04T21:02:22+01:00,155,14.85,22.37,1007.18,32.4,34.1,0,-127,"$GNGGA,200217.000,4900.5932,N,00824.7134,E,2,7,1.23,133.2,M,47.9,M,,*46",,,,
2022-03-04T21:02:42+01:00,156,14.55,22.91,1007.19,32.2,33.9,0,-127,"$GNGGA,200237.000,4900.5902,N,00824.7346,E,2,7,1.23,123.2,M,47.9,M,,*41",,,,
2022-03-04T21:03:03+01:00,157,14.26,23.37,1007.19,32.8,34.5,0,-127,"$GNGGA,200258.000,4900.5824,N,00824.7483,E,2,7,1.23,121.5,M,47.9,M,,*46",,,,
2022-03-04T21:03:24+01:00,158,13.88,23.78,1007.2,34.7,36.5,0,-127,"$GNGGA,200319.000,4900.5798,N,00824.7666,E,2,8,1.00,129.6,M,47.9,M,,*46",,,,
2022-03-04T21:03:44+01:00,159,13.4,24.29,1007.22,35.7,37.5,0,-127,"$GNGGA,200339.000,4900.5837,N,00824.7847,E,2,8,1.00,144.7,M,47.9,M,,*49",,,,
2022-03-04T21:04:05+01:00,160,12.89,25.06,1007.24,34.5,36.3,0,-127,"$GNGGA,200400.000,4900.5942,N,00824.8023,E,2,8,1.00,147.0,M,47.9,M,,*46",,,,
2022-03-04T21:04:26+01:00,161,12.45,25.78,1007.24,34.2,36,0,-127,"$GNGGA,200421.000,4900.5895,N,00824.8248,E,2,8,1.15,140.6,M,47.9,M,,*44",,,,
2022-03-04T21:04:51+01:00,162,12.09,26.24,1007.24,34.5,36.3,0,-127,"$GNGGA,200442.000,4900.5835,N,00824.8396,E,2,8,1.00,142.6,M,47.9,M,,*4F",,,,
2022-03-04T21:05:12+01:00,163,11.77,26.86,1007.25,34.2,36,0,-127,"$GNGGA,200507.000,4900.5741,N,00824.8817,E,2,8,1.00,128.6,M,47.9,M,,*4D",,,,
2022-03-04T21:05:32+01:00,164,11.47,27.17,1007.26,33,34.7,0,-127,"$GNGGA,200527.000,4900.5860,N,00824.8964,E,2,8,1.00,128.6,M,47.9,M,,*46",,,,
2022-03-04T21:05:53+01:00,165,11.13,27.64,1007.26,31.9,33.5,0,-127,"$GNGGA,200548.000,4900.5901,N,00824.9093,E,2,8,1.00,123.9,M,47.9,M,,*4D",,,,
2022-03-04T21:06:14+01:00,166,10.8,28.05,1007.27,34.1,35.9,0,-127,"$GNGGA,200609.000,4900.5933,N,00824.9260,E,2,8,0.99,121.2,M,47.9,M,,*4C",,,,
2022-03-04T21:06:34+01:00,167,10.56,28.41,1007.29,35.6,37.4,0,-127,"$GNGGA,200629.000,4900.5961,N,00824.9463,E,2,8,0.99,131.9,M,47.9,M,,*46",,,,
2022-03-04T21:06:54+01:00,168,10.5,28.53,1007.29,35.1,36.9,0,-127,"$GNGGA,200649.000,4900.5792,N,00824.9669,E,2,8,0.99,123.9,M,47.9,M,,*49",,,,
2022-03-04T21:07:15+01:00,169,10.47,28.44,1007.3,33.6,35.3,0,-127,"$GNGGA,200710.000,4900.5722,N,00824.9801,E,2,8,1.02,120.4,M,47.9,M,,*42",,,,
2022-03-04T21:07:35+01:00,170,10.48,28.48,1007.29,32.1,33.8,0,-127,"$GNGGA,200730.000,4900.5650,N,00825.0039,E,2,8,0.99,124.6,M,47.9,M,,*4A",,,,
2022-03-04T21:07:55+01:00,171,10.47,28.49,1007.3,31.7,33.3,0,-127,"$GNGGA,200750.000,4900.5614,N,00825.0203,E,2,8,0.99,127.4,M,47.9,M,,*46",,,,
2022-03-04T21:08:16+01:00,172,10.47,28.42,1007.32,31.6,33.2,0,-127,"$GNGGA,200811.000,4900.5539,N,00825.0317,E,2,8,0.99,120.4,M,47.9,M,,*43",,,,
2022-03-04T21:08:36+01:00,173,10.56,28.21,1007.32,31.1,32.7,0,-127,"$GNGGA,200831.000,4900.5496,N,00825.0441,E,2,7,1.05,120.4,M,47.9,M,,*4A",,,,
2022-03-04T21:08:56+01:00,174,10.7,27.89,1007.34,30.7,32.3,0,-127,"$GNGGA,200851.000,4900.5501,N,00825.0454,E,2,10,0.91,120.2,M,47.9,M,,*7B",,,,
2022-03-04T21:09:17+01:00,175,10.89,27.52,1007.34,30,31.6,0,-127,"$GNGGA,200912.000,4900.5507,N,00825.0445,E,2,9,0.97,120.6,M,47.9,M,,*41",,,,
2022-03-04T21:09:37+01:00,176,11.1,27.15,1007.34,29.6,31.1,0,-127,"$GNGGA,200932.000,4900.5507,N,00825.0450,E,2,10,0.91,121.1,M,47.9,M,,*7F",,,,
2022-03-04T21:09:58+01:00,177,11.2,26.88,1007.35,30.5,32.1,0,-127,"$GNGGA,200953.000,4900.5473,N,00825.0580,E,2,10,0.91,118.6,M,47.9,M,,*7B",,,,
2022-03-04T21:10:19+01:00,178,11.1,26.95,1007.34,33.1,34.8,0,-127,"$GNGGA,201014.000,4900.5534,N,00825.0771,E,2,10,0.91,118.0,M,47.9,M,,*78",,,,
2022-03-04T21:10:39+01:00,179,11.05,27.36,1007.34,34.6,36.4,0,-127,"$GNGGA,201034.000,4900.5614,N,00825.0884,E,2,10,0.91,123.7,M,47.9,M,,*71",,,,
2022-03-04T21:11:00+01:00,180,11.09,27.62,1007.34,32.7,34.4,0,-127,"$GNGGA,201055.000,4900.5609,N,00825.0927,E,2,10,0.91,122.7,M,47.9,M,,*73",,,,
2022-03-04T21:11:21+01:00,181,11.1,27.51,1007.33,29.8,31.3,0,-127,"$GNGGA,201116.000,4900.5678,N,00825.1047,E,2,8,0.99,121.3,M,47.9,M,,*4B",,,,
2022-03-04T21:11:41+01:00,182,11.08,27.5,1007.34,27.4,28.8,0,-127,"$GNGGA,201136.000,4900.5731,N,00825.1230,E,2,9,0.94,119.3,M,47.9,M,,*40",,,,
2022-03-04T21:12:01+01:00,183,11.02,27.59,1007.34,27.1,28.5,0,-127,"$GNGGA,201156.000,4900.5786,N,00825.1413,E,2,10,0.91,119.6,M,47.9,M,,*75",,,,
2022-03-04T21:12:22+01:00,184,10.92,27.84,1007.35,27.7,29.1,0,-127,"$GNGGA,201217.000,4900.5861,N,00825.1561,E,2,10,0.91,129.5,M,47.9,M,,*71",,,,
2022-03-04T21:12:42+01:00,185,10.86,28.14,1007.34,28.9,30.4,0,-127,"$GNGGA,201237.000,4900.6077,N,00825.1628,E,2,10,0.93,144.3,M,47.9,M,,*7E",,,,
2022-03-04T21:13:02+01:00,186,10.84,28.27,1007.34,27.4,28.8,0,-127,"$GNGGA,201257.000,4900.6069,N,00825.1831,E,2,10,0.91,130.6,M,47.9,M,,*75",,,,
2022-03-04T21:13:23+01:00,187,10.84,28.26,1007.35,27.9,29.3,0,-127,"$GNGGA,201318.000,4900.6145,N,00825.1989,E,2,9,1.14,131.8,M,47.9,M,,*49",,,,
2022-03-04T21:13:43+01:00,188,10.82,28.18,1007.34,27.9,29.3,0,-127,"$GNGGA,201338.000,4900.6241,N,00825.2139,E,2,9,1.14,132.4,M,47.9,M,,*43",,,,
2022-03-04T21:14:03+01:00,189,10.81,28.15,1007.33,30.2,31.8,0,-127,"$GNGGA,201358.000,4900.6236,N,00825.2328,E,2,9,1.14,129.7,M,47.9,M,,*4E",,,,
2022-03-04T21:14:24+01:00,190,10.85,28.16,1007.34,29.2,30.7,0,-127,"$GNGGA,201419.000,4900.6391,N,00825.2442,E,2,9,1.14,137.4,M,47.9,M,,*47",,,,
2022-03-04T21:14:44+01:00,191,10.88,28.09,1007.33,28.6,30.1,0,-127,"$GNGGA,201439.000,4900.6463,N,00825.2593,E,2,9,1.14,137.7,M,47.9,M,,*41",,,,
2022-03-04T21:15:04+01:00,192,10.82,28.04,1007.33,27.3,28.7,0,-127,"$GNGGA,201459.000,4900.6519,N,00825.2758,E,2,9,1.13,135.7,M,47.9,M,,*4B",,,,
2022-03-04T21:15:25+01:00,193,10.68,28.3,1007.32,29.4,30.9,0,-127,"$GNGGA,201520.000,4900.6596,N,00825.2932,E,2,10,0.91,138.1,M,47.9,M,,*79",,,,
2022-03-04T21:15:45+01:00,194,10.52,28.56,1007.32,32.3,34,0,-127,"$GNGGA,201540.000,4900.6562,N,00825.3139,E,2,9,1.13,132.7,M,47.9,M,,*49",,,,
2022-03-04T21:16:06+01:00,195,10.42,28.88,1007.3,34.9,36.7,0,-127,"$GNGGA,201601.000,4900.6722,N,00825.3261,E,2,9,1.13,136.6,M,47.9,M,,*42",,,,
2022-03-04T21:16:27+01:00,196,10.42,28.93,1007.31,31.5,33.1,0,-127,"$GNGGA,201622.000,4900.6809,N,00825.3427,E,2,9,1.13,138.3,M,47.9,M,,*4A",,,,
2022-03-04T21:16:47+01:00,197,10.48,28.78,1007.3,29.5,31,0,-127,"$GNGGA,201642.000,4900.6835,N,00825.3566,E,2,9,1.13,135.4,M,47.9,M,,*4D",,,,
2022-03-04T21:17:08+01:00,198,10.62,28.55,1007.3,28.6,30.1,0,-127,"$GNGGA,201703.000,4900.6858,N,00825.3634,E,2,9,1.18,137.4,M,47.9,M,,*4F",,,,
2022-03-04T21:17:29+01:00,199,10.71,28.15,1007.31,30,31.6,0,-127,"$GNGGA,201724.000,4900.6876,N,00825.3660,E,2,8,1.15,139.5,M,47.9,M,,*44",,,,
2022-03-04T21:17:50+01:00,200,10.8,27.94,1007.32,30.7,32.3,0,-127,"$GNGGA,201745.000,4900.6618,N,00825.3929,E,2,9,0.93,129.1,M,47.9,M,,*4C",,,,
2022-03-04T21:18:11+01:00,201,10.9,27.8,1007.32,30.5,32.1,0,-127,"$GNGGA,201806.000,4900.6462,N,00825.4003,E,2,10,0.93,129.4,M,47.9,M,,*70",,,,
2022-03-04T21:18:32+01:00,202,10.99,27.71,1007.33,30.8,32.4,0,-127,"$GNGGA,201827.000,4900.6308,N,00825.4145,E,2,10,0.91,133.1,M,47.9,M,,*77",,,,
2022-03-04T21:18:52+01:00,203,11.06,27.66,1007.33,29.7,31.2,0,-127,"$GNGGA,201847.000,4900.6200,N,00825.4113,E,2,10,0.91,134.5,M,47.9,M,,*78",,,,
2022-03-04T21:19:12+01:00,204,11.07,27.7,1007.33,29.4,30.9,0,-127,"$GNGGA,201907.000,4900.6092,N,00825.4113,E,2,9,0.98,137.4,M,47.9,M,,*47",,,,
2022-03-04T21:19:33+01:00,205,10.97,27.8,1007.34,28.5,30,0,-127,"$GNGGA,201928.000,4900.5959,N,00825.4195,E,2,9,1.10,143.6,M,47.9,M,,*49",,,,
2022-03-04T21:19:53+01:00,206,10.96,28.05,1007.34,28.1,29.6,0,-127,"$GNGGA,201948.000,4900.5849,N,00825.4187,E,2,9,1.10,148.3,M,47.9,M,,*42",,,,
2022-03-04T21:20:13+01:00,207,11.04,28.1,1007.35,27.1,28.5,0,-127,"$GNGGA,202008.000,4900.5736,N,00825.4081,E,2,10,0.91,137.8,M,47.9,M,,*7F",,,,
2022-03-04T21:20:34+01:00,208,11.16,27.97,1007.35,26.4,27.8,0,-127,"$GNGGA,202029.000,4900.5626,N,00825.4167,E,2,9,1.10,129.5,M,47.9,M,,*47",,,,
2022-03-04T21:20:55+01:00,209,11.29,27.74,1007.36,27.2,28.6,0,-127,"$GNGGA,202050.000,4900.5491,N,00825.4258,E,2,8,1.26,125.7,M,47.9,M,,*42",,,,
2022-03-04T21:21:16+01:00,210,11.4,27.45,1007.36,28.3,29.8,0,-127,"$GNGGA,202111.000,4900.5386,N,00825.4306,E,2,10,0.91,124.0,M,47.9,M,,*7F",,,,
2022-03-04T21:21:36+01:00,211,11.52,27.24,1007.35,29.4,30.9,0,-127,"$GNGGA,202131.000,4900.5276,N,00825.4161,E,2,10,0.91,130.1,M,47.9,M,,*74",,,,
2022-03-04T21:21:56+01:00,212,11.57,27.13,1007.34,31.6,33.2,0,-127,"$GNGGA,202151.000,4900.5170,N,00825.4135,E,2,10,0.91,128.2,M,47.9,M,,*7C",,,,
2022-03-04T21:22:17+01:00,213,11.61,27.2,1007.34,31.4,33,0,-127,"$GNGGA,202212.000,4900.5053,N,00825.4184,E,2,10,0.91,128.6,M,47.9,M,,*76",,,,
2022-03-04T21:22:38+01:00,214,11.63,27.18,1007.33,31.7,33.3,0,-127,"$GNGGA,202233.000,4900.4939,N,00825.4237,E,2,10,0.91,134.3,M,47.9,M,,*72",,,,
