created_at,entry_id,field1,field2,field3,field4,field5,field6,field7,field8,latitude,longitude,elevation,status
2022-01-13T17:53:35+01:00,1,24.01,41.98,1025.25,350.90,368.50,0,0,"$GNGGA,000025.466,4900.5477,N,00825.6103,E,0,0,,293.9,M,47.9,M,,*52",,,,
2022-01-13T17:53:56+01:00,2,24.03,40.50,1025.26,294.50,309.30,0,0,"$GNGGA,165351.088,4856.6727,N,00741.8770,E,0,2,,478.0,M,47.9,M,,*5A",,,,
2022-01-13T17:54:16+01:00,3,24.22,39.11,1025.27,268.80,282.30,0,0,"$GNGGA,165411.304,4900.5220,N,00825.4660,E,1,4,4.50,152.9,M,47.9,M,,*40",,,,
2022-01-13T17:54:37+01:00,4,24.49,37.77,1025.28,237.90,249.80,0,0,"$GNGGA,165432.304,4900.5321,N,00825.4502,E,1,4,4.48,133.4,M,47.9,M,,*45",,,,
2022-01-13T17:54:57+01:00,5,24.79,36.61,1025.26,243.80,256.00,0,0,"$GNGGA,165452.304,4900.5261,N,00825.4568,E,1,4,4.45,140.0,M,47.9,M,,*47",,,,
2022-01-13T17:55:18+01:00,6,25.10,35.76,1025.27,245.80,258.10,0,0,"$GNGGA,165513.000,4900.5202,N,00825.4657,E,1,4,4.42,147.9,M,47.9,M,,*47",,,,
2022-01-13T17:55:39+01:00,7,25.40,35.36,1025.27,243.70,255.90,0,0,"$GNGGA,165534.000,4900.5212,N,00825.4654,E,1,4,2.84,144.8,M,47.9,M,,*4E",,,,
2022-01-13T17:55:59+01:00,8,25.69,35.01,1025.27,238.30,250.30,0,0,"$GNGGA,165554.000,4900.5213,N,00825.4645,E,1,6,1.93,138.6,M,47.9,M,,*4B",,,,
2022-01-13T17:56:19+01:00,9,25.96,34.40,1025.27,240.20,252.30,0,0,"$GNGGA,165614.000,4900.5167,N,00825.4607,E,1,6,1.93,129.7,M,47.9,M,,*4B",,,,
2022-01-13T17:56:40+01:00,10,26.21,33.70,1025.27,240.20,252.30,0,0,"$GNGGA,165635.000,4900.5174,N,00825.4585,E,1,6,1.93,129.3,M,47.9,M,,*47",,,,
2022-01-13T17:57:00+01:00,11,26.44,32.80,1025.27,251.80,264.40,0,0,"$GNGGA,165655.000,4900.5184,N,00825.4583,E,1,6,1.93,128.1,M,47.9,M,,*4B",,,,
2022-01-13T17:57:20+01:00,12,26.65,32.76,1025.27,255.00,267.80,0,0,"$GNGGA,165715.000,4900.5194,N,00825.4570,E,1,6,1.92,126.7,M,47.9,M,,*4A",,,,
2022-01-13T17:57:41+01:00,13,26.85,32.09,1025.26,266.90,280.30,0,0,"$GNGGA,165736.000,4900.5203,N,00825.4548,E,1,6,1.92,128.6,M,47.9,M,,*42",,,,
2022-01-13T17:58:01+01:00,14,27.02,31.18,1025.25,272.60,286.30,0,0,"$GNGGA,165756.000,4900.5194,N,00825.4567,E,1,6,1.92,128.6,M,47.9,M,,*44",,,,
2022-01-13T17:58:21+01:00,15,27.19,31.25,1025.25,280.70,294.80,0,0,"$GNGGA,165816.000,4900.5164,N,00825.4586,E,1,6,1.92,126.9,M,47.9,M,,*4E",,,,
2022-01-13T17:58:42+01:00,16,27.35,31.18,1025.24,281.30,295.40,0,0,"$GNGGA,165837.000,4900.5164,N,00825.4578,E,1,6,2.92,125.2,M,47.9,M,,*47",,,,
2022-01-13T17:59:02+01:00,17,27.50,30.72,1025.24,274.50,288.30,0,0,"$GNGGA,165857.000,4900.5186,N,00825.4600,E,1,6,1.92,124.8,M,47.9,M,,*49",,,,
2022-01-13T17:59:22+01:00,18,27.63,30.43,1025.24,282.70,296.90,0,0,"$GNGGA,165917.000,4900.5186,N,00825.4608,E,1,6,1.92,127.1,M,47.9,M,,*4E",,,,
2022-01-13T17:59:43+01:00,19,27.76,30.47,1025.24,279.70,293.70,0,0,"$GNGGA,165938.000,4900.5182,N,00825.4607,E,1,6,1.92,127.2,M,47.9,M,,*4B",,,,
2022-01-13T18:00:03+01:00,20,27.87,29.98,1025.24,278.30,292.30,0,0,"$GNGGA,165958.000,4900.5173,N,00825.4589,E,1,6,1.92,126.1,M,47.9,M,,*44",,,,
2022-01-13T18:00:23+01:00,21,27.99,30.21,1025.24,273.10,286.80,0,0,"$GNGGA,170018.000,4900.5175,N,00825.4536,E,1,6,2.94,126.6,M,47.9,M,,*4D",,,,
2022-01-13T18:00:44+01:00,22,28.10,30.29,1025.25,274.80,288.60,0,0,"$GNGGA,170039.000,4900.5191,N,00825.4538,E,1,6,1.92,125.3,M,47.9,M,,*49",,,,
2022-01-13T18:01:04+01:00,23,28.21,30.12,1025.26,258.60,271.60,0,0,"$GNGGA,170059.000,4900.5205,N,00825.4555,E,1,6,2.95,125.7,M,47.9,M,,*4A",,,,
2022-01-13T18:01:24+01:00,24,28.31,30.17,1025.26,248.20,260.70,0,0,"$GNGGA,170119.000,4900.5211,N,00825.4536,E,1,6,1.92,126.6,M,47.9,M,,*49",,,,
2022-01-13T18:01:45+01:00,25,28.40,30.02,1025.26,245.80,258.10,0,0,"$GNGGA,170140.000,4900.5217,N,00825.4584,E,1,6,1.92,127.2,M,47.9,M,,*4F",,,,
2022-01-13T18:02:05+01:00,26,28.49,29.54,1025.27,258.10,271.10,0,0,"$GNGGA,170200.000,4900.5211,N,00825.4559,E,1,7,1.69,127.0,M,47.9,M,,*49",,,,
2022-01-13T18:02:26+01:00,27,28.58,29.63,1025.27,262.50,275.70,0,0,"$GNGGA,170221.000,4900.5195,N,00825.4573,E,1,7,1.69,127.1,M,47.9,M,,*4C",,,,
2022-01-13T18:02:47+01:00,28,28.66,29.14,1025.27,257.90,270.80,0,0,"$GNGGA,170242.000,4900.5200,N,00825.4597,E,1,8,1.68,126.9,M,47.9,M,,*4B",,,,
2022-01-13T18:03:07+01:00,29,28.74,29.10,1025.28,250.10,262.70,0,0,"$GNGGA,170302.000,4900.5177,N,00825.4591,E,1,8,1.69,125.7,M,47.9,M,,*47",,,,
2022-01-13T18:03:27+01:00,30,28.81,28.93,1025.28,246.30,258.70,0,0,"$GNGGA,170322.000,4900.5179,N,00825.4529,E,1,8,1.69,124.3,M,47.9,M,,*4D",,,,
2022-01-13T18:03:48+01:00,31,28.89,29.10,1025.29,249.70,262.20,0,0,"$GNGGA,170343.000,4900.5225,N,00825.4523,E,1,8,1.69,127.8,M,47.9,M,,*42",,,,
2022-01-13T18:04:08+01:00,32,28.96,28.70,1025.30,257.10,270.00,0,0,"$GNGGA,170403.000,4900.5208,N,00825.4570,E,1,8,1.69,126.7,M,47.9,M,,*46",,,,
2022-01-13T18:04:28+01:00,33,29.03,28.50,1025.31,258.90,271.90,0,0,"$GNGGA,170423.000,4900.5202,N,00825.4585,E,1,8,1.69,125.0,M,47.9,M,,*40",,,,
2022-01-13T18:04:49+01:00,34,29.09,28.61,1025.31,206.10,216.50,0,0,"$GNGGA,170444.000,4900.5218,N,00825.4524,E,1,8,1.69,124.4,M,47.9,M,,*44",,,,
2022-01-13T18:05:10+01:00,35,29.06,30.39,1025.12,96.60,101.50,0,0,"$GNGGA,170505.000,4900.5317,N,00825.4471,E,0,0,,127.2,M,47.9,M,,*53",,,,
2022-01-13T18:05:30+01:00,36,28.96,30.90,1025.00,84.40,88.70,0,0,"$GNGGA,170525.000,4900.5239,N,00825.4480,E,0,0,,129.2,M,47.9,M,,*5C",,,,
2022-01-13T18:05:51+01:00,37,28.81,31.47,1024.90,71.50,75.10,0,0,"$GNGGA,170546.000,4900.5239,N,00825.4480,E,0,0,,129.2,M,47.9,M,,*59",,,,
2022-01-13T18:06:11+01:00,38,28.64,31.83,1024.82,66.40,69.80,0,0,"$GNGGA,170606.000,4900.5239,N,00825.4480,E,0,0,,129.2,M,47.9,M,,*5E",,,,
2022-01-13T18:06:31+01:00,39,28.49,32.10,1024.79,64.80,68.10,0,0,"$GNGGA,170626.000,4900.5239,N,00825.4480,E,0,0,,129.2,M,47.9,M,,*5C",,,,
2022-01-13T18:06:52+01:00,40,28.35,32.27,1024.73,62.30,65.50,0,0,"$GNGGA,170647.000,4900.5225,N,00825.4482,E,0,0,,129.5,M,47.9,M,,*53",,,,
2022-01-13T18:07:13+01:00,41,28.23,32.34,1024.69,60.50,63.60,0,0,"$GNGGA,170708.000,4900.5225,N,00825.4482,E,0,0,,129.5,M,47.9,M,,*59",,,,
2022-01-13T18:07:33+01:00,42,28.12,32.36,1024.74,61.10,64.20,0,0,"$GNGGA,170728.000,4900.5225,N,00825.4482,E,0,0,,129.5,M,47.9,M,,*5B",,,,
2022-01-13T18:07:54+01:00,43,28.03,32.05,1024.80,56.70,59.60,0,0,"$GNGGA,170749.000,4900.5225,N,00825.4482,E,0,0,,129.5,M,47.9,M,,*5C",,,,
2022-01-13T18:08:14+01:00,44,27.95,32.35,1024.83,48.90,51.40,0,0,"$GNGGA,170809.000,4900.5225,N,00825.4482,E,0,0,,129.5,M,47.9,M,,*57",,,,
2022-01-13T18:08:34+01:00,45,27.88,32.24,1024.95,38.40,40.40,0,0,"$GNGGA,170829.000,4900.5225,N,00825.4482,E,0,0,,129.5,M,47.9,M,,*55",,,,
2022-01-13T18:08:55+01:00,46,27.82,32.31,1025.35,34.20,36.00,0,0,"$GNGGA,170850.000,4900.5222,N,00825.4482,E,0,0,,129.5,M,47.9,M,,*5C",,,,
2022-01-13T18:09:15+01:00,47,27.77,31.76,1025.66,35.30,37.10,0,0,"$GNGGA,170910.000,4900.5222,N,00825.4482,E,0,0,,129.5,M,47.9,M,,*59",,,,
2022-01-13T18:09:35+01:00,48,27.73,31.38,1025.92,36.40,38.30,0,0,"$GNGGA,170930.000,4900.5222,N,00825.4482,E,0,0,,129.5,M,47.9,M,,*5B",,,,
2022-01-13T18:09:56+01:00,49,27.70,31.62,1026.12,37.70,39.60,0,0,"$GNGGA,170951.000,4900.5222,N,00825.4482,E,0,0,,129.5,M,47.9,M,,*5C",,,,
2022-01-13T18:10:16+01:00,50,27.68,31.47,1026.27,36.40,38.30,0,0,"$GNGGA,171011.000,4900.5222,N,00825.4482,E,0,0,,129.5,M,47.9,M,,*50",,,,
2022-01-13T18:10:36+01:00,51,27.66,31.34,1026.37,36.50,38.40,0,0,"$GNGGA,171031.000,4900.5212,N,00825.4483,E,0,0,,129.5,M,47.9,M,,*50",,,,
2022-01-13T18:10:57+01:00,52,27.64,30.81,1026.42,35.80,37.60,0,0,"$GNGGA,171052.000,4900.5212,N,00825.4483,E,0,0,,129.5,M,47.9,M,,*55",,,,
2022-01-13T18:11:17+01:00,53,27.62,30.28,1026.48,36.30,38.20,0,0,"$GNGGA,171112.000,4900.5212,N,00825.4483,E,0,0,,129.5,M,47.9,M,,*50",,,,
2022-01-13T18:11:37+01:00,54,27.57,30.40,1026.50,35.90,37.70,0,0,"$GNGGA,171132.000,4900.5212,N,00825.4483,E,0,0,,129.5,M,47.9,M,,*52",,,,
2022-01-13T18:11:58+01:00,55,27.50,30.43,1026.52,36.30,38.20,0,0,"$GNGGA,171152.999,4900.5212,N,00825.4483,E,0,0,,129.5,M,47.9,M,,*5D",,,,
2022-01-13T18:12:19+01:00,56,27.42,30.31,1026.54,36.70,38.60,0,0,"$GNGGA,171212.999,4900.5212,N,00825.4483,E,0,0,,129.5,M,47.9,M,,*5A",,,,
2022-01-13T18:12:40+01:00,57,27.32,29.11,1026.54,36.10,38.00,0,0,"$GNGGA,171234.999,4900.5212,N,00825.4483,E,0,0,,129.5,M,47.9,M,,*5E",,,,
2022-01-13T18:13:01+01:00,58,27.23,29.68,1026.55,36.80,38.70,0,0,"$GNGGA,171255.999,4900.5212,N,00825.4483,E,0,0,,129.5,M,47.9,M,,*59",,,,
2022-01-13T18:13:21+01:00,59,27.16,29.33,1026.56,37.30,39.20,0,0,"$GNGGA,171315.999,4900.5212,N,00825.4483,E,0,0,,129.5,M,47.9,M,,*5C",,,,
2022-01-13T18:13:41+01:00,60,27.10,27.68,1026.59,38.10,40.10,0,0,"$GNGGA,171335.999,4900.5212,N,00825.4483,E,0,0,,129.5,M,47.9,M,,*5E",,,,
2022-01-13T18:14:04+01:00,61,27.05,24.75,1026.60,36.70,38.60,0,0,"$GNGGA,171358.999,4900.5212,N,00825.4483,E,0,0,,129.5,M,47.9,M,,*55",,,,
2022-01-13T18:14:25+01:00,62,26.99,25.40,1026.59,35.40,37.20,0,0,"$GNGGA,171419.999,4900.5212,N,00825.4483,E,0,0,,129.5,M,47.9,M,,*57",,,,
2022-01-13T18:14:46+01:00,63,26.94,25.05,1026.57,35.10,36.90,0,0,"$GNGGA,171440.999,4900.5212,N,00825.4483,E,0,0,,129.5,M,47.9,M,,*5B",,,,
2022-01-13T18:15:07+01:00,64,26.88,24.31,1026.55,36.30,38.20,0,0,"$GNGGA,171501.999,4900.5212,N,00825.4483,E,0,0,,129.5,M,47.9,M,,*5F",,,,
2022-01-13T18:15:27+01:00,65,26.80,23.31,1026.52,37.60,39.50,0,0,"$GNGGA,171521.999,4900.5212,N,00825.4483,E,0,0,,129.5,M,47.9,M,,*5D",,,,
2022-01-13T18:15:47+01:00,66,26.69,25.14,1026.50,39.00,41.00,0,0,"$GNGGA,171541.999,4900.5212,N,00825.4483,E,0,0,,129.5,M,47.9,M,,*5B",,,,
2022-01-13T18:16:08+01:00,67,26.56,25.80,1026.50,39.30,41.30,0,0,"$GNGGA,171602.999,4900.5212,N,00825.4483,E,0,0,,129.5,M,47.9,M,,*5F",,,,
2022-01-13T18:16:28+01:00,68,26.42,25.38,1026.50,38.30,40.30,0,0,"$GNGGA,171622.999,4900.5212,N,00825.4483,E,0,0,,129.5,M,47.9,M,,*5D",,,,
2022-01-13T18:16:48+01:00,69,26.29,26.93,1026.51,37.40,39.30,0,0,"$GNGGA,171642.999,4900.5212,N,00825.4483,E,0,0,,129.5,M,47.9,M,,*5B",,,,
2022-01-13T18:17:09+01:00,70,26.17,28.58,1026.53,36.30,38.20,0,0,"$GNGGA,171703.999,4900.5212,N,00825.4483,E,0,0,,129.5,M,47.9,M,,*5F",,,,
2022-01-13T18:17:29+01:00,71,26.06,29.15,1026.54,35.90,37.70,0,0,"$GNGGA,171723.999,4900.5212,N,00825.4483,E,0,0,,129.5,M,47.9,M,,*5D",,,,
2022-01-13T18:17:49+01:00,72,25.96,29.38,1026.55,35.60,37.40,0,0,"$GNGGA,171743.999,4900.5212,N,00825.4483,E,0,0,,129.5,M,47.9,M,,*5B",,,,
2022-01-13T18:18:10+01:00,73,25.87,29.50,1026.55,35.60,37.40,0,0,"$GNGGA,171804.999,4900.5212,N,00825.4483,E,0,0,,129.5,M,47.9,M,,*57",,,,
2022-01-13T18:18:30+01:00,74,25.77,29.57,1026.56,35.50,37.30,0,0,"$GNGGA,171824.999,4900.5212,N,00825.4483,E,0,0,,129.5,M,47.9,M,,*55",,,,
2022-01-13T18:18:50+01:00,75,25.68,29.64,1026.56,37.00,38.90,0,0,"$GNGGA,171844.999,4900.5212,N,00825.4483,E,0,0,,129.5,M,47.9,M,,*53",,,,
2022-01-13T18:19:11+01:00,76,25.59,29.71,1026.56,37.30,39.20,0,0,"$GNGGA,171905.999,4900.5212,N,00825.4483,E,0,0,,129.5,M,47.9,M,,*57",,,,
2022-01-13T18:19:31+01:00,77,25.50,29.74,1026.55,35.70,37.50,0,0,"$GNGGA,171925.999,4900.5212,N,00825.4483,E,0,0,,129.5,M,47.9,M,,*55",,,,
2022-01-13T18:19:51+01:00,78,25.41,29.79,1026.55,34.30,36.10,0,0,"$GNGGA,171945.999,4900.5212,N,00825.4483,E,0,0,,129.5,M,47.9,M,,*53",,,,
2022-01-13T18:20:12+01:00,79,25.33,28.33,1026.54,34.00,35.80,0,0,"$GNGGA,172006.999,4900.5212,N,00825.4483,E,0,0,,129.5,M,47.9,M,,*5E",,,,
2022-01-13T18:20:32+01:00,80,25.25,26.66,1026.54,35.30,37.10,0,0,"$GNGGA,172026.999,4900.5212,N,00825.4483,E,0,0,,129.5,M,47.9,M,,*5C",,,,
2022-01-13T18:20:52+01:00,81,25.15,25.40,1026.53,36.20,38.10,0,0,"$GNGGA,172046.999,4900.5212,N,00825.4483,E,0,0,,129.5,M,47.9,M,,*5A",,,,
2022-01-13T18:21:13+01:00,82,25.03,25.41,1026.52,37.20,39.10,0,0,"$GNGGA,172107.999,4900.5212,N,00825.4483,E,0,0,,129.5,M,47.9,M,,*5E",,,,
2022-01-13T18:21:33+01:00,83,24.90,24.84,1026.49,38.90,40.90,0,0,"$GNGGA,172127.999,4900.5212,N,00825.4483,E,0,0,,129.5,M,47.9,M,,*5C",,,,
2022-01-13T18:21:53+01:00,84,24.77,24.63,1026.47,39.00,41.00,0,0,"$GNGGA,172147.999,4900.5212,N,00825.4483,E,0,0,,129.5,M,47.9,M,,*5A",,,,
2022-01-13T18:22:14+01:00,85,24.63,23.78,1026.44,37.70,39.60,0,0,"$GNGGA,172208.999,4900.5212,N,00825.4483,E,0,0,,129.5,M,47.9,M,,*52",,,,
2022-01-13T20:10:59+01:00,86,30.64,27.53,1024.82,149.70,157.20,0,0,"$GNGGA,191055.000,4900.5232,N,00825.4653,E,0,4,,136.5,M,47.9,M,,*5B",,,,
2022-01-13T20:11:20+01:00,87,30.42,28.22,1024.81,116.00,121.90,0,0,"$GNGGA,191116.000,4900.5206,N,00825.4490,E,0,0,,134.4,M,47.9,M,,*50",,,,
2022-01-13T20:11:40+01:00,88,30.19,29.55,1024.64,69.20,72.70,0,0,"$GNGGA,191136.000,4900.5217,N,00825.4489,E,0,0,,134.2,M,47.9,M,,*5C",,,,
2022-01-13T20:12:01+01:00,89,29.96,29.65,1024.51,60.50,63.60,0,0,"$GNGGA,191157.000,4900.5217,N,00825.4489,E,0,0,,134.2,M,47.9,M,,*5B",,,,
2022-01-13T20:12:21+01:00,90,29.73,29.35,1024.50,43.00,45.20,0,0,"$GNGGA,191217.000,4900.5217,N,00825.4489,E,0,0,,134.2,M,47.9,M,,*5C",,,,
2022-01-13T20:12:41+01:00,91,29.50,26.30,1024.51,43.40,45.60,0,0,"$GNGGA,191237.000,4900.5217,N,00825.4489,E,0,0,,134.2,M,47.9,M,,*5E",,,,
2022-01-13T20:13:01+01:00,92,29.28,27.74,1024.50,37.80,39.70,0,0,"$GNGGA,191257.000,4900.5219,N,00825.4502,E,0,0,,134.4,M,47.9,M,,*52",,,,
2022-01-13T20:13:21+01:00,93,29.08,28.20,1024.49,33.10,34.80,0,0,"$GNGGA,191317.000,4900.5220,N,00825.4508,E,0,0,,134.4,M,47.9,M,,*57",,,,
2022-01-13T20:13:41+01:00,94,28.91,28.68,1024.50,32.10,33.80,0,0,"$GNGGA,191337.000,4900.5220,N,00825.4508,E,0,0,,134.4,M,47.9,M,,*55",,,,
2022-01-13T20:14:01+01:00,95,28.76,29.20,1024.88,33.50,35.20,0,0,"$GNGGA,191357.000,4900.5220,N,00825.4508,E,0,0,,134.4,M,47.9,M,,*53",,,,
2022-01-13T20:14:21+01:00,96,28.61,27.88,1025.20,35.70,37.50,0,0,"$GNGGA,191417.000,4900.5220,N,00825.4508,E,0,0,,134.4,M,47.9,M,,*50",,,,
2022-01-13T20:14:41+01:00,97,28.47,28.64,1025.44,36.90,38.80,0,0,"$GNGGA,191437.000,4900.5220,N,00825.4508,E,0,0,,134.4,M,47.9,M,,*52",,,,
2022-01-13T20:15:01+01:00,98,28.29,27.41,1025.62,39.00,41.00,0,0,"$GNGGA,191457.000,4900.5220,N,00825.4513,E,0,0,,134.4,M,47.9,M,,*5E",,,,
2022-01-13T20:15:21+01:00,99,28.07,21.05,1025.76,42.40,44.60,0,0,"$GNGGA,191517.000,4900.5220,N,00825.4513,E,0,0,,134.4,M,47.9,M,,*5B",,,,
2022-01-13T20:15:41+01:00,100,27.89,21.48,1025.85,45.50,47.80,0,0,"$GNGGA,191537.000,4900.5220,N,00825.4513,E,0,0,,134.4,M,47.9,M,,*59",,,,
2022-01-13T20:16:02+01:00,101,27.73,23.32,1025.92,44.20,46.50,0,0,"$GNGGA,191558.000,4900.5220,N,00825.4513,E,0,0,,134.4,M,47.9,M,,*50",,,,
2022-01-13T20:16:23+01:00,102,27.59,24.78,1025.96,38.60,40.60,0,0,"$GNGGA,191618.000,4900.5220,N,00825.4513,E,0,0,,134.4,M,47.9,M,,*57",,,,
2022-01-13T20:16:42+01:00,103,27.44,24.43,1025.99,35.20,37.00,0,0,"$GNGGA,191638.000,4900.5220,N,00825.4513,E,0,0,,134.4,M,47.9,M,,*55",,,,
2022-01-13T20:17:04+01:00,104,27.24,22.65,1026.03,36.20,38.10,0,0,"$GNGGA,191659.000,4900.5222,N,00825.4528,E,0,0,,134.4,M,47.9,M,,*58",,,,
2022-01-13T20:17:23+01:00,105,27.00,19.88,1026.06,41.20,43.30,0,0,"$GNGGA,191719.000,4900.5222,N,00825.4528,E,0,0,,134.4,M,47.9,M,,*5D",,,,
2022-01-13T20:17:43+01:00,106,26.76,19.35,1026.07,43.60,45.80,0,0,"$GNGGA,191739.000,4900.5222,N,00825.4528,E,0,0,,134.4,M,47.9,M,,*5F",,,,
2022-01-13T20:18:03+01:00,107,26.52,19.51,1026.09,46.10,48.50,0,0,"$GNGGA,191759.000,4900.5222,N,00825.4528,E,0,0,,134.4,M,47.9,M,,*59",,,,
2022-01-13T20:18:23+01:00,108,26.33,20.05,1026.10,46.00,48.40,0,0,"$GNGGA,191819.000,4900.5222,N,00825.4528,E,0,0,,134.4,M,47.9,M,,*52",,,,
2022-01-13T20:18:43+01:00,109,26.18,19.96,1026.11,45.50,47.80,0,0,"$GNGGA,191839.000,4900.5222,N,00825.4528,E,0,0,,134.4,M,47.9,M,,*50",,,,
2022-01-13T20:19:03+01:00,110,25.96,19.40,1026.12,47.30,49.70,0,0,"$GNGGA,191859.000,4900.5222,N,00825.4528,E,0,0,,134.4,M,47.9,M,,*56",,,,
2022-01-13T20:19:23+01:00,111,25.56,19.25,1026.12,47.00,49.40,0,0,"$GNGGA,191919.000,4900.5222,N,00825.4528,E,0,0,,134.4,M,47.9,M,,*53",,,,
2022-01-13T20:19:43+01:00,112,25.23,19.90,1026.13,47.50,49.90,0,0,"$GNGGA,191939.000,4900.5222,N,00825.4528,E,0,0,,134.4,M,47.9,M,,*51",,,,
2022-01-13T20:20:04+01:00,113,24.87,20.06,1026.13,46.20,48.60,0,0,"$GNGGA,192000.000,4900.5222,N,00825.4528,E,0,0,,134.4,M,47.9,M,,*51",,,,
2022-01-13T20:20:24+01:00,114,24.52,20.21,1026.14,46.90,49.30,0,0,"$GNGGA,192020.000,4900.5222,N,00825.4528,E,0,0,,134.4,M,47.9,M,,*53",,,,
2022-01-13T20:20:44+01:00,115,24.27,20.75,1026.14,46.40,48.80,0,0,"$GNGGA,192040.000,4900.5222,N,00825.4528,E,0,0,,134.4,M,47.9,M,,*55",,,,
2022-01-13T20:21:04+01:00,116,24.04,20.79,1026.14,46.30,48.70,0,0,"$GNGGA,192100.000,4900.5222,N,00825.4528,E,0,0,,134.4,M,47.9,M,,*50",,,,
2022-01-13T20:21:24+01:00,117,23.86,21.11,1026.14,45.20,47.50,0,0,"$GNGGA,192120.000,4900.5222,N,00825.4528,E,0,0,,134.4,M,47.9,M,,*52",,,,
2022-01-13T20:21:44+01:00,118,23.66,21.15,1026.14,45.40,47.70,0,0,"$GNGGA,192140.000,4900.5222,N,00825.4528,E,0,0,,134.4,M,47.9,M,,*54",,,,
2022-01-13T20:22:05+01:00,119,23.38,21.05,1026.13,43.40,45.60,0,0,"$GNGGA,192201.000,4900.5222,N,00825.4528,E,0,0,,134.4,M,47.9,M,,*52",,,,
2022-01-13T20:22:25+01:00,120,23.16,21.45,1026.13,44.70,47.00,0,0,"$GNGGA,192221.000,4900.5222,N,00825.4528,E,0,0,,134.4,M,47.9,M,,*50",,,,
2022-01-13T20:22:46+01:00,121,22.92,21.75,1026.11,44.70,47.00,0,0,"$GNGGA,192241.000,4900.5222,N,00825.4528,E,0,0,,134.4,M,47.9,M,,*56",,,,
2022-01-13T20:23:07+01:00,122,22.61,21.73,1026.09,46.70,49.10,0,0,"$GNGGA,192302.000,4900.5222,N,00825.4528,E,0,0,,134.4,M,47.9,M,,*50",,,,
2022-01-13T20:23:27+01:00,123,22.27,22.12,1026.08,46.30,48.70,0,0,"$GNGGA,192323.000,4900.5222,N,00825.4528,E,0,0,,134.4,M,47.9,M,,*53",,,,
2022-01-13T20:23:47+01:00,124,21.93,22.45,1026.07,45.50,47.80,0,0,"$GNGGA,192343.000,4900.5222,N,00825.4528,E,0,0,,134.4,M,47.9,M,,*55",,,,
2022-01-13T20:24:08+01:00,125,21.64,22.77,1026.07,43.50,45.70,0,0,"$GNGGA,192404.000,4900.5222,N,00825.4528,E,0,0,,134.4,M,47.9,M,,*51",,,,
2022-01-13T20:24:28+01:00,126,21.40,23.03,1026.06,43.50,45.70,0,0,"$GNGGA,192424.000,4900.5222,N,00825.4528,E,0,0,,134.4,M,47.9,M,,*53",,,,
2022-01-13T20:24:49+01:00,127,21.15,23.16,1026.04,45.00,47.30,0,0,"$GNGGA,192445.000,4900.5222,N,00825.4528,E,0,0,,134.4,M,47.9,M,,*54",,,,
2022-01-13T20:25:09+01:00,128,20.96,23.38,1026.04,45.10,47.40,0,0,"$GNGGA,192505.000,4900.5222,N,00825.4528,E,0,0,,134.4,M,47.9,M,,*51",,,,
2022-01-13T20:25:29+01:00,129,20.79,23.50,1026.02,43.60,45.80,0,0,"$GNGGA,192525.000,4900.5222,N,00825.4528,E,0,0,,134.4,M,47.9,M,,*53",,,,
2022-01-13T20:25:50+01:00,130,20.53,23.61,1026.01,42.50,44.70,0,0,"$GNGGA,192546.000,4900.5222,N,00825.4528,E,0,0,,134.4,M,47.9,M,,*56",,,,
2022-01-13T20:26:10+01:00,131,20.18,24.04,1026.00,44.30,46.60,0,0,"$GNGGA,192606.000,4900.5222,N,00825.4528,E,0,0,,134.4,M,47.9,M,,*51",,,,
2022-01-13T20:26:31+01:00,132,19.79,24.68,1026.01,46.10,48.50,0,0,"$GNGGA,192626.000,4900.5222,N,00825.4528,E,0,0,,134.4,M,47.9,M,,*53",,,,
2022-01-13T20:26:52+01:00,133,19.43,25.33,1026.02,47.20,49.60,0,0,"$GNGGA,192648.000,4900.5222,N,00825.4528,E,0,0,,134.4,M,47.9,M,,*5B",,,,
2022-01-13T20:27:12+01:00,134,19.09,25.70,1026.02,49.30,51.80,0,0,"$GNGGA,192708.000,4900.5222,N,00825.4528,E,0,0,,134.4,M,47.9,M,,*5E",,,,
2022-01-13T20:27:32+01:00,135,18.80,25.99,1026.03,48.40,50.90,0,0,"$GNGGA,192728.000,4900.5222,N,00825.4528,E,0,0,,134.4,M,47.9,M,,*5C",,,,
2022-01-13T20:27:53+01:00,136,18.52,26.24,1026.03,47.00,49.40,0,0,"$GNGGA,192749.000,4900.5222,N,00825.4528,E,0,0,,134.4,M,47.9,M,,*5B",,,,
2022-01-13T20:28:14+01:00,137,18.27,26.58,1026.05,46.30,48.70,0,0,"$GNGGA,192810.000,4900.5222,N,00825.4528,E,0,0,,134.4,M,47.9,M,,*58",,,,
2022-01-13T20:28:34+01:00,138,18.01,26.83,1026.04,46.70,49.10,0,0,"$GNGGA,192830.000,4900.5222,N,00825.4528,E,0,0,,134.4,M,47.9,M,,*5A",,,,
2022-01-13T20:28:55+01:00,139,17.72,27.29,1026.07,46.30,48.70,0,0,"$GNGGA,192851.000,4900.5222,N,00825.4528,E,0,0,,134.4,M,47.9,M,,*5D",,,,
2022-01-13T20:29:16+01:00,140,17.42,27.61,1026.09,46.80,49.20,0,0,"$GNGGA,192912.000,4900.5222,N,00825.4528,E,0,0,,134.4,M,47.9,M,,*5B",,,,
2022-01-13T20:29:36+01:00,141,17.15,28.03,1026.11,46.10,48.50,0,0,"$GNGGA,192932.000,4900.5222,N,00825.4528,E,0,0,,134.4,M,47.9,M,,*59",,,,
2022-01-13T20:29:56+01:00,142,16.93,28.36,1026.10,46.60,49.00,0,0,"$GNGGA,192952.000,4900.5222,N,00825.4528,E,0,0,,134.4,M,47.9,M,,*5F",,,,
2022-01-13T20:30:17+01:00,143,16.64,28.60,1026.11,45.60,47.90,0,0,"$GNGGA,193013.000,4900.5222,N,00825.4528,E,0,0,,134.4,M,47.9,M,,*52",,,,
2022-01-13T20:30:41+01:00,144,16.44,29.03,1026.12,46.00,48.40,0,0,"$GNGGA,193033.000,4900.5222,N,00825.4528,E,0,0,,134.4,M,47.9,M,,*50",,,,
