created_at,entry_id,field1,field2,field3,field4,field5,field6,field7,field8,latitude,longitude,elevation,status
2022-03-01T14:13:41+01:00,1,21.27,15.63,1015.19,33.10,34.80,0,-127.00,"$GNGGA,131337.090,4900.6989,N,00825.3764,E,0,0,,116.0,M,47.9,M,,*56",,,,
2022-03-01T14:14:02+01:00,2,20.77,14.96,1015.19,30.80,32.40,0,-127.00,"$GNGGA,131357.090,4858.1765,N,00924.8361,E,0,2,,489.2,M,48.0,M,,*58",,,,
2022-03-01T14:14:22+01:00,3,20.17,14.78,1015.21,30.70,32.30,0,-127.00,"$GNGGA,131417.090,4856.9536,N,00955.4578,E,0,2,,197.2,M,48.0,M,,*57",,,,
2022-03-01T14:14:43+01:00,4,19.46,15.14,1015.20,29.40,30.90,0,-127.00,"$GNGGA,131438.090,4856.3071,N,01010.0447,E,0,1,,308.3,M,48.0,M,,*50",,,,
2022-03-01T14:15:03+01:00,5,18.80,15.71,1015.21,30.30,31.90,0,-127.00,"$GNGGA,131458.090,4856.4262,N,01010.7711,E,0,3,,335.0,M,48.0,M,,*59",,,,
2022-03-01T14:15:23+01:00,6,18.13,16.17,1015.21,30.60,32.20,0,-127.00,"$GNGGA,131518.090,4856.4262,N,01010.7711,E,0,3,,335.0,M,48.0,M,,*5C",,,,
2022-03-01T14:15:45+01:00,7,17.59,16.78,1015.21,30.40,32.00,0,-127.00,"$GNGGA,131540.000,4900.4357,N,00825.5799,E,1,4,2.18,165.8,M,47.9,M,,*4A",,,,
2022-03-01T14:16:05+01:00,8,17.29,17.24,1015.20,30.00,31.60,0,-127.00,"$GNGGA,131600.000,4900.4356,N,00825.5972,E,1,4,2.18,156.7,M,47.9,M,,*48",,,,
2022-03-01T14:16:27+01:00,9,17.06,17.22,1015.20,29.50,31.00,0,-127.00,"$GNGGA,131622.000,4900.4281,N,00825.6248,E,1,7,1.25,168.0,M,47.9,M,,*46",,,,
2022-03-01T14:16:50+01:00,10,16.88,16.82,1015.19,29.90,31.40,0,-127.00,"$GNGGA,131644.000,4900.4207,N,00825.6422,E,1,7,1.25,167.6,M,47.9,M,,*4B",,,,
2022-03-01T14:17:13+01:00,11,16.72,17.25,1015.18,29.60,31.10,0,-127.00,"$GNGGA,131707.000,4900.4127,N,00825.6644,E,1,7,1.25,167.3,M,47.9,M,,*4B",,,,
2022-03-01T14:17:57+01:00,12,16.50,16.75,1015.17,29.00,30.50,0,-127.00,"$GNGGA,131751.000,4900.4095,N,00825.7183,E,1,7,1.25,166.8,M,47.9,M,,*47",,,,
2022-03-01T14:18:24+01:00,13,16.44,17.20,1015.15,29.80,31.30,0,-127.00,"$GNGGA,131819.000,4900.4045,N,00825.7477,E,1,7,1.25,165.2,M,47.9,M,,*4E",,,,
2022-03-01T14:18:49+01:00,14,16.41,16.85,1015.12,30.10,31.70,0,-127.00,"$GNGGA,131844.000,4900.3948,N,00825.7665,E,1,7,1.25,161.9,M,47.9,M,,*4B",,,,
2022-03-01T14:19:10+01:00,15,16.32,16.66,1015.12,29.70,31.20,0,-127.00,"$GNGGA,131905.000,4900.3895,N,00825.7878,E,1,7,1.25,163.5,M,47.9,M,,*42",,,,
2022-03-01T14:19:31+01:00,16,16.22,16.66,1015.11,29.50,31.00,0,-127.00,"$GNGGA,131926.000,4900.3831,N,00825.8068,E,1,7,1.25,161.7,M,47.9,M,,*4B",,,,
2022-03-01T14:19:53+01:00,17,15.98,16.61,1015.11,29.50,31.00,0,-127.00,"$GNGGA,131948.000,4900.3809,N,00825.8309,E,2,7,1.25,159.1,M,47.9,M,,*42",,,,
2022-03-01T14:28:03+01:00,18,13.54,21.99,1014.96,31.00,32.60,0,-127.00,"$GNGGA,132756.000,4900.3034,N,00826.3225,E,1,5,1.84,127.8,M,47.9,M,,*4B",,,,
2022-03-01T14:28:25+01:00,19,13.26,21.57,1014.97,30.80,32.40,0,-127.00,"$GNGGA,132819.000,4900.3069,N,00826.3474,E,1,5,1.84,133.0,M,47.9,M,,*48",,,,
2022-03-01T14:29:11+01:00,20,14.27,20.40,1014.84,32.40,34.10,0,-127.00,"$GNGGA,132906.000,4900.2964,N,00826.3882,E,1,5,1.84,126.8,M,47.9,M,,*4B",,,,
2022-03-01T14:29:31+01:00,21,14.14,20.04,1014.85,29.50,31.00,0,-127.00,"$GNGGA,132926.000,4900.2943,N,00826.4136,E,1,5,1.85,130.5,M,47.9,M,,*46",,,,
2022-03-01T14:29:52+01:00,22,14.12,19.92,1014.87,30.00,31.60,0,-127.00,"$GNGGA,132947.000,4900.2920,N,00826.4403,E,1,5,1.85,131.7,M,47.9,M,,*44",,,,
2022-03-01T14:30:12+01:00,23,14.19,20.17,1014.87,28.70,30.20,0,-127.00,"$GNGGA,133007.000,4900.2847,N,00826.4622,E,1,5,1.85,141.9,M,47.9,M,,*40",,,,
2022-03-01T14:30:33+01:00,24,14.29,20.58,1014.86,28.90,30.40,0,-127.00,"$GNGGA,133028.000,4900.2802,N,00826.4859,E,1,5,1.85,145.7,M,47.9,M,,*44",,,,
2022-03-01T14:30:54+01:00,25,14.44,20.50,1014.85,27.60,29.00,0,-127.00,"$GNGGA,133049.000,4900.2736,N,00826.5092,E,1,5,1.85,152.3,M,47.9,M,,*47",,,,
2022-03-01T14:31:14+01:00,26,14.59,20.35,1014.83,26.70,28.10,0,-127.00,"$GNGGA,133109.000,4900.2720,N,00826.5321,E,1,5,1.86,156.5,M,47.9,M,,*4F",,,,
2022-03-01T14:31:34+01:00,27,14.66,19.38,1014.83,27.70,29.10,0,-127.00,"$GNGGA,133129.000,4900.2695,N,00826.5513,E,1,5,1.86,150.0,M,47.9,M,,*46",,,,
2022-03-01T14:31:55+01:00,28,14.74,18.73,1014.80,27.10,28.50,0,-127.00,"$GNGGA,133150.000,4900.2632,N,00826.5566,E,1,5,1.86,146.3,M,47.9,M,,*43",,,,
2022-03-01T14:32:15+01:00,29,14.81,18.53,1014.78,27.40,28.80,0,-127.00,"$GNGGA,133210.000,4900.2663,N,00826.5488,E,1,9,1.05,131.6,M,47.9,M,,*43",,,,
2022-03-01T14:32:35+01:00,30,14.85,18.31,1014.75,26.60,28.00,0,-127.00,"$GNGGA,133230.000,4900.2616,N,00826.5659,E,1,9,1.05,131.9,M,47.9,M,,*42",,,,
2022-03-01T14:32:56+01:00,31,14.76,18.24,1014.73,28.10,29.60,0,-127.00,"$GNGGA,133251.000,4900.2579,N,00826.5787,E,1,9,1.05,128.3,M,47.9,M,,*4F",,,,
2022-03-01T14:33:16+01:00,32,14.61,18.54,1014.72,28.10,29.60,0,-127.00,"$GNGGA,133311.000,4900.2522,N,00826.6000,E,1,8,1.29,126.2,M,47.9,M,,*4F",,,,
2022-03-01T14:33:36+01:00,33,14.50,18.82,1014.68,27.90,29.30,0,-127.00,"$GNGGA,133331.000,4900.2466,N,00826.6230,E,1,8,1.29,127.4,M,47.9,M,,*4A",,,,
2022-03-01T14:33:57+01:00,34,14.24,18.83,1014.64,27.20,28.60,0,-127.00,"$GNGGA,133352.000,4900.2414,N,00826.6461,E,1,8,1.29,128.1,M,47.9,M,,*42",,,,
2022-03-01T14:34:18+01:00,35,13.90,19.60,1014.57,26.30,27.70,0,-127.00,"$GNGGA,133413.000,4900.2335,N,00826.6686,E,2,8,1.30,127.4,M,47.9,M,,*4E",,,,
2022-03-01T14:34:39+01:00,36,13.56,20.30,1014.54,26.40,27.80,0,-127.00,"$GNGGA,133434.000,4900.2266,N,00826.6910,E,2,9,1.05,124.1,M,47.9,M,,*4D",,,,
2022-03-01T14:35:00+01:00,37,13.27,20.22,1014.49,26.60,28.00,0,-127.00,"$GNGGA,133455.000,4900.2240,N,00826.7133,E,2,9,1.05,125.3,M,47.9,M,,*45",,,,
2022-03-01T14:35:20+01:00,38,13.03,19.95,1014.44,26.50,27.90,0,-127.00,"$GNGGA,133515.000,4900.2202,N,00826.7315,E,2,9,1.05,121.0,M,47.9,M,,*47",,,,
2022-03-01T14:35:40+01:00,39,12.90,20.07,1014.41,25.90,27.20,0,-127.00,"$GNGGA,133535.000,4900.2177,N,00826.7476,E,2,9,1.05,118.4,M,47.9,M,,*48",,,,
2022-03-01T14:36:01+01:00,40,12.82,20.22,1014.40,25.90,27.20,0,-127.00,"$GNGGA,133556.000,4900.2152,N,00826.7702,E,2,9,1.05,116.3,M,47.9,M,,*43",,,,
2022-03-01T14:36:21+01:00,41,12.74,20.03,1014.44,27.00,28.40,0,-127.00,"$GNGGA,133616.000,4900.2127,N,00826.7908,E,2,9,1.05,111.2,M,47.9,M,,*44",,,,
2022-03-01T14:36:42+01:00,42,12.68,20.47,1014.50,27.40,28.80,0,-127.00,"$GNGGA,133637.000,4900.2125,N,00826.8137,E,2,8,1.63,109.3,M,47.9,M,,*47",,,,
2022-03-01T14:37:03+01:00,43,12.62,20.16,1014.62,27.50,28.90,0,-127.00,"$GNGGA,133658.000,4900.2156,N,00826.8300,E,2,8,1.63,106.9,M,47.9,M,,*49",,,,
2022-03-01T14:37:24+01:00,44,12.52,19.51,1014.72,26.60,28.00,0,-127.00,"$GNGGA,133719.000,4900.2311,N,00826.8366,E,2,9,1.05,104.9,M,47.9,M,,*4F",,,,
2022-03-01T14:37:45+01:00,45,12.49,19.09,1014.81,25.60,26.90,0,-127.00,"$GNGGA,133740.000,4900.2436,N,00826.8467,E,2,8,1.63,106.4,M,47.9,M,,*49",,,,
2022-03-01T14:38:06+01:00,46,12.51,18.71,1014.83,25.40,26.70,0,-127.00,"$GNGGA,133801.000,4900.2516,N,00826.8634,E,2,8,1.63,106.2,M,47.9,M,,*42",,,,
2022-03-01T14:38:26+01:00,47,12.62,18.75,1014.85,26.50,27.90,0,-127.00,"$GNGGA,133821.000,4900.2598,N,00826.8770,E,2,9,1.05,103.8,M,47.9,M,,*49",,,,
2022-03-01T15:21:14+01:00,48,25.54,13.78,1014.68,32.60,34.30,0,-127.00,"$GNGGA,142109.000,4900.2460,N,00826.9551,E,1,5,1.95,135.1,M,47.9,M,,*40",,,,
2022-03-01T15:21:34+01:00,49,25.37,13.16,1014.68,30.30,31.90,0,-127.00,"$GNGGA,142129.000,4900.2415,N,00826.9423,E,1,6,1.80,126.2,M,47.9,M,,*42",,,,
2022-03-01T15:21:54+01:00,50,25.30,13.32,1014.70,30.40,32.00,0,-127.00,"$GNGGA,142149.000,4900.2364,N,00826.9279,E,1,7,1.27,123.3,M,47.9,M,,*44",,,,
2022-03-01T15:22:15+01:00,51,25.26,12.46,1014.73,28.60,30.10,0,-127.00,"$GNGGA,142210.000,4900.2386,N,00826.9080,E,1,8,1.23,126.3,M,47.9,M,,*4D",,,,
2022-03-01T15:22:35+01:00,52,25.24,11.46,1014.75,29.20,30.70,0,-127.00,"$GNGGA,142230.000,4900.2409,N,00826.8882,E,1,8,1.23,126.3,M,47.9,M,,*44",,,,
2022-03-01T15:22:56+01:00,53,25.26,11.57,1014.77,29.20,30.70,0,-127.00,"$GNGGA,142251.000,4900.2398,N,00826.8702,E,1,9,0.96,124.4,M,47.9,M,,*40",,,,
2022-03-01T15:23:17+01:00,54,25.23,11.05,1014.78,29.50,31.00,0,-127.00,"$GNGGA,142312.000,4900.2299,N,00826.8606,E,1,9,0.96,125.7,M,47.9,M,,*41",,,,
2022-03-01T15:23:37+01:00,55,25.20,11.21,1014.78,30.00,31.60,0,-127.00,"$GNGGA,142332.000,4900.2203,N,00826.8503,E,1,9,0.96,123.3,M,47.9,M,,*44",,,,
2022-03-01T15:23:58+01:00,56,25.10,11.36,1014.76,30.00,31.60,0,-127.00,"$GNGGA,142353.000,4900.2213,N,00826.8271,E,1,9,0.96,126.7,M,47.9,M,,*41",,,,
2022-03-01T15:24:19+01:00,57,25.09,11.96,1014.70,29.80,31.30,0,-127.00,"$GNGGA,142414.000,4900.2237,N,00826.8068,E,1,9,0.96,125.6,M,47.9,M,,*4B",,,,
2022-03-01T15:24:39+01:00,58,25.01,11.62,1014.61,30.50,32.10,0,-127.00,"$GNGGA,142434.000,4900.2252,N,00826.7856,E,1,9,0.99,125.4,M,47.9,M,,*4D",,,,
2022-03-01T15:24:59+01:00,59,24.79,11.14,1014.50,31.80,33.40,0,-127.00,"$GNGGA,142454.000,4900.2252,N,00826.7658,E,1,9,0.96,129.0,M,47.9,M,,*4C",,,,
2022-03-01T15:25:20+01:00,60,24.53,11.09,1014.40,31.70,33.30,0,-127.00,"$GNGGA,142515.000,4900.2262,N,00826.7441,E,1,9,0.96,128.2,M,47.9,M,,*42",,,,
2022-03-01T15:25:40+01:00,61,24.37,11.28,1014.33,30.90,32.50,0,-127.00,"$GNGGA,142535.000,4900.2287,N,00826.7248,E,1,9,0.96,128.1,M,47.9,M,,*47",,,,
2022-03-01T15:26:01+01:00,62,24.29,11.35,1014.28,30.80,32.40,0,-127.00,"$GNGGA,142556.000,4900.2326,N,00826.7029,E,1,9,0.95,130.6,M,47.9,M,,*40",,,,
2022-03-01T15:26:22+01:00,63,24.31,11.57,1014.25,31.30,32.90,0,-127.00,"$GNGGA,142617.000,4900.2364,N,00826.6819,E,1,9,0.95,126.9,M,47.9,M,,*42",,,,
2022-03-01T15:26:43+01:00,64,24.38,11.62,1014.25,29.60,31.10,0,-127.00,"$GNGGA,142638.000,4900.2416,N,00826.6614,E,1,9,0.95,126.0,M,47.9,M,,*47",,,,
2022-03-01T15:27:04+01:00,65,24.48,11.97,1014.25,28.60,30.10,0,-127.00,"$GNGGA,142659.000,4900.2467,N,00826.6419,E,1,9,0.95,125.5,M,47.9,M,,*4F",,,,
2022-03-01T15:27:25+01:00,66,24.57,11.49,1014.26,28.50,30.00,0,-127.00,"$GNGGA,142720.000,4900.2511,N,00826.6228,E,1,9,0.95,123.8,M,47.9,M,,*4F",,,,
2022-03-01T15:27:45+01:00,67,24.64,11.05,1014.29,31.40,33.00,0,-127.00,"$GNGGA,142740.000,4900.2551,N,00826.6045,E,1,9,0.95,121.9,M,47.9,M,,*47",,,,
2022-03-01T15:28:06+01:00,68,24.68,11.69,1014.32,31.60,33.20,0,-127.00,"$GNGGA,142801.000,4900.2594,N,00826.5839,E,1,9,1.03,121.6,M,47.9,M,,*45",,,,
2022-03-01T15:28:27+01:00,69,24.56,10.95,1014.36,31.20,32.80,0,-127.00,"$GNGGA,142822.000,4900.2597,N,00826.5651,E,1,9,0.95,122.0,M,47.9,M,,*4C",,,,
2022-03-01T15:28:47+01:00,70,24.50,11.03,1014.40,28.60,30.10,0,-127.00,"$GNGGA,142842.000,4900.2595,N,00826.5535,E,1,9,1.17,122.5,M,47.9,M,,*47",,,,
2022-03-01T15:29:08+01:00,71,24.51,10.91,1014.43,27.80,29.20,0,-127.00,"$GNGGA,142903.000,4900.2584,N,00826.5538,E,1,10,0.92,122.4,M,47.9,M,,*7B",,,,
2022-03-01T15:29:29+01:00,72,24.54,11.43,1014.44,30.10,31.70,0,-127.00,"$GNGGA,142924.000,4900.2592,N,00826.5537,E,1,10,0.91,122.6,M,47.9,M,,*77",,,,
2022-03-01T15:29:49+01:00,73,24.52,11.15,1014.46,32.20,33.90,0,-127.00,"$GNGGA,142944.000,4900.2599,N,00826.5443,E,1,10,0.95,119.6,M,47.9,M,,*74",,,,
2022-03-01T15:30:09+01:00,74,24.10,10.46,1014.48,32.50,34.20,0,-127.00,"$GNGGA,143004.000,4900.2734,N,00826.5283,E,1,10,0.90,116.2,M,47.9,M,,*79",,,,
2022-03-01T15:30:30+01:00,75,23.65,10.79,1014.51,31.20,32.80,0,-127.00,"$GNGGA,143025.000,4900.2796,N,00826.5088,E,1,10,0.90,116.1,M,47.9,M,,*78",,,,
2022-03-01T15:30:51+01:00,76,23.19,11.19,1014.51,30.20,31.80,0,-127.00,"$GNGGA,143046.000,4900.2811,N,00826.4877,E,1,10,0.90,116.6,M,47.9,M,,*73",,,,
2022-03-01T15:31:12+01:00,77,22.77,11.68,1014.53,31.70,33.30,0,-127.00,"$GNGGA,143107.000,4900.2838,N,00826.4642,E,1,10,0.90,121.1,M,47.9,M,,*77",,,,
2022-03-01T15:31:33+01:00,78,22.19,12.03,1014.56,32.20,33.90,0,-127.00,"$GNGGA,143128.000,4900.2864,N,00826.4419,E,1,10,0.90,123.9,M,47.9,M,,*75",,,,
2022-03-01T15:31:54+01:00,79,21.44,12.18,1014.59,31.90,33.50,0,-127.00,"$GNGGA,143149.000,4900.2914,N,00826.4208,E,1,10,0.90,122.5,M,47.9,M,,*7F",,,,
2022-03-01T15:33:05+01:00,80,19.06,13.47,1014.67,30.00,31.60,0,-127.00,"$GNGGA,143300.000,4900.2991,N,00826.3412,E,1,7,1.12,151.8,M,47.9,M,,*43",,,,
2022-03-01T15:33:26+01:00,81,19.05,13.51,1014.69,32.10,33.80,0,-127.00,"$GNGGA,143321.000,4900.3042,N,00826.3242,E,1,7,1.12,141.2,M,47.9,M,,*4E",,,,
2022-03-01T15:33:46+01:00,82,19.15,13.43,1014.71,33.00,34.70,0,-127.00,"$GNGGA,143341.000,4900.3049,N,00826.3049,E,1,7,1.12,137.2,M,47.9,M,,*4B",,,,
2022-03-01T15:34:07+01:00,83,19.31,13.72,1014.73,30.50,32.10,0,-127.00,"$GNGGA,143402.000,4900.3080,N,00826.2881,E,1,7,1.12,132.9,M,47.9,M,,*4D",,,,
2022-03-01T15:34:28+01:00,84,19.31,13.34,1014.75,31.00,32.60,0,-127.00,"$GNGGA,143423.000,4900.3153,N,00826.2686,E,1,7,1.12,133.7,M,47.9,M,,*47",,,,
2022-03-01T15:34:50+01:00,85,19.32,12.70,1014.76,35.20,37.00,0,-127.00,"$GNGGA,143445.000,4900.3175,N,00826.2688,E,1,7,1.12,134.6,M,47.9,M,,*4B",,,,
2022-03-01T15:35:12+01:00,86,19.49,12.96,1014.78,30.10,31.70,0,-127.00,"$GNGGA,143506.000,4900.3177,N,00826.2680,E,1,9,0.94,135.4,M,47.9,M,,*45",,,,
2022-03-01T15:35:40+01:00,87,19.64,13.01,1014.80,30.00,31.60,0,-127.00,"$GNGGA,143532.000,4900.3219,N,00826.2494,E,1,9,0.94,132.5,M,47.9,M,,*48",,,,
2022-03-01T15:36:35+01:00,88,21.67,13.22,1014.74,33.60,35.30,0,-127.00,"$GNGGA,143630.000,4900.3295,N,00826.1899,E,1,8,0.99,149.2,M,47.9,M,,*48",,,,
2022-03-01T15:36:56+01:00,89,21.50,12.88,1014.74,33.70,35.40,0,-127.00,"$GNGGA,143651.000,4900.3335,N,00826.1734,E,1,8,0.98,145.2,M,47.9,M,,*41",,,,
2022-03-01T15:37:19+01:00,90,21.37,12.72,1014.74,34.30,36.10,0,-127.00,"$GNGGA,143714.000,4900.3364,N,00826.1509,E,1,8,0.98,144.9,M,47.9,M,,*43",,,,
2022-03-01T15:37:40+01:00,91,21.30,12.96,1014.74,31.70,33.30,0,-127.00,"$GNGGA,143735.000,4900.3437,N,00826.1309,E,1,8,0.98,142.3,M,47.9,M,,*4B",,,,
2022-03-01T15:38:01+01:00,92,21.24,12.75,1014.76,30.20,31.80,0,-127.00,"$GNGGA,143756.000,4900.3448,N,00826.1076,E,1,8,0.98,136.4,M,47.9,M,,*49",,,,
2022-03-01T15:38:23+01:00,93,21.21,12.18,1014.76,30.20,31.80,0,-127.00,"$GNGGA,143818.000,4900.3486,N,00826.0865,E,1,8,0.98,133.5,M,47.9,M,,*41",,,,
2022-03-01T15:38:44+01:00,94,21.01,12.07,1014.76,31.50,33.10,0,-127.00,"$GNGGA,143839.000,4900.3522,N,00826.0666,E,1,8,0.98,129.7,M,47.9,M,,*49",,,,
2022-03-01T15:39:06+01:00,95,20.68,12.03,1014.74,32.30,34.00,0,-127.00,"$GNGGA,143900.000,4900.3550,N,00826.0471,E,1,8,0.98,122.9,M,47.9,M,,*46",,,,
2022-03-01T15:39:27+01:00,96,20.50,12.20,1014.74,35.20,37.00,0,-127.00,"$GNGGA,143922.000,4900.3642,N,00826.0258,E,1,8,1.26,118.3,M,47.9,M,,*4C",,,,
2022-03-01T15:39:48+01:00,97,20.30,12.36,1014.74,43.10,45.30,0,-127.00,"$GNGGA,143943.000,4900.3742,N,00826.0064,E,1,8,0.98,114.3,M,47.9,M,,*4F",,,,
2022-03-01T15:40:09+01:00,98,20.08,12.29,1014.75,36.50,38.40,0,-127.00,"$GNGGA,144004.000,4900.3708,N,00825.9878,E,1,8,0.98,120.2,M,47.9,M,,*45",,,,
2022-03-01T15:40:31+01:00,99,19.96,12.42,1014.75,36.00,37.90,0,-127.00,"$GNGGA,144026.000,4900.3751,N,00825.9637,E,1,8,0.98,120.4,M,47.9,M,,*4A",,,,
2022-03-01T15:40:52+01:00,100,19.92,12.45,1014.75,32.80,34.50,0,-127.00,"$GNGGA,144047.000,4900.3796,N,00825.9429,E,1,8,0.98,124.8,M,47.9,M,,*43",,,,
2022-03-01T15:41:19+01:00,101,19.58,12.43,1014.74,32.00,33.70,0,-127.00,"$GNGGA,144112.000,4900.3811,N,00825.9185,E,1,8,0.98,125.0,M,47.9,M,,*48",,,,
2022-03-01T15:41:41+01:00,102,19.26,12.78,1014.76,31.00,32.60,0,-127.00,"$GNGGA,144135.000,4900.3854,N,00825.8975,E,1,8,0.98,123.7,M,47.9,M,,*4B",,,,
2022-03-01T15:42:09+01:00,103,18.85,12.92,1014.76,31.80,33.40,0,-127.00,"$GNGGA,144203.000,4900.3894,N,00825.8672,E,1,8,0.98,124.7,M,47.9,M,,*4E",,,,
2022-03-01T15:42:33+01:00,104,18.60,13.14,1014.75,30.60,32.20,0,-127.00,"$GNGGA,144228.000,4900.3950,N,00825.8429,E,1,8,0.98,108.4,M,47.9,M,,*4F",,,,
2022-03-01T15:42:54+01:00,105,18.44,13.29,1014.75,26.90,28.30,0,-127.00,"$GNGGA,144249.000,4900.4014,N,00825.8228,E,1,8,0.98,105.4,M,47.9,M,,*4C",,,,
2022-03-01T15:43:15+01:00,106,18.32,13.27,1014.75,26.30,27.70,0,-127.00,"$GNGGA,144310.000,4900.4008,N,00825.8005,E,1,8,0.98,114.3,M,47.9,M,,*46",,,,
2022-03-01T15:43:36+01:00,107,18.19,13.19,1014.75,27.10,28.50,0,-127.00,"$GNGGA,144331.000,4900.4006,N,00825.7780,E,1,8,0.98,120.9,M,47.9,M,,*43",,,,
2022-03-01T15:44:18+01:00,108,18.11,13.37,1014.75,29.80,31.30,0,-127.00,"$GNGGA,144352.000,4900.4056,N,00825.7582,E,1,8,0.98,117.2,M,47.9,M,,*4C",,,,
2022-03-01T15:46:39+01:00,109,17.86,13.63,1014.77,29.50,31.00,0,-127.00,"$GNGGA,144634.000,4900.4323,N,00825.6297,E,1,9,0.91,116.0,M,47.9,M,,*41",,,,
2022-03-01T15:47:00+01:00,110,17.60,13.87,1014.78,31.40,33.00,0,-127.00,"$GNGGA,144655.000,4900.4422,N,00825.5611,E,2,9,0.91,121.1,M,47.9,M,,*4F",,,,
2022-03-01T15:47:21+01:00,111,17.28,14.06,1014.78,33.20,34.90,0,-127.00,"$GNGGA,144716.000,4900.4573,N,00825.4954,E,2,9,0.91,113.4,M,47.9,M,,*47",,,,
2022-03-01T15:47:42+01:00,112,17.02,14.25,1014.79,33.80,35.50,0,-127.00,"$GNGGA,144736.000,4900.4698,N,00825.4211,E,2,9,0.91,118.0,M,47.9,M,,*46",,,,
2022-03-01T15:48:03+01:00,113,16.79,14.46,1014.79,32.50,34.20,0,-127.00,"$GNGGA,144758.000,4900.4859,N,00825.3454,E,2,9,0.91,113.9,M,47.9,M,,*4F",,,,
2022-03-01T15:48:24+01:00,114,16.68,14.54,1014.78,30.50,32.10,0,-127.00,"$GNGGA,144819.000,4900.5006,N,00825.2713,E,2,9,0.91,115.0,M,47.9,M,,*48",,,,
2022-03-01T15:48:44+01:00,115,16.56,14.83,1014.78,29.60,31.10,0,-127.00,"$GNGGA,144839.000,4900.5146,N,00825.2031,E,2,9,0.91,118.2,M,47.9,M,,*47",,,,
2022-03-01T15:49:04+01:00,116,16.35,15.21,1014.78,29.30,30.80,0,-127.00,"$GNGGA,144859.000,4900.5261,N,00825.1377,E,2,9,0.91,114.2,M,47.9,M,,*49",,,,
2022-03-01T15:49:25+01:00,117,16.18,15.57,1014.75,29.90,31.40,0,-127.00,"$GNGGA,144920.000,4900.5376,N,00825.0763,E,2,9,0.91,109.5,M,47.9,M,,*4A",,,,
2022-03-01T15:49:45+01:00,118,16.14,15.70,1014.74,30.30,31.90,0,-127.00,"$GNGGA,144940.000,4900.5402,N,00825.0524,E,2,9,0.90,111.3,M,47.9,M,,*47",,,,
2022-03-01T15:50:05+01:00,119,16.20,15.80,1014.71,30.50,32.10,0,-127.00,"$GNGGA,145000.000,4900.5403,N,00825.0516,E,2,8,1.00,112.1,M,47.9,M,,*43",,,,
2022-03-01T15:50:26+01:00,120,16.17,15.54,1014.70,29.60,31.10,0,-127.00,"$GNGGA,145021.000,4900.5424,N,00825.0396,E,2,10,0.89,112.7,M,47.9,M,,*74",,,,
2022-03-01T15:50:47+01:00,121,15.96,15.66,1014.71,28.70,30.20,0,-127.00,"$GNGGA,145042.000,4900.5486,N,00824.9851,E,2,10,0.89,116.3,M,47.9,M,,*71",,,,
2022-03-01T15:51:07+01:00,122,15.73,16.06,1014.70,29.10,30.60,0,-127.00,"$GNGGA,145102.000,4900.5489,N,00824.9213,E,2,10,0.88,118.7,M,47.9,M,,*7C",,,,
2022-03-01T15:51:30+01:00,123,15.55,16.36,1014.69,30.50,32.10,0,-127.00,"$GNGGA,145125.000,4900.5661,N,00824.8641,E,2,9,1.00,116.0,M,47.9,M,,*4F",,,,
2022-03-01T15:51:50+01:00,124,15.36,16.40,1014.68,30.60,32.20,0,-127.00,"$GNGGA,145145.000,4900.5766,N,00824.8277,E,2,10,0.89,118.2,M,47.9,M,,*7A",,,,
2022-03-01T15:52:10+01:00,125,15.25,16.32,1014.67,29.60,31.10,0,-127.00,"$GNGGA,145205.000,4900.5847,N,00824.7612,E,2,10,0.88,122.4,M,47.9,M,,*77",,,,
2022-03-01T15:52:32+01:00,126,15.14,16.52,1014.65,29.50,31.00,0,-127.00,"$GNGGA,145227.000,4900.5925,N,00824.7036,E,2,10,0.89,128.0,M,47.9,M,,*7D",,,,
2022-03-01T15:52:53+01:00,127,15.04,16.59,1014.63,30.60,32.20,0,-127.00,"$GNGGA,145248.000,4900.5765,N,00824.6651,E,2,9,1.03,112.8,M,47.9,M,,*42",,,,
2022-03-01T15:54:26+01:00,128,16.27,16.45,1014.57,34.10,35.90,1,-127.00,"$GNGGA,145421.000,4900.5184,N,00824.4826,E,1,6,1.40,188.2,M,47.9,M,,*4C",,,,
2022-03-01T15:54:46+01:00,129,16.07,16.52,1014.56,28.90,30.40,1,-127.00,"$GNGGA,145441.000,4900.5238,N,00824.4680,E,1,5,1.79,184.6,M,47.9,M,,*4D",,,,
2022-03-01T15:55:06+01:00,130,15.98,16.35,1014.56,27.60,29.00,1,-127.00,"$GNGGA,145501.000,4900.5254,N,00824.4698,E,1,6,1.40,177.8,M,47.9,M,,*40",,,,
2022-03-01T15:55:27+01:00,131,16.00,16.67,1014.55,28.40,29.90,1,-127.00,"$GNGGA,145522.000,4900.5250,N,00824.4653,E,1,5,1.62,176.7,M,47.9,M,,*4F",,,,
2022-03-01T15:55:47+01:00,132,16.10,20.63,1014.55,28.90,30.40,1,-127.00,"$GNGGA,145542.000,4900.5248,N,00824.4657,E,1,5,1.62,176.2,M,47.9,M,,*41",,,,
2022-03-01T15:56:07+01:00,133,16.25,22.44,1014.54,28.50,30.00,1,-127.00,"$GNGGA,145602.000,4900.5228,N,00824.4710,E,1,5,1.62,176.4,M,47.9,M,,*44",,,,
2022-03-01T15:56:28+01:00,134,16.44,21.34,1014.54,28.20,29.70,1,-127.00,"$GNGGA,145623.000,4900.5245,N,00824.4672,E,1,5,1.62,164.4,M,47.9,M,,*4A",,,,
2022-03-01T15:56:48+01:00,135,16.61,19.07,1014.54,29.00,30.50,1,-127.00,"$GNGGA,145643.000,4900.5267,N,00824.4667,E,1,5,1.61,160.2,M,47.9,M,,*49",,,,
2022-03-01T15:57:08+01:00,136,16.79,19.37,1014.54,29.70,31.20,1,-127.00,"$GNGGA,145703.000,4900.5235,N,00824.4562,E,1,5,1.61,159.9,M,47.9,M,,*4C",,,,
2022-03-01T15:57:29+01:00,137,16.98,20.13,1014.54,29.70,31.20,1,-127.00,"$GNGGA,145724.000,4900.5022,N,00824.4372,E,6,2,99.99,159.0,M,47.9,M,,*75",,,,
2022-03-01T15:57:49+01:00,138,17.18,21.20,1014.55,29.90,31.40,1,-127.00,"$GNGGA,145744.000,4900.5023,N,00824.4360,E,0,0,,159.0,M,47.9,M,,*5B",,,,
2022-03-01T15:58:09+01:00,139,17.39,22.49,1014.56,30.10,31.70,1,-127.00,"$GNGGA,145804.000,4900.5023,N,00824.4360,E,0,0,,159.0,M,47.9,M,,*50",,,,
2022-03-01T15:58:30+01:00,140,17.60,22.68,1014.56,29.70,31.20,1,-127.00,"$GNGGA,145825.000,4900.5023,N,00824.4360,E,0,0,,159.0,M,47.9,M,,*53",,,,
2022-03-01T15:58:50+01:00,141,17.80,22.01,1014.56,29.60,31.10,1,-127.00,"$GNGGA,145845.000,4900.5023,N,00824.4360,E,0,0,,159.0,M,47.9,M,,*55",,,,
2022-03-01T15:59:10+01:00,142,18.00,22.18,1014.56,29.20,30.70,1,-127.00,"$GNGGA,145905.000,4900.5023,N,00824.4360,E,0,0,,159.0,M,47.9,M,,*50",,,,
2022-03-01T15:59:31+01:00,143,18.20,21.60,1014.56,27.80,29.20,1,-127.00,"$GNGGA,145926.000,4900.5029,N,00824.4368,E,0,0,,159.0,M,47.9,M,,*53",,,,
2022-03-01T15:59:51+01:00,144,18.40,21.13,1014.55,26.10,27.50,1,-127.00,"$GNGGA,145946.000,4900.5033,N,00824.4373,E,0,0,,159.0,M,47.9,M,,*54",,,,
2022-03-01T16:00:11+01:00,145,18.59,21.90,1014.55,26.30,27.70,1,-127.00,"$GNGGA,150006.000,4900.4909,N,00824.4697,E,0,2,,160.9,M,47.9,M,,*52",,,,
2022-03-01T16:00:32+01:00,146,18.78,21.41,1014.55,26.60,28.00,1,-127.00,"$GNGGA,150027.000,4900.5109,N,00824.4820,E,0,0,,159.9,M,47.9,M,,*52",,,,
2022-03-01T16:00:52+01:00,147,18.98,21.74,1014.55,27.00,28.40,1,-127.00,"$GNGGA,150047.000,4900.5035,N,00824.4377,E,0,0,,159.0,M,47.9,M,,*5A",,,,
2022-03-01T16:01:12+01:00,148,19.17,21.84,1014.56,26.50,27.90,1,-127.00,"$GNGGA,150107.000,4900.5680,N,00824.4879,E,0,0,,155.0,M,47.9,M,,*5E",,,,
2022-03-01T16:01:33+01:00,149,19.36,21.30,1014.55,26.80,28.20,1,-127.00,"$GNGGA,150128.000,4900.5353,N,00824.4659,E,0,5,,131.9,M,47.9,M,,*5A",,,,
2022-03-01T16:01:53+01:00,150,19.54,21.10,1014.56,27.50,28.90,1,-127.00,"$GNGGA,150148.000,4900.5346,N,00824.4647,E,1,5,1.59,122.7,M,47.9,M,,*49",,,,
2022-03-01T16:02:13+01:00,151,19.72,20.87,1014.57,27.80,29.20,1,-127.00,"$GNGGA,150208.000,4900.5364,N,00824.4841,E,1,4,1.92,97.4,M,47.9,M,,*7C",,,,
2022-03-01T16:02:34+01:00,152,19.89,20.74,1014.56,27.90,29.30,1,-127.00,"$GNGGA,150229.000,4900.5269,N,00824.4751,E,1,5,1.59,105.0,M,47.9,M,,*45",,,,
2022-03-01T16:02:54+01:00,153,20.07,21.67,1014.57,27.40,28.80,1,-127.00,"$GNGGA,150249.000,4900.5299,N,00824.4789,E,1,5,1.59,121.7,M,47.9,M,,*48",,,,
2022-03-01T16:03:15+01:00,154,20.26,23.13,1014.58,28.70,30.20,1,-127.00,"$GNGGA,150310.000,4900.5285,N,00824.4760,E,6,0,99.99,125.6,M,47.9,M,,*75",,,,
2022-03-01T16:03:36+01:00,155,20.44,24.06,1014.57,29.10,30.60,1,-127.00,"$GNGGA,150331.000,4900.5283,N,00824.4759,E,0,0,,125.5,M,47.9,M,,*51",,,,
2022-03-01T16:03:56+01:00,156,20.62,23.11,1014.58,29.30,30.80,1,-127.00,"$GNGGA,150351.000,4900.5283,N,00824.4759,E,0,0,,125.5,M,47.9,M,,*57",,,,
2022-03-01T16:04:16+01:00,157,20.80,22.14,1014.58,28.20,29.70,1,-127.00,"$GNGGA,150411.000,4900.5283,N,00824.4759,E,0,0,,125.5,M,47.9,M,,*54",,,,
2022-03-01T16:04:37+01:00,158,20.97,22.72,1014.58,28.50,30.00,1,-127.00,"$GNGGA,150432.000,4900.5283,N,00824.4759,E,0,0,,125.5,M,47.9,M,,*55",,,,
2022-03-01T16:04:57+01:00,159,21.13,21.76,1014.59,28.60,30.10,1,-127.00,"$GNGGA,150452.000,4900.5283,N,00824.4759,E,0,0,,125.5,M,47.9,M,,*53",,,,
2022-03-01T16:05:17+01:00,160,21.30,20.88,1014.59,29.60,31.10,1,-127.00,"$GNGGA,150512.000,4900.5283,N,00824.4763,E,0,0,,125.4,M,47.9,M,,*5E",,,,
2022-03-01T16:05:38+01:00,161,21.46,20.38,1014.59,28.90,30.40,1,-127.00,"$GNGGA,150533.000,4900.5273,N,00824.4591,E,1,4,1.88,145.5,M,47.9,M,,*40",,,,
2022-03-01T16:05:58+01:00,162,21.62,22.63,1014.58,28.50,30.00,1,-127.00,"$GNGGA,150553.000,4900.5303,N,00824.4646,E,1,4,1.87,133.8,M,47.9,M,,*4A",,,,
2022-03-01T16:06:18+01:00,163,21.78,22.80,1014.59,27.50,28.90,1,-127.00,"$GNGGA,150613.000,4900.5250,N,00824.4841,E,1,4,1.87,128.2,M,47.9,M,,*43",,,,
2022-03-01T16:06:39+01:00,164,21.94,22.56,1014.59,28.00,29.50,1,-127.00,"$GNGGA,150634.000,4900.5181,N,00824.4684,E,1,5,1.57,122.5,M,47.9,M,,*4F",,,,
2022-03-01T16:06:59+01:00,165,22.10,23.10,1014.59,28.50,30.00,1,-127.00,"$GNGGA,150654.000,4900.5181,N,00824.4693,E,1,5,1.57,126.6,M,47.9,M,,*48",,,,
2022-03-01T16:07:19+01:00,166,22.27,22.16,1014.61,29.30,30.80,1,-127.00,"$GNGGA,150714.000,4900.5276,N,00824.4700,E,1,5,1.57,140.7,M,47.9,M,,*4C",,,,
2022-03-01T16:07:40+01:00,167,22.42,20.92,1014.63,29.80,31.30,1,-127.00,"$GNGGA,150735.000,4900.5277,N,00824.4682,E,1,5,1.57,141.9,M,47.9,M,,*4A",,,,
2022-03-01T16:08:00+01:00,168,22.55,16.86,1014.63,31.30,32.90,1,-127.00,"$GNGGA,150755.000,4900.5274,N,00824.4665,E,1,5,1.57,143.4,M,47.9,M,,*49",,,,
2022-03-01T16:08:20+01:00,169,22.65,14.62,1014.64,32.90,34.60,1,-127.00,"$GNGGA,150815.000,4900.5256,N,00824.4710,E,1,7,1.19,132.7,M,47.9,M,,*4C",,,,
2022-03-01T16:08:41+01:00,170,22.73,14.13,1014.65,33.90,35.60,1,-127.00,"$GNGGA,150836.000,4900.5254,N,00824.4682,E,1,7,1.19,133.1,M,47.9,M,,*42",,,,
2022-03-01T16:09:01+01:00,171,22.78,14.49,1014.65,34.00,35.80,1,-127.00,"$GNGGA,150856.000,4900.5236,N,00824.4681,E,1,7,1.19,132.2,M,47.9,M,,*41",,,,
2022-03-01T16:09:21+01:00,172,22.81,14.02,1014.64,34.00,35.80,1,-127.00,"$GNGGA,150916.000,4900.5242,N,00824.4690,E,1,7,1.19,131.7,M,47.9,M,,*41",,,,
2022-03-01T16:09:42+01:00,173,22.84,14.53,1014.63,34.00,35.80,1,-127.00,"$GNGGA,150937.000,4900.5256,N,00824.4704,E,2,7,1.19,131.5,M,47.9,M,,*4A",,,,
2022-03-01T16:10:02+01:00,174,22.83,13.77,1014.64,33.80,35.50,1,-127.00,"$GNGGA,150957.000,4900.5290,N,00824.4664,E,2,7,1.25,133.9,M,47.9,M,,*40",,,,
2022-03-01T16:10:23+01:00,175,22.49,12.93,1014.63,32.20,33.90,1,-127.00,"$GNGGA,151018.000,4900.5235,N,00824.5155,E,2,7,1.19,147.2,M,47.9,M,,*4F",,,,
2022-03-01T16:10:44+01:00,176,21.88,13.21,1014.47,31.00,32.60,1,-127.00,"$GNGGA,151039.000,4900.5171,N,00824.5770,E,2,7,1.19,167.1,M,47.9,M,,*4F",,,,
2022-03-01T16:11:04+01:00,177,21.28,13.61,1014.37,30.10,31.70,1,-127.00,"$GNGGA,151059.000,4900.5171,N,00824.6089,E,2,7,1.20,168.9,M,47.9,M,,*46",,,,
2022-03-01T16:11:24+01:00,178,20.46,14.06,1014.44,32.10,33.80,1,-127.00,"$GNGGA,151119.000,4900.5197,N,00824.6896,E,2,7,1.19,146.3,M,47.9,M,,*41",,,,
2022-03-01T16:11:45+01:00,179,19.53,14.78,1014.49,32.40,34.10,1,-127.00,"$GNGGA,151140.000,4900.5122,N,00824.7623,E,2,7,1.19,137.8,M,47.9,M,,*4F",,,,
2022-03-01T16:12:09+01:00,180,18.63,15.82,1014.53,34.20,36.00,1,-127.00,"$GNGGA,151204.000,4900.5122,N,00824.8491,E,2,7,1.26,130.3,M,47.9,M,,*48",,,,
2022-03-01T16:12:30+01:00,181,17.64,16.53,1014.64,32.00,33.70,1,-127.00,"$GNGGA,151225.000,4900.5245,N,00824.9217,E,2,7,1.26,128.5,M,47.9,M,,*4F",,,,
2022-03-01T16:12:51+01:00,182,16.83,17.30,1014.65,31.80,33.40,1,-127.00,"$GNGGA,151246.000,4900.5317,N,00824.9863,E,2,7,1.20,132.9,M,47.9,M,,*44",,,,
2022-03-01T16:13:12+01:00,183,16.39,17.64,1014.64,30.20,31.80,1,-127.00,"$GNGGA,151307.000,4900.5310,N,00824.9935,E,2,7,1.20,132.9,M,47.9,M,,*45",,,,
2022-03-01T16:13:33+01:00,184,16.20,17.42,1014.64,29.60,31.10,1,-127.00,"$GNGGA,151328.000,4900.5310,N,00824.9945,E,2,10,1.01,133.1,M,47.9,M,,*73",,,,
2022-03-01T16:13:53+01:00,185,16.02,17.13,1014.65,28.50,30.00,1,-127.00,"$GNGGA,151348.000,4900.5311,N,00824.9948,E,2,11,0.96,132.9,M,47.9,M,,*7E",,,,
2022-03-01T16:14:14+01:00,186,15.98,17.08,1014.63,28.00,29.50,1,-127.00,"$GNGGA,151409.000,4900.5310,N,00824.9952,E,2,11,0.96,133.0,M,47.9,M,,*7E",,,,
2022-03-01T16:14:35+01:00,187,15.91,16.91,1014.63,28.70,30.20,1,-127.00,"$GNGGA,151430.000,4900.5311,N,00824.9953,E,2,11,0.96,133.0,M,47.9,M,,*74",,,,
2022-03-01T16:14:56+01:00,188,15.73,17.00,1014.66,28.00,29.50,1,-127.00,"$GNGGA,151451.000,4900.5294,N,00825.0207,E,2,11,1.08,131.4,M,47.9,M,,*7D",,,,
2022-03-01T16:15:17+01:00,189,15.40,17.38,1014.65,28.00,29.50,1,-127.00,"$GNGGA,151512.000,4900.5143,N,00825.1077,E,2,11,1.08,130.2,M,47.9,M,,*71",,,,
2022-03-01T16:15:38+01:00,190,15.28,17.77,1014.65,26.80,28.20,1,-127.00,"$GNGGA,151533.000,4900.5125,N,00825.1228,E,2,12,0.96,130.1,M,47.9,M,,*7C",,,,
2022-03-01T16:15:59+01:00,191,15.14,17.73,1014.66,26.80,28.20,1,-127.00,"$GNGGA,151554.000,4900.5263,N,00825.1348,E,2,12,1.04,127.8,M,47.9,M,,*7E",,,,
2022-03-01T16:16:20+01:00,192,14.68,18.04,1014.66,27.60,29.00,1,-127.00,"$GNGGA,151615.000,4900.5098,N,00825.2125,E,2,12,1.04,142.6,M,47.9,M,,*79",,,,
2022-03-01T16:16:41+01:00,193,14.10,18.99,1014.65,30.40,32.00,1,-127.00,"$GNGGA,151636.000,4900.4888,N,00825.2936,E,2,11,1.07,168.5,M,47.9,M,,*71",,,,
2022-03-01T16:17:02+01:00,194,13.67,19.80,1014.65,30.80,32.40,1,-127.00,"$GNGGA,151657.000,4900.4769,N,00825.3485,E,2,12,1.04,187.0,M,47.9,M,,*76",,,,
2022-03-01T16:17:26+01:00,195,13.38,20.12,1014.64,31.40,33.00,1,-127.00,"$GNGGA,151721.000,4900.4859,N,00825.3831,E,2,12,0.96,178.9,M,47.9,M,,*7A",,,,
2022-03-01T16:17:47+01:00,196,13.35,20.11,1014.66,28.90,30.40,1,-127.00,"$GNGGA,151742.000,4900.4929,N,00825.3785,E,2,12,0.96,148.3,M,47.9,M,,*70",,,,
2022-03-01T16:18:08+01:00,197,13.43,19.83,1014.68,28.40,29.90,1,-127.00,"$GNGGA,151803.000,4900.4974,N,00825.3773,E,2,12,0.96,133.1,M,47.9,M,,*75",,,,
2022-03-01T16:18:29+01:00,198,13.44,19.42,1014.68,26.40,27.80,1,-127.00,"$GNGGA,151824.000,4900.5061,N,00825.3960,E,2,11,1.00,129.6,M,47.9,M,,*71",,,,
2022-03-01T16:18:50+01:00,199,13.55,19.23,1014.68,26.90,28.30,1,-127.00,"$GNGGA,151845.000,4900.5016,N,00825.4203,E,2,11,1.00,136.0,M,47.9,M,,*77",,,,
2022-03-01T16:19:11+01:00,200,13.77,29.10,1014.67,181.70,190.80,1,-127.00,"$GNGGA,151906.000,4900.5062,N,00825.4266,E,2,10,1.04,141.8,M,47.9,M,,*7C",,,,
2022-03-01T16:19:32+01:00,201,14.04,34.30,1014.67,173.70,182.40,1,-127.00,"$GNGGA,151927.000,4900.5038,N,00825.4349,E,2,11,1.00,144.4,M,47.9,M,,*70",,,,
