created_at,entry_id,field1,field2,field3,field4,field5,field6,field7,field8,latitude,longitude,elevation,status
2022-01-01T10:27:28+01:00,1,27.65,30.76,1014.24,12.30,16.40,0,0,"$GNGGA,000027.263,4900.5237,N,00825.4542,E,0,0,,145.8,M,47.9,M,,*5B",,,,
2022-01-01T10:27:48+01:00,2,27.33,32.40,1014.21,12.60,17.20,0,0,"$GNGGA,000047.263,4900.5237,N,00825.4542,E,0,0,,145.8,M,47.9,M,,*5D",,,,
2022-01-01T10:28:09+01:00,3,27.04,34.27,1014.14,11.90,16.80,0,0,"$GNGGA,000108.263,4900.5237,N,00825.4542,E,0,0,,145.8,M,47.9,M,,*57",,,,
2022-01-01T10:28:30+01:00,4,26.79,34.77,1014.09,10.30,13.00,0,0,"$GNGGA,092825.142,4900.5237,N,00825.4542,E,0,0,,145.8,M,47.9,M,,*5A",,,,
2022-01-01T10:28:50+01:00,5,26.57,34.91,1014.06,8.40,11.20,0,0,"$GNGGA,092845.137,4900.5186,N,00825.4511,E,0,2,,145.8,M,47.9,M,,*53",,,,
2022-01-01T10:29:10+01:00,6,26.40,35.03,1014.02,7.10,10.20,0,0,"$GNGGA,092905.137,4900.5233,N,00825.4554,E,0,2,,145.8,M,47.9,M,,*5A",,,,
2022-01-01T10:29:30+01:00,7,26.25,34.99,1014.00,5.90,6.60,0,0,"$GNGGA,092925.095,4900.5237,N,00825.4542,E,0,2,,145.8,M,47.9,M,,*52",,,,
2022-01-01T10:29:50+01:00,8,26.13,35.13,1013.98,6.10,7.30,0,0,"$GNGGA,092945.094,4900.5256,N,00825.4488,E,0,2,,145.8,M,47.9,M,,*55",,,,
2022-01-01T10:30:10+01:00,9,26.04,34.86,1013.96,6.60,9.10,0,0,"$GNGGA,093005.093,4900.5236,N,00825.4545,E,0,2,,145.8,M,47.9,M,,*58",,,,
2022-01-01T10:30:30+01:00,10,25.97,34.84,1013.95,6.90,9.30,0,0,"$GNGGA,093025.093,4900.5230,N,00825.4560,E,0,2,,145.8,M,47.9,M,,*5B",,,,
2022-01-01T10:30:50+01:00,11,25.91,34.81,1013.94,6.50,9.60,0,0,"$GNGGA,093045.087,4900.5265,N,00825.4467,E,0,2,,145.8,M,47.9,M,,*5E",,,,
2022-01-01T10:31:10+01:00,12,25.88,34.64,1013.91,6.40,8.70,0,0,"$GNGGA,093105.097,4900.5241,N,00825.4530,E,0,2,,145.8,M,47.9,M,,*5F",,,,
2022-01-01T10:31:31+01:00,13,25.85,35.16,1013.97,7.10,10.30,0,0,"$GNGGA,093126.097,4900.5329,N,00825.4300,E,0,2,,145.8,M,47.9,M,,*54",,,,
2022-01-01T10:31:51+01:00,14,25.84,35.38,1014.02,7.40,9.60,0,0,"$GNGGA,093146.097,4900.5254,N,00825.4482,E,0,1,,145.8,M,47.9,M,,*57",,,,
2022-01-01T10:32:10+01:00,15,25.84,35.33,1014.05,7.30,9.30,0,0,"$GNGGA,093206.097,9000.0000,N,00000.0000,E,0,0,,137.0,M,13.0,M,,*53",,,,
2022-01-01T10:32:30+01:00,16,25.86,35.34,1014.08,6.80,8.20,0,0,"$GNGGA,093226.089,9000.0000,N,00000.0000,E,0,0,,137.0,M,13.0,M,,*5E",,,,
2022-01-01T10:32:50+01:00,17,25.88,35.69,1014.37,6.40,8.10,0,0,"$GNGGA,093246.089,9000.0000,N,00000.0000,E,0,0,,137.0,M,13.0,M,,*58",,,,
2022-01-01T10:33:10+01:00,18,25.91,36.03,1014.73,5.80,7.50,0,0,"$GNGGA,093306.089,9000.0000,N,00000.0000,E,0,0,,137.0,M,13.0,M,,*5D",,,,
2022-01-01T10:33:31+01:00,19,25.93,33.31,1015.00,7.70,9.00,0,0,"$GNGGA,093326.296,9000.0000,N,00000.0000,E,0,3,,137.0,M,13.0,M,,*50",,,,
2022-01-01T10:33:51+01:00,20,25.94,32.82,1015.21,9.70,10.20,0,0,"$GNGGA,093346.000,4900.5167,N,00825.4149,E,1,5,2.43,131.7,M,47.9,M,,*48",,,,
2022-01-01T10:34:11+01:00,21,25.94,33.05,1015.36,11.40,12.00,0,0,"$GNGGA,093406.000,4900.5174,N,00825.4149,E,1,8,1.18,132.4,M,47.9,M,,*49",,,,
2022-01-01T10:34:31+01:00,22,25.93,33.46,1015.47,9.90,10.60,0,0,"$GNGGA,093426.000,4900.5170,N,00825.4139,E,1,9,1.05,138.4,M,47.9,M,,*4F",,,,
2022-01-01T10:34:52+01:00,23,25.86,32.62,1015.56,8.90,10.00,0,0,"$GNGGA,093447.000,4900.5152,N,00825.4135,E,1,5,1.96,141.5,M,47.9,M,,*4D",,,,
2022-01-01T10:35:12+01:00,24,25.77,30.87,1015.63,9.90,12.00,0,0,"$GNGGA,093507.000,4900.5017,N,00825.4275,E,1,5,2.19,141.8,M,47.9,M,,*46",,,,
2022-01-01T10:35:33+01:00,25,25.63,30.17,1015.68,12.60,13.80,0,0,"$GNGGA,093528.000,4900.4947,N,00825.4272,E,1,8,1.18,141.4,M,47.9,M,,*42",,,,
2022-01-01T10:35:53+01:00,26,25.46,30.53,1015.71,14.80,18.00,0,0,"$GNGGA,093548.000,4900.4849,N,00825.4273,E,1,8,1.18,141.3,M,47.9,M,,*4D",,,,
2022-01-01T10:36:13+01:00,27,25.29,30.78,1015.74,14.40,16.70,0,0,"$GNGGA,093608.000,4900.4651,N,00825.4264,E,1,8,1.18,143.3,M,47.9,M,,*49",,,,
2022-01-01T10:36:34+01:00,28,25.10,31.02,1015.75,13.50,15.80,0,0,"$GNGGA,093629.000,4900.4596,N,00825.4427,E,1,9,1.05,130.4,M,47.9,M,,*4D",,,,
2022-01-01T10:36:54+01:00,29,25.03,31.47,1015.77,12.30,14.10,0,0,"$GNGGA,093649.000,4900.4576,N,00825.4497,E,1,10,1.05,121.6,M,47.9,M,,*74",,,,
2022-01-01T10:37:14+01:00,30,25.00,32.12,1015.78,11.00,12.70,0,0,"$GNGGA,093709.000,4900.4591,N,00825.4502,E,1,9,1.46,122.1,M,47.9,M,,*4E",,,,
2022-01-01T10:37:35+01:00,31,24.96,31.45,1015.80,11.90,13.50,0,0,"$GNGGA,093730.000,4900.4510,N,00825.4547,E,1,9,1.46,113.6,M,47.9,M,,*49",,,,
2022-01-01T10:37:55+01:00,32,24.94,31.25,1015.80,12.10,13.10,0,0,"$GNGGA,093750.000,4900.4502,N,00825.4682,E,1,10,1.05,109.4,M,47.9,M,,*70",,,,
2022-01-01T10:38:15+01:00,33,24.79,31.14,1015.82,13.60,14.30,0,0,"$GNGGA,093810.000,4900.4538,N,00825.4844,E,1,10,1.05,117.4,M,47.9,M,,*79",,,,
2022-01-01T10:38:36+01:00,34,24.61,31.44,1015.82,999.90,1999.90,0,0,"$GNGGA,093831.000,4900.4420,N,00825.5073,E,1,10,1.05,114.1,M,47.9,M,,*79",,,,
2022-01-01T10:38:56+01:00,35,24.41,31.82,1015.82,999.90,1999.90,0,0,"$GNGGA,093851.000,4900.4367,N,00825.5260,E,1,10,1.05,116.6,M,47.9,M,,*7E",,,,
2022-01-01T10:39:17+01:00,36,24.27,32.17,1015.82,999.90,1999.90,0,0,"$GNGGA,093912.000,4900.4319,N,00825.5456,E,1,10,1.05,110.4,M,47.9,M,,*76",,,,
2022-01-01T10:39:38+01:00,37,24.09,32.42,1015.83,999.90,1999.90,0,0,"$GNGGA,093933.000,4900.4282,N,00825.5676,E,1,10,1.05,108.2,M,47.9,M,,*79",,,,
2022-01-01T10:39:58+01:00,38,23.82,32.63,1015.83,999.90,1999.90,0,0,"$GNGGA,093953.000,4900.4252,N,00825.5879,E,2,10,1.05,106.0,M,47.9,M,,*7C",,,,
2022-01-01T10:40:18+01:00,39,23.58,33.15,1015.82,999.90,1999.90,0,0,"$GNGGA,094013.000,4900.4207,N,00825.6100,E,2,10,1.05,109.1,M,47.9,M,,*7C",,,,
2022-01-01T10:40:39+01:00,40,23.36,33.71,1015.82,999.90,1999.90,0,0,"$GNGGA,094034.000,4900.4199,N,00825.6331,E,2,10,1.05,112.2,M,47.9,M,,*74",,,,
2022-01-01T10:41:06+01:00,41,23.22,34.11,1015.82,999.90,1999.90,0,0,"$GNGGA,094101.000,4900.4137,N,00825.6584,E,2,10,1.05,112.0,M,47.9,M,,*7D",,,,
2022-01-01T10:41:29+01:00,42,23.21,34.17,1015.83,999.90,1999.90,0,0,"$GNGGA,094123.000,4900.4084,N,00825.6801,E,2,10,1.05,115.5,M,47.9,M,,*76",,,,
2022-01-01T10:41:51+01:00,43,23.24,33.35,1015.84,999.90,1999.90,0,0,"$GNGGA,094145.000,4900.4042,N,00825.7027,E,2,10,1.05,115.2,M,47.9,M,,*76",,,,
2022-01-01T10:42:33+01:00,44,23.30,33.16,1015.85,999.90,1999.90,0,0,"$GNGGA,094223.000,4900.3990,N,00825.7418,E,2,10,1.05,118.2,M,47.9,M,,*71",,,,
2022-01-01T10:44:54+01:00,45,23.41,31.95,1015.87,999.90,1999.90,0,0,"$GNGGA,094449.000,4900.3729,N,00825.8927,E,1,10,1.04,107.8,M,47.9,M,,*7F",,,,
2022-01-01T10:45:14+01:00,46,23.60,31.80,1015.87,999.90,1361.90,0,0,"$GNGGA,094509.000,4900.3672,N,00825.9145,E,1,11,1.10,107.2,M,47.9,M,,*76",,,,
2022-01-01T10:45:35+01:00,47,23.90,34.07,1015.89,999.90,1620.40,0,0,"$GNGGA,094530.000,4900.3586,N,00825.9353,E,1,11,1.02,107.7,M,47.9,M,,*77",,,,
2022-01-01T10:45:56+01:00,48,24.23,34.35,1015.91,999.90,1780.70,0,0,"$GNGGA,094551.000,4900.3548,N,00825.9581,E,1,12,0.92,111.1,M,47.9,M,,*71",,,,
2022-01-01T10:46:16+01:00,49,24.52,31.78,1015.94,999.90,1566.70,0,0,"$GNGGA,094611.000,4900.3497,N,00825.9784,E,1,11,0.95,110.5,M,47.9,M,,*73",,,,
2022-01-01T10:46:36+01:00,50,24.77,30.24,1015.97,999.90,1320.80,0,0,"$GNGGA,094631.000,4900.3466,N,00826.0017,E,1,12,0.92,110.9,M,47.9,M,,*70",,,,
2022-01-01T10:46:57+01:00,51,24.97,29.87,1016.00,999.90,1140.50,0,0,"$GNGGA,094652.000,4900.3406,N,00826.0220,E,1,12,0.92,110.4,M,47.9,M,,*78",,,,
2022-01-01T10:47:17+01:00,52,25.22,30.17,1016.02,999.90,1060.40,0,0,"$GNGGA,094712.000,4900.3450,N,00826.0352,E,1,12,1.02,108.0,M,47.9,M,,*7F",,,,
2022-01-01T10:47:38+01:00,53,25.44,29.72,1016.03,983.10,1032.30,0,0,"$GNGGA,094733.000,4900.3420,N,00826.0568,E,1,12,0.92,108.8,M,47.9,M,,*74",,,,
2022-01-01T10:48:00+01:00,54,25.65,29.63,1016.04,939.30,986.30,0,0,"$GNGGA,094754.000,4900.3383,N,00826.0784,E,1,11,1.02,111.2,M,47.9,M,,*72",,,,
2022-01-01T10:48:25+01:00,55,25.87,29.03,1016.04,924.50,970.80,0,0,"$GNGGA,094819.000,4900.3333,N,00826.1020,E,1,12,0.92,106.7,M,47.9,M,,*7F",,,,
