created_at,entry_id,field1,field2,field3,field4,field5,field6,field7,field8,latitude,longitude,elevation,status
2022-02-13T20:16:23+01:00,1245,18.13,28.06,998.9,25.3,26.6,0,15,"$GNGGA,000022.475,4900.5511,N,00825.4870,E,0,0,,102.1,M,47.9,M,,*5A",,,,
2022-02-13T20:16:44+01:00,1246,17.99,27.68,998.91,24.9,26.2,0,14.5,"$GNGGA,191639.309,4916.2149,N,00812.8146,E,0,1,,208.1,M,47.9,M,,*56",,,,
2022-02-13T20:17:05+01:00,1247,17.9,27.16,998.92,24.5,25.8,0,14.5,"$GNGGA,191700.309,5019.2284,N,00720.2012,E,0,3,,1442.6,M,47.8,M,,*61",,,,
2022-02-13T20:17:25+01:00,1248,17.85,27.03,998.92,24.9,26.2,0,14.5,"$GNGGA,191720.309,5019.2284,N,00720.2012,E,0,3,,1442.6,M,47.8,M,,*63",,,,
2022-02-13T20:17:45+01:00,1249,17.8,27.01,998.93,24.9,26.2,0,14.5,"$GNGGA,191740.309,5019.2274,N,00720.2002,E,0,2,,1442.5,M,47.8,M,,*69",,,,
2022-02-13T20:18:06+01:00,1250,17.61,26.77,998.93,23.9,25.1,0,14,"$GNGGA,191801.309,4900.8565,N,00825.2293,E,0,0,,145.2,M,47.9,M,,*59",,,,
2022-02-13T20:18:27+01:00,1251,17.43,27.32,998.92,23.5,24.7,0,14,"$GNGGA,191822.309,4900.5512,N,00825.4870,E,0,0,,145.2,M,47.9,M,,*54",,,,
2022-02-13T20:18:48+01:00,1252,17.14,27.63,998.91,23,24.2,0,13.5,"$GNGGA,191843.309,4900.5511,N,00825.4870,E,0,0,,145.2,M,47.9,M,,*50",,,,
2022-02-13T20:19:09+01:00,1253,16.85,28.25,998.91,23,24.2,0,13,"$GNGGA,191904.304,4902.8689,N,00825.4372,E,0,1,,145.4,M,47.9,M,,*5C",,,,
2022-02-13T20:19:30+01:00,1254,16.6,29.49,998.92,22.4,23.6,0,13,"$GNGGA,191925.296,4900.5515,N,00825.4870,E,0,1,,145.2,M,47.9,M,,*53",,,,
2022-02-13T20:19:51+01:00,1255,16.11,29.6,998.91,22.6,23.8,0,12.5,"$GNGGA,191946.089,4900.5511,N,00825.4870,E,0,1,,145.2,M,47.9,M,,*5E",,,,
2022-02-13T20:20:12+01:00,1256,15.79,30.55,998.92,22.7,23.9,0,13,"$GNGGA,192007.089,4841.5010,N,00832.0724,E,0,2,,196.7,M,48.0,M,,*53",,,,
2022-02-13T20:20:33+01:00,1257,15.47,30.53,998.91,22.2,23.4,0,12.5,"$GNGGA,192028.000,4900.4662,N,00825.3928,E,1,5,2.03,86.3,M,47.9,M,,*75",,,,
2022-02-13T20:20:53+01:00,1258,15.14,30.83,998.91,21.9,23,0,12,"$GNGGA,192048.000,4900.4617,N,00825.4143,E,1,6,1.88,88.9,M,47.9,M,,*74",,,,
2022-02-13T20:21:14+01:00,1259,14.88,31.5,998.9,22,23.2,0,12,"$GNGGA,192109.000,4900.4541,N,00825.4530,E,1,6,1.41,125.2,M,47.9,M,,*48",,,,
2022-02-13T20:21:35+01:00,1260,14.58,31.74,998.9,22.1,23.3,0,11.5,"$GNGGA,192130.000,4900.4451,N,00825.4610,E,1,6,1.41,150.8,M,47.9,M,,*4B",,,,
2022-02-13T20:21:55+01:00,1261,14.33,32.13,998.9,20.4,21.5,0,11.5,"$GNGGA,192150.000,4900.4425,N,00825.4695,E,1,6,1.41,152.4,M,47.9,M,,*4D",,,,
2022-02-13T20:22:16+01:00,1262,13.85,32.71,998.91,19.3,20.3,0,11,"$GNGGA,192211.000,4900.4295,N,00825.4519,E,1,7,1.26,146.7,M,47.9,M,,*47",,,,
2022-02-13T20:22:37+01:00,1263,13.28,33.89,998.93,18,19,0,10.5,"$GNGGA,192232.000,4900.4154,N,00825.4545,E,1,8,1.01,148.0,M,47.9,M,,*42",,,,
2022-02-13T20:22:58+01:00,1264,12.8,35.17,998.94,17.7,18.6,0,10.5,"$GNGGA,192253.000,4900.4009,N,00825.4527,E,1,8,1.01,140.5,M,47.9,M,,*45",,,,
2022-02-13T20:23:19+01:00,1265,12.43,36.12,998.94,18.2,19.2,0,10,"$GNGGA,192314.000,4900.3864,N,00825.4540,E,1,8,1.01,137.9,M,47.9,M,,*4E",,,,
2022-02-13T20:23:40+01:00,1266,12.12,36.46,998.94,18.7,19.7,0,10,"$GNGGA,192335.000,4900.3724,N,00825.4543,E,1,8,1.01,136.4,M,47.9,M,,*49",,,,
2022-02-13T20:24:01+01:00,1267,11.86,36.8,998.95,20.3,21.4,0,10,"$GNGGA,192356.000,4900.3596,N,00825.4576,E,1,8,1.01,136.5,M,47.9,M,,*40",,,,
2022-02-13T20:24:22+01:00,1268,11.65,37,998.95,20.2,21.3,0,10,"$GNGGA,192417.000,4900.3468,N,00825.4616,E,1,8,1.01,135.1,M,47.9,M,,*40",,,,
2022-02-13T20:24:43+01:00,1269,11.48,37.2,998.96,20,21.1,0,10,"$GNGGA,192438.000,4900.3346,N,00825.4662,E,1,8,1.01,133.9,M,47.9,M,,*4B",,,,
2022-02-13T20:25:04+01:00,1270,11.32,37.37,998.96,18.9,19.9,0,10,"$GNGGA,192459.000,4900.3219,N,00825.4654,E,1,8,1.01,130.0,M,47.9,M,,*48",,,,
2022-02-13T20:25:25+01:00,1271,11.11,37.96,998.95,18.9,19.9,0,9.5,"$GNGGA,192520.000,4900.3090,N,00825.4657,E,1,8,1.01,126.4,M,47.9,M,,*44",,,,
2022-02-13T20:25:46+01:00,1272,10.89,38.69,998.94,18.6,19.6,0,9,"$GNGGA,192541.000,4900.2959,N,00825.4669,E,2,8,1.01,124.3,M,47.9,M,,*45",,,,
2022-02-13T20:26:07+01:00,1273,10.69,39.23,998.92,19.6,20.6,0,9,"$GNGGA,192602.000,4900.2838,N,00825.4667,E,2,8,1.01,118.9,M,47.9,M,,*4C",,,,
2022-02-13T20:26:28+01:00,1274,10.53,39.7,998.91,19.9,20.9,0,9,"$GNGGA,192623.000,4900.2714,N,00825.4662,E,2,8,1.01,120.0,M,47.9,M,,*49",,,,
2022-02-13T20:26:49+01:00,1275,10.42,39.78,998.9,19.8,20.8,0,9,"$GNGGA,192644.000,4900.2582,N,00825.4675,E,2,8,1.01,119.5,M,47.9,M,,*4C",,,,
2022-02-13T20:27:10+01:00,1276,10.35,39.84,998.91,18.8,19.8,0,9,"$GNGGA,192705.000,4900.2446,N,00825.4664,E,2,7,1.14,118.9,M,47.9,M,,*47",,,,
2022-02-13T20:27:31+01:00,1277,10.18,39.87,998.91,18.1,19.1,0,9,"$GNGGA,192726.000,4900.2301,N,00825.4664,E,2,8,1.01,121.1,M,47.9,M,,*4B",,,,
2022-02-13T20:27:52+01:00,1278,9.96,40.63,998.9,18.5,19.5,0,8.5,"$GNGGA,192747.000,4900.2203,N,00825.4814,E,2,9,0.99,121.1,M,47.9,M,,*47",,,,
2022-02-13T20:28:13+01:00,1279,9.68,41.37,998.9,18.9,19.9,0,8,"$GNGGA,192808.000,4900.2104,N,00825.4946,E,2,9,0.99,121.8,M,47.9,M,,*48",,,,
2022-02-13T20:28:34+01:00,1280,9.43,42.18,998.9,19,20,0,8,"$GNGGA,192829.000,4900.1965,N,00825.4993,E,2,9,0.99,122.9,M,47.9,M,,*4D",,,,
2022-02-13T20:28:55+01:00,1281,9.19,42.92,998.9,19.2,20.2,0,7.5,"$GNGGA,192850.000,4900.1865,N,00825.5101,E,2,9,0.99,126.0,M,47.9,M,,*4D",,,,
2022-02-13T20:29:16+01:00,1282,8.98,43.52,998.89,18.9,19.9,0,7.5,"$GNGGA,192911.000,4900.1850,N,00825.5308,E,2,9,0.99,128.8,M,47.9,M,,*42",,,,
2022-02-13T20:29:37+01:00,1283,8.79,44.01,998.89,18.7,19.7,0,7,"$GNGGA,192932.000,4900.1881,N,00825.5521,E,2,9,0.99,126.8,M,47.9,M,,*4C",,,,
2022-02-13T20:29:58+01:00,1284,8.6,44.5,998.88,18.5,19.5,0,7,"$GNGGA,192953.000,4900.1947,N,00825.5702,E,2,9,0.99,127.0,M,47.9,M,,*4A",,,,
2022-02-13T20:30:20+01:00,1285,8.43,44.96,998.88,18.3,19.3,0,7.5,"$GNGGA,193015.000,4900.1966,N,00825.5918,E,2,9,0.99,124.5,M,47.9,M,,*40",,,,
2022-02-13T20:30:41+01:00,1286,8.24,45.7,998.89,18.9,19.9,0,7,"$GNGGA,193036.000,4900.1928,N,00825.6118,E,2,9,0.99,122.1,M,47.9,M,,*42",,,,
2022-02-13T20:31:02+01:00,1287,8.04,46.19,998.88,18.4,19.4,0,7,"$GNGGA,193057.000,4900.1876,N,00825.6306,E,2,10,0.96,123.6,M,47.9,M,,*73",,,,
2022-02-13T20:31:23+01:00,1288,7.85,46.73,998.86,18.7,19.7,0,6.5,"$GNGGA,193118.000,4900.1809,N,00825.6494,E,2,12,0.84,116.8,M,47.9,M,,*74",,,,
2022-02-13T20:31:44+01:00,1289,7.69,47.36,998.86,19.1,20.1,0,7,"$GNGGA,193139.000,4900.1758,N,00825.6686,E,2,12,0.84,110.6,M,47.9,M,,*75",,,,
2022-02-13T20:32:05+01:00,1290,7.59,47.15,998.86,19.4,20.4,0,7,"$GNGGA,193200.000,4900.1726,N,00825.6886,E,2,12,0.84,108.4,M,47.9,M,,*70",,,,
2022-02-13T20:32:26+01:00,1291,7.51,47.04,998.86,20.2,21.3,0,7,"$GNGGA,193221.000,4900.1705,N,00825.7089,E,2,12,0.84,108.1,M,47.9,M,,*71",,,,
2022-02-13T20:32:47+01:00,1292,7.51,46.91,998.86,22.1,23.3,0,7,"$GNGGA,193242.000,4900.1698,N,00825.7291,E,2,12,0.84,106.9,M,47.9,M,,*7C",,,,
2022-02-13T20:33:08+01:00,1293,7.5,46.91,998.87,23.8,25,0,7,"$GNGGA,193303.000,4900.1695,N,00825.7474,E,2,12,0.84,106.3,M,47.9,M,,*72",,,,
2022-02-13T20:33:29+01:00,1294,7.5,46.85,998.88,23.5,24.7,0,7,"$GNGGA,193324.000,4900.1691,N,00825.7679,E,2,12,0.84,105.0,M,47.9,M,,*7C",,,,
2022-02-13T20:33:50+01:00,1295,7.56,46.48,998.89,22.3,23.5,0,7.5,"$GNGGA,193345.000,4900.1674,N,00825.7875,E,2,12,0.84,106.2,M,47.9,M,,*73",,,,
2022-02-13T20:34:11+01:00,1296,7.65,45.93,998.89,21.1,22.2,0,7.5,"$GNGGA,193406.000,4900.1631,N,00825.8061,E,2,12,0.84,107.0,M,47.9,M,,*73",,,,
2022-02-13T20:45:46+01:00,1297,11.24,43.56,998.72,14.7,15.5,0,9.5,"$GNGGA,194541.000,4900.3511,N,00826.1206,E,1,6,1.43,140.4,M,47.9,M,,*47",,,,
2022-02-13T20:46:07+01:00,1298,11.11,43.23,998.75,16,16.9,0,9.5,"$GNGGA,194602.000,4900.3528,N,00826.1021,E,1,6,1.42,131.9,M,47.9,M,,*44",,,,
2022-02-13T20:46:28+01:00,1299,11.09,43.03,998.76,15.7,16.5,0,9.5,"$GNGGA,194623.000,4900.3547,N,00826.0861,E,1,7,1.11,125.0,M,47.9,M,,*48",,,,
2022-02-13T20:47:02+01:00,1300,11.12,41.39,998.76,16.4,17.3,0,9.5,"$GNGGA,194645.000,4900.3578,N,00826.0702,E,1,7,1.11,125.8,M,47.9,M,,*46",,,,
2022-02-13T20:47:56+01:00,1301,12.71,38.8,998.72,23,48,0,11,"$GNGGA,194751.000,4900.3721,N,00826.0194,E,1,6,1.41,133.1,M,47.9,M,,*4F",,,,
2022-02-13T20:48:17+01:00,1302,12.45,37.71,998.72,16.1,17,0,9.5,"$GNGGA,194812.000,4900.3668,N,00826.0025,E,1,5,1.46,139.7,M,47.9,M,,*48",,,,
2022-02-13T20:48:38+01:00,1303,12.26,37.71,998.74,15.9,16.7,0,9.5,"$GNGGA,194833.000,4900.3678,N,00825.9827,E,1,6,1.41,139.5,M,47.9,M,,*4C",,,,
2022-02-13T20:48:59+01:00,1304,12.16,39.34,998.76,15.6,16.4,0,9.5,"$GNGGA,194854.000,4900.3761,N,00825.9542,E,1,7,1.11,132.7,M,47.9,M,,*47",,,,
2022-02-13T20:49:20+01:00,1305,12.07,37.87,998.77,15.6,16.4,0,9.5,"$GNGGA,194915.000,4900.3824,N,00825.9428,E,1,6,1.41,144.8,M,47.9,M,,*4A",,,,
2022-02-13T20:49:44+01:00,1306,11.92,37.07,998.76,16.9,17.8,0,9,"$GNGGA,194936.000,4900.3852,N,00825.9252,E,1,6,1.40,148.4,M,47.9,M,,*40",,,,
2022-02-13T20:50:04+01:00,1307,11.76,36.97,998.76,17.4,18.3,0,9,"$GNGGA,194959.000,4900.3887,N,00825.8954,E,1,6,1.40,148.2,M,47.9,M,,*4B",,,,
2022-02-13T20:52:43+01:00,1308,11.84,40.04,998.77,16.9,17.8,0,11,"$GNGGA,195223.000,4900.4034,N,00825.7589,E,1,7,1.24,127.6,M,47.9,M,,*46",,,,
2022-02-13T20:53:06+01:00,1309,11.97,39.33,998.78,12.6,13.3,0,10.5,"$GNGGA,195300.000,4900.4141,N,00825.7278,E,1,8,1.02,124.1,M,47.9,M,,*43",,,,
2022-02-13T20:53:27+01:00,1310,12.11,38.63,998.8,13.3,14,0,10.5,"$GNGGA,195322.000,4900.4185,N,00825.7098,E,1,8,1.02,120.2,M,47.9,M,,*40",,,,
2022-02-13T20:53:48+01:00,1311,12.18,37.03,998.8,14.4,15.2,0,10,"$GNGGA,195343.000,4900.4234,N,00825.6927,E,1,8,1.02,117.5,M,47.9,M,,*41",,,,
2022-02-13T20:54:09+01:00,1312,12.17,36.12,998.81,15.9,16.7,0,9.5,"$GNGGA,195404.000,4900.4280,N,00825.6747,E,1,8,1.02,113.9,M,47.9,M,,*4A",,,,
2022-02-13T20:54:30+01:00,1313,12.19,36.33,998.8,15.8,16.6,0,10,"$GNGGA,195425.000,4900.4305,N,00825.6591,E,1,8,1.02,109.0,M,47.9,M,,*4E",,,,
2022-02-13T20:54:51+01:00,1314,12.23,36.27,998.81,15.2,16,0,10,"$GNGGA,195446.000,4900.4347,N,00825.6394,E,1,7,1.23,107.7,M,47.9,M,,*4B",,,,
2022-02-13T20:55:12+01:00,1315,12.3,37.07,998.81,13.5,14.2,0,10.5,"$GNGGA,195507.000,4900.4347,N,00825.6113,E,1,8,1.02,117.2,M,47.9,M,,*4A",,,,
2022-02-13T20:55:33+01:00,1316,12.37,37.65,998.8,13.9,14.6,0,10,"$GNGGA,195528.000,4900.4407,N,00825.5965,E,1,8,1.02,115.6,M,47.9,M,,*48",,,,
2022-02-13T20:55:55+01:00,1317,12.41,36.7,998.8,14.9,15.7,0,10,"$GNGGA,195550.000,4900.4455,N,00825.5770,E,1,8,1.02,114.9,M,47.9,M,,*44",,,,
2022-02-13T20:56:16+01:00,1318,12.38,36.37,998.8,15.9,16.7,0,9.5,"$GNGGA,195611.000,4900.4486,N,00825.5566,E,1,8,1.02,115.2,M,47.9,M,,*43",,,,
2022-02-13T20:56:37+01:00,1319,12.22,36.13,998.8,16.3,17.2,0,9,"$GNGGA,195632.000,4900.4494,N,00825.5303,E,1,8,1.02,128.3,M,47.9,M,,*4B",,,,
2022-02-13T20:56:58+01:00,1320,12.03,36.45,998.79,15.8,16.6,0,9,"$GNGGA,195653.000,4900.4539,N,00825.5117,E,1,8,1.02,126.4,M,47.9,M,,*44",,,,
2022-02-13T20:57:19+01:00,1321,11.96,37.86,998.78,15.5,16.3,0,9.5,"$GNGGA,195714.000,4900.4552,N,00825.4892,E,1,8,1.02,124.7,M,47.9,M,,*4F",,,,
2022-02-13T20:57:40+01:00,1322,11.97,39.49,998.78,14.9,15.7,0,10,"$GNGGA,195735.000,4900.4590,N,00825.4699,E,1,8,1.02,121.8,M,47.9,M,,*4D",,,,
2022-02-13T20:58:00+01:00,1323,12.01,39.04,998.77,14.5,15.3,0,10,"$GNGGA,195755.000,4900.4549,N,00825.4465,E,1,8,1.02,127.6,M,47.9,M,,*46",,,,
2022-02-13T20:58:21+01:00,1324,12.04,37.38,998.77,14.4,15.2,0,10,"$GNGGA,195816.000,4900.4627,N,00825.4354,E,1,8,1.02,131.5,M,47.9,M,,*44",,,,
2022-02-13T20:58:42+01:00,1325,12.05,37.04,998.76,14.3,15.1,0,10,"$GNGGA,195837.000,4900.4641,N,00825.4288,E,1,8,1.03,136.3,M,47.9,M,,*47",,,,
2022-02-13T20:59:03+01:00,1326,12.09,36.49,998.76,13.9,14.6,0,9.5,"$GNGGA,195858.000,4900.4606,N,00825.4209,E,1,8,1.02,146.6,M,47.9,M,,*47",,,,
2022-02-13T20:59:24+01:00,1327,12.03,36.08,998.76,13.5,14.2,0,9.5,"$GNGGA,195919.000,4900.4645,N,00825.4158,E,1,8,1.02,144.8,M,47.9,M,,*4F",,,,
2022-02-13T20:59:45+01:00,1328,11.93,36.14,998.76,13.2,13.9,0,9.5,"$GNGGA,195940.000,4900.4741,N,00825.4060,E,1,8,1.02,127.8,M,47.9,M,,*49",,,,
2022-02-13T21:00:06+01:00,1329,11.88,36.47,998.75,14.2,15,0,9.5,"$GNGGA,200001.000,4900.4785,N,00825.3869,E,1,8,1.02,121.7,M,47.9,M,,*4D",,,,
2022-02-13T21:00:27+01:00,1330,11.87,36.92,998.76,14.5,15.3,0,9.5,"$GNGGA,200022.000,4900.4809,N,00825.3690,E,1,8,1.02,118.7,M,47.9,M,,*45",,,,
2022-02-13T21:00:48+01:00,1331,11.88,36.65,998.76,14.5,15.3,0,9,"$GNGGA,200043.000,4900.4866,N,00825.3539,E,1,8,1.02,112.5,M,47.9,M,,*43",,,,
2022-02-13T21:01:09+01:00,1332,11.85,36.93,998.75,14.5,15.3,0,9,"$GNGGA,200104.000,4900.4895,N,00825.3338,E,1,8,1.02,112.6,M,47.9,M,,*49",,,,
2022-02-13T21:01:30+01:00,1333,11.85,36.7,998.75,15,15.8,0,9.5,"$GNGGA,200125.000,4900.4930,N,00825.3139,E,1,8,1.02,115.1,M,47.9,M,,*47",,,,
2022-02-13T21:01:51+01:00,1334,11.89,37.12,998.74,16,16.9,0,9.5,"$GNGGA,200146.000,4900.4958,N,00825.2970,E,1,8,1.02,116.0,M,47.9,M,,*4A",,,,
2022-02-13T21:02:12+01:00,1335,11.91,37.16,998.73,15.9,16.7,0,9.5,"$GNGGA,200207.000,4900.4992,N,00825.2763,E,1,8,1.02,118.0,M,47.9,M,,*48",,,,
2022-02-13T21:02:33+01:00,1336,11.96,37.13,998.73,15.6,16.4,0,9.5,"$GNGGA,200228.000,4900.5010,N,00825.2543,E,2,8,1.02,122.0,M,47.9,M,,*4D",,,,
2022-02-13T21:02:54+01:00,1337,12.04,38.28,998.73,15.1,15.9,0,9.5,"$GNGGA,200249.000,4900.5061,N,00825.2384,E,2,8,1.02,119.4,M,47.9,M,,*4D",,,,
2022-02-13T21:03:15+01:00,1338,12.12,38.3,998.74,13.7,14.4,0,10,"$GNGGA,200310.000,4900.5119,N,00825.2245,E,2,8,1.02,116.9,M,47.9,M,,*40",,,,
2022-02-13T21:03:36+01:00,1339,12.23,38.23,998.74,14.4,15.2,0,10,"$GNGGA,200331.000,4900.5168,N,00825.2081,E,2,8,1.02,113.7,M,47.9,M,,*44",,,,
2022-02-13T21:03:57+01:00,1340,12.35,38.28,998.73,13.9,14.6,0,10,"$GNGGA,200352.000,4900.5192,N,00825.1920,E,2,8,1.02,110.5,M,47.9,M,,*44",,,,
2022-02-13T21:04:18+01:00,1341,12.46,38.07,998.73,14.5,15.3,0,10,"$GNGGA,200413.000,4900.5213,N,00825.1745,E,2,8,1.02,109.4,M,47.9,M,,*48",,,,
2022-02-13T21:04:40+01:00,1342,12.57,37.97,998.73,13.6,14.3,0,10.5,"$GNGGA,200435.000,4900.5250,N,00825.1562,E,2,8,1.02,108.2,M,47.9,M,,*4B",,,,
2022-02-13T21:05:01+01:00,1343,12.64,36.97,998.72,13.8,14.5,0,10,"$GNGGA,200456.000,4900.5260,N,00825.1358,E,2,8,1.02,108.4,M,47.9,M,,*44",,,,
2022-02-13T21:05:22+01:00,1344,12.71,36.24,998.72,13.2,13.9,0,10,"$GNGGA,200517.000,4900.5293,N,00825.1184,E,2,8,1.02,101.8,M,47.9,M,,*4A",,,,
2022-02-13T21:05:43+01:00,1345,12.77,36.41,998.73,13.1,13.8,0,10,"$GNGGA,200538.000,4900.5332,N,00825.1009,E,2,8,1.02,103.6,M,47.9,M,,*45",,,,
2022-02-13T21:06:04+01:00,1346,12.8,36.25,998.73,13.9,14.6,0,10,"$GNGGA,200559.000,4900.5354,N,00825.0840,E,2,8,1.03,105.4,M,47.9,M,,*43",,,,
2022-02-13T21:06:25+01:00,1347,12.74,35.52,998.72,14.6,15.4,0,9.5,"$GNGGA,200620.000,4900.5411,N,00825.0719,E,2,8,1.02,103.8,M,47.9,M,,*40",,,,
2022-02-13T21:06:46+01:00,1348,12.66,35.54,998.7,16.7,17.6,0,9.5,"$GNGGA,200641.000,4900.5427,N,00825.0595,E,2,8,1.03,102.6,M,47.9,M,,*4A",,,,
2022-02-13T21:07:07+01:00,1349,12.5,35.29,998.68,19.6,20.6,0,9,"$GNGGA,200702.000,4900.5489,N,00825.0775,E,2,8,1.03,102.7,M,47.9,M,,*45",,,,
2022-02-13T21:07:28+01:00,1350,12.3,35.45,998.67,22.9,24.1,0,9,"$GNGGA,200723.000,4900.5582,N,00825.0935,E,2,10,0.93,103.4,M,47.9,M,,*75",,,,
2022-02-13T21:07:49+01:00,1351,12.1,35.8,998.66,24.1,25.4,0,9,"$GNGGA,200744.000,4900.5650,N,00825.1112,E,2,10,0.93,105.6,M,47.9,M,,*70",,,,
2022-02-13T21:08:10+01:00,1352,11.89,36.22,998.66,23.8,25,0,9,"$GNGGA,200805.000,4900.5708,N,00825.1293,E,2,10,0.93,105.8,M,47.9,M,,*72",,,,
2022-02-13T21:08:31+01:00,1353,11.72,36.69,998.63,23.8,25,0,9,"$GNGGA,200826.000,4900.5719,N,00825.1470,E,2,10,0.93,109.5,M,47.9,M,,*79",,,,
2022-02-13T21:08:52+01:00,1354,11.51,37.13,998.59,24.7,26,0,9,"$GNGGA,200847.000,4900.5573,N,00825.1520,E,2,10,0.93,122.8,M,47.9,M,,*70",,,,
2022-02-13T21:09:13+01:00,1355,11.32,37.22,998.62,24.3,25.6,0,9,"$GNGGA,200908.000,4900.5547,N,00825.1669,E,2,10,0.93,127.7,M,47.9,M,,*79",,,,
2022-02-13T21:09:34+01:00,1356,11.14,37.49,998.63,24.3,25.6,0,9,"$GNGGA,200929.000,4900.5605,N,00825.1879,E,2,10,0.93,119.9,M,47.9,M,,*73",,,,
2022-02-13T21:09:55+01:00,1357,11.04,37.84,998.64,23.1,24.3,0,9,"$GNGGA,200950.000,4900.5576,N,00825.2081,E,2,10,0.93,115.6,M,47.9,M,,*75",,,,
2022-02-13T21:10:16+01:00,1358,10.94,37.97,998.65,23.2,24.4,0,9,"$GNGGA,201011.000,4900.5574,N,00825.2290,E,2,10,0.93,111.5,M,47.9,M,,*7F",,,,
2022-02-13T21:10:37+01:00,1359,10.83,38.29,998.65,23.4,24.6,0,9,"$GNGGA,201032.000,4900.5598,N,00825.2494,E,2,9,1.07,111.8,M,47.9,M,,*47",,,,
2022-02-13T21:10:58+01:00,1360,10.69,38.87,998.64,24.1,25.4,0,8.5,"$GNGGA,201053.000,4900.5638,N,00825.2675,E,2,8,1.22,106.1,M,47.9,M,,*4D",,,,
2022-02-13T21:11:19+01:00,1361,10.57,39.4,998.63,25.4,26.7,0,8.5,"$GNGGA,201114.000,4900.5712,N,00825.2865,E,2,9,1.08,113.0,M,47.9,M,,*45",,,,
2022-02-13T21:11:40+01:00,1362,10.45,39.64,998.62,25.2,26.5,0,8.5,"$GNGGA,201135.000,4900.5753,N,00825.3051,E,2,9,1.08,116.8,M,47.9,M,,*40",,,,
2022-02-13T21:12:01+01:00,1363,10.34,39.61,998.61,26.1,27.5,0,9,"$GNGGA,201156.000,4900.5752,N,00825.3257,E,2,9,1.08,123.6,M,47.9,M,,*48",,,,
2022-02-13T21:12:22+01:00,1364,10.24,39.96,998.62,26.4,27.8,0,9,"$GNGGA,201217.000,4900.5685,N,00825.3461,E,2,8,1.23,122.0,M,47.9,M,,*49",,,,
2022-02-13T21:12:43+01:00,1365,10.17,40.56,998.61,26.7,28.1,0,8.5,"$GNGGA,201238.000,4900.5773,N,00825.3645,E,2,8,1.23,117.8,M,47.9,M,,*46",,,,
2022-02-13T21:13:04+01:00,1366,10.13,40.5,998.61,24.7,26,0,8.5,"$GNGGA,201259.000,4900.5793,N,00825.3814,E,2,8,1.24,114.3,M,47.9,M,,*4A",,,,
2022-02-13T21:13:25+01:00,1367,10.09,40.26,998.61,24,25.3,0,8.5,"$GNGGA,201320.000,4900.5854,N,00825.4008,E,2,9,1.08,115.5,M,47.9,M,,*4B",,,,
2022-02-13T21:13:46+01:00,1368,10.05,40.07,998.61,24.5,25.8,0,8.5,"$GNGGA,201341.000,4900.5763,N,00825.4152,E,2,10,0.93,128.4,M,47.9,M,,*7D",,,,
2022-02-13T21:14:07+01:00,1369,10.05,40.01,998.62,25.3,26.6,0,9,"$GNGGA,201402.000,4900.5580,N,00825.4225,E,2,10,0.94,141.5,M,47.9,M,,*78",,,,
2022-02-13T21:14:28+01:00,1370,10.05,39.78,998.62,24.3,25.6,0,9,"$GNGGA,201423.000,4900.5399,N,00825.4290,E,2,10,0.93,149.2,M,47.9,M,,*73",,,,
2022-02-13T21:14:49+01:00,1371,10.04,39.56,998.62,22.9,24.1,0,9,"$GNGGA,201444.000,4900.5264,N,00825.4314,E,2,10,0.94,153.0,M,47.9,M,,*72",,,,
2022-02-13T21:15:10+01:00,1372,10.06,39.43,998.61,22.6,23.8,0,9,"$GNGGA,201505.000,4900.5178,N,00825.4274,E,2,10,0.94,144.4,M,47.9,M,,*7D",,,,
