created_at,entry_id,field1,field2,field3,field4,field5,field6,field7,field8,latitude,longitude,elevation,status
2022-02-16T19:19:27+01:00,1,14.44,55.71,992.65,22.60,23.80,0,14.00,"$GNGGA,181922.084,4900.4725,N,00825.4278,E,0,0,,116.7,M,47.9,M,,*54",,,,
2022-02-16T19:19:48+01:00,2,14.19,56.24,992.65,20.70,21.80,0,14.00,"$GNGGA,181943.304,4900.4725,N,00825.4278,E,0,0,,116.7,M,47.9,M,,*58",,,,
2022-02-16T19:20:08+01:00,3,13.99,56.55,992.65,19.90,20.90,0,14.00,"$GNGGA,182003.092,4900.5451,N,00825.4437,E,0,1,,116.7,M,47.9,M,,*57",,,,
2022-02-16T19:20:28+01:00,4,13.87,56.70,992.63,19.50,20.50,0,14.00,"$GNGGA,182023.094,4900.4725,N,00825.4278,E,0,1,,116.7,M,47.9,M,,*5F",,,,
2022-02-16T19:20:49+01:00,5,13.81,56.53,992.64,18.50,19.50,0,14.00,"$GNGGA,182044.095,4900.6455,N,00825.2763,E,0,2,,116.7,M,47.9,M,,*53",,,,
2022-02-16T19:21:09+01:00,6,13.82,56.37,992.66,17.80,18.70,0,14.00,"$GNGGA,182104.300,4900.6906,N,00825.4041,E,0,3,,116.7,M,47.9,M,,*52",,,,
2022-02-16T19:21:30+01:00,7,13.88,55.85,992.67,16.50,17.40,0,14.00,"$GNGGA,182125.091,4900.6948,N,00825.4123,E,0,3,,116.7,M,47.9,M,,*55",,,,
2022-02-16T19:21:51+01:00,8,13.89,55.79,992.66,17.20,18.10,0,14.00,"$GNGGA,182146.098,4900.6915,N,00825.4041,E,0,3,,116.7,M,47.9,M,,*54",,,,
2022-02-16T19:22:11+01:00,9,13.87,55.90,992.69,17.50,18.40,0,14.00,"$GNGGA,182206.000,4900.6830,N,00825.3976,E,1,5,1.81,119.5,M,47.9,M,,*42",,,,
2022-02-16T19:22:32+01:00,10,13.83,56.18,992.69,17.80,18.70,0,14.00,"$GNGGA,182227.000,4900.6840,N,00825.3984,E,1,6,1.37,108.3,M,47.9,M,,*43",,,,
2022-02-16T19:22:53+01:00,11,13.81,56.46,992.70,17.70,18.60,0,13.50,"$GNGGA,182248.000,4900.6839,N,00825.3996,E,1,6,1.38,112.5,M,47.9,M,,*45",,,,
2022-02-16T19:23:14+01:00,12,13.85,56.16,992.69,17.60,18.50,0,14.00,"$GNGGA,182309.000,4900.6817,N,00825.3940,E,1,6,1.29,117.1,M,47.9,M,,*47",,,,
2022-02-16T19:23:34+01:00,13,13.96,55.68,992.72,17.70,18.60,0,14.00,"$GNGGA,182329.000,4900.6816,N,00825.3952,E,1,6,1.29,115.7,M,47.9,M,,*43",,,,
2022-02-16T19:23:56+01:00,14,13.94,55.34,992.70,17.80,18.70,0,14.00,"$GNGGA,182351.000,4900.6818,N,00825.3909,E,1,6,1.29,116.5,M,47.9,M,,*4D",,,,
2022-02-16T19:24:17+01:00,15,13.88,56.20,992.68,18.10,19.10,0,13.50,"$GNGGA,182412.000,4900.6801,N,00825.3927,E,1,6,1.29,116.5,M,47.9,M,,*49",,,,
2022-02-16T19:24:38+01:00,16,13.85,56.43,992.70,18.60,19.60,0,13.50,"$GNGGA,182433.000,4900.6804,N,00825.3929,E,1,6,1.29,119.5,M,47.9,M,,*4E",,,,
2022-02-16T19:24:59+01:00,17,13.86,56.35,992.72,18.70,19.70,0,13.50,"$GNGGA,182454.000,4900.6800,N,00825.3913,E,1,6,1.29,120.9,M,47.9,M,,*44",,,,
2022-02-16T19:25:20+01:00,18,13.88,56.09,992.74,18.90,19.90,0,14.00,"$GNGGA,182515.000,4900.6798,N,00825.3931,E,1,6,1.29,120.1,M,47.9,M,,*46",,,,
2022-02-16T19:25:41+01:00,19,13.91,55.93,992.74,18.70,19.70,0,13.50,"$GNGGA,182536.000,4900.6788,N,00825.3971,E,1,7,1.11,121.4,M,47.9,M,,*4C",,,,
2022-02-16T19:26:02+01:00,20,13.96,55.77,992.73,18.80,19.80,0,14.00,"$GNGGA,182557.000,4900.6792,N,00825.3942,E,1,7,1.11,119.9,M,47.9,M,,*46",,,,
2022-02-16T19:26:23+01:00,21,14.00,55.71,992.74,18.50,19.50,0,14.00,"$GNGGA,182618.000,4900.6794,N,00825.3908,E,1,7,1.11,120.2,M,47.9,M,,*47",,,,
2022-02-16T19:26:44+01:00,22,14.04,55.54,992.75,18.50,19.50,0,14.00,"$GNGGA,182639.000,4900.6798,N,00825.3912,E,2,6,1.29,122.0,M,47.9,M,,*4A",,,,
2022-02-16T19:27:05+01:00,23,14.03,55.47,992.74,17.70,18.60,0,13.50,"$GNGGA,182700.000,4900.6794,N,00825.3835,E,2,7,1.11,125.0,M,47.9,M,,*44",,,,
2022-02-16T19:27:26+01:00,24,13.95,56.06,992.74,17.40,18.30,0,13.50,"$GNGGA,182721.000,4900.6804,N,00825.3854,E,2,6,1.18,127.0,M,47.9,M,,*4C",,,,
2022-02-16T19:27:47+01:00,25,13.92,56.57,992.74,16.80,17.70,0,13.50,"$GNGGA,182742.000,4900.6793,N,00825.3864,E,2,8,1.12,126.1,M,47.9,M,,*4F",,,,
2022-02-16T19:28:07+01:00,26,13.86,56.49,992.74,16.90,17.80,0,13.50,"$GNGGA,182802.000,4900.6767,N,00825.3792,E,2,8,1.12,124.9,M,47.9,M,,*43",,,,
2022-02-16T19:28:28+01:00,27,13.74,57.00,992.68,17.40,18.30,0,13.50,"$GNGGA,182823.000,4900.6725,N,00825.3651,E,2,8,1.03,127.4,M,47.9,M,,*46",,,,
2022-02-16T19:28:49+01:00,28,13.59,57.75,992.67,18.00,19.00,0,13.00,"$GNGGA,182844.000,4900.6673,N,00825.3423,E,2,8,1.03,132.2,M,47.9,M,,*40",,,,
2022-02-16T19:29:10+01:00,29,13.48,58.26,992.64,17.90,18.80,0,13.00,"$GNGGA,182905.000,4900.6599,N,00825.3189,E,2,8,1.13,132.6,M,47.9,M,,*43",,,,
2022-02-16T19:29:31+01:00,30,13.40,58.50,992.63,17.60,18.50,0,13.00,"$GNGGA,182926.000,4900.6504,N,00825.2984,E,2,8,1.04,131.8,M,47.9,M,,*49",,,,
2022-02-16T19:29:52+01:00,31,13.36,58.53,992.67,16.70,17.60,0,13.00,"$GNGGA,182947.000,4900.6440,N,00825.2785,E,2,8,1.04,130.6,M,47.9,M,,*4F",,,,
2022-02-16T19:30:13+01:00,32,13.29,58.61,992.70,17.10,18.00,0,13.00,"$GNGGA,183008.000,4900.6318,N,00825.2603,E,2,8,1.04,132.1,M,47.9,M,,*4C",,,,
2022-02-16T19:30:34+01:00,33,13.22,58.79,992.69,16.80,17.70,0,13.00,"$GNGGA,183029.000,4900.6262,N,00825.2351,E,2,7,1.34,127.0,M,47.9,M,,*48",,,,
2022-02-16T19:30:55+01:00,34,13.15,59.14,992.70,17.10,18.00,0,13.00,"$GNGGA,183050.000,4900.6121,N,00825.2194,E,2,8,1.04,133.6,M,47.9,M,,*46",,,,
2022-02-16T19:31:16+01:00,35,13.10,59.33,992.71,17.10,18.00,0,13.00,"$GNGGA,183111.000,4900.6054,N,00825.1960,E,2,8,1.04,139.0,M,47.9,M,,*4D",,,,
2022-02-16T19:31:37+01:00,36,13.06,59.39,992.74,17.60,18.50,0,13.00,"$GNGGA,183132.000,4900.5983,N,00825.1706,E,2,7,1.23,137.1,M,47.9,M,,*47",,,,
2022-02-16T19:31:58+01:00,37,13.03,59.40,992.77,17.80,18.70,0,13.00,"$GNGGA,183153.000,4900.5936,N,00825.1453,E,2,8,1.04,136.2,M,47.9,M,,*45",,,,
2022-02-16T19:32:19+01:00,38,13.01,59.54,992.83,28.20,29.70,0,13.00,"$GNGGA,183214.000,4900.5890,N,00825.1147,E,2,8,1.04,122.3,M,47.9,M,,*4C",,,,
2022-02-16T19:32:40+01:00,39,13.01,59.51,992.81,22.10,23.30,0,13.00,"$GNGGA,183235.000,4900.5921,N,00825.0865,E,2,8,0.98,122.2,M,47.9,M,,*49",,,,
2022-02-16T19:33:01+01:00,40,13.02,59.44,992.77,20.30,21.40,0,13.00,"$GNGGA,183256.000,4900.5961,N,00825.0564,E,2,9,0.92,122.1,M,47.9,M,,*4C",,,,
2022-02-16T19:33:22+01:00,41,13.07,59.27,992.76,16.70,17.60,0,13.00,"$GNGGA,183317.000,4900.5968,N,00825.0326,E,2,9,0.92,122.2,M,47.9,M,,*42",,,,
2022-02-16T19:33:43+01:00,42,13.07,59.14,992.74,16.30,17.20,0,13.00,"$GNGGA,183338.000,4900.5964,N,00825.0047,E,2,9,0.92,124.1,M,47.9,M,,*42",,,,
2022-02-16T19:34:04+01:00,43,13.08,59.27,992.73,16.30,17.20,0,13.00,"$GNGGA,183359.000,4900.5788,N,00824.9917,E,2,9,0.92,143.6,M,47.9,M,,*4B",,,,
2022-02-16T19:34:25+01:00,44,13.14,59.27,992.75,17.20,18.10,0,13.00,"$GNGGA,183420.000,4900.5839,N,00824.9685,E,2,9,0.92,124.2,M,47.9,M,,*46",,,,
2022-02-16T19:34:46+01:00,45,13.16,59.03,992.80,16.90,17.80,0,13.00,"$GNGGA,183441.000,4900.5840,N,00824.9431,E,2,9,0.92,121.8,M,47.9,M,,*4D",,,,
2022-02-16T19:35:07+01:00,46,13.20,59.04,992.79,16.90,17.80,0,13.00,"$GNGGA,183502.000,4900.5961,N,00824.9178,E,2,9,0.92,124.9,M,47.9,M,,*45",,,,
2022-02-16T19:35:28+01:00,47,13.23,58.81,992.82,16.50,17.40,0,13.00,"$GNGGA,183523.000,4900.5850,N,00824.8905,E,2,9,0.92,131.0,M,47.9,M,,*4B",,,,
2022-02-16T19:35:49+01:00,48,13.22,58.84,992.80,17.40,18.30,0,13.00,"$GNGGA,183544.000,4900.5763,N,00824.8717,E,2,9,0.92,126.7,M,47.9,M,,*49",,,,
2022-02-16T19:36:10+01:00,49,13.18,59.16,992.78,17.50,18.40,0,13.00,"$GNGGA,183605.000,4900.5774,N,00824.8511,E,2,8,1.13,109.2,M,47.9,M,,*4C",,,,
2022-02-16T19:36:31+01:00,50,13.21,59.28,992.74,16.70,17.60,0,13.50,"$GNGGA,183626.000,4900.5786,N,00824.8213,E,2,9,0.92,125.2,M,47.9,M,,*42",,,,
2022-02-16T19:36:52+01:00,51,13.21,59.10,992.76,15.20,16.00,0,13.00,"$GNGGA,183647.000,4900.5844,N,00824.7994,E,2,9,0.92,125.9,M,47.9,M,,*44",,,,
2022-02-16T19:37:14+01:00,52,13.19,59.16,992.78,15.60,16.40,0,13.00,"$GNGGA,183709.000,4900.5854,N,00824.7740,E,2,9,0.92,124.1,M,47.9,M,,*40",,,,
2022-02-16T19:37:35+01:00,53,13.20,59.26,992.75,16.00,16.90,0,13.00,"$GNGGA,183730.000,4900.5859,N,00824.7498,E,2,9,0.92,125.0,M,47.9,M,,*41",,,,
2022-02-16T21:04:37+01:00,54,18.06,51.49,992.37,17.50,18.40,0,16.00,"$GNGGA,200431.299,4900.5939,N,00824.7290,E,1,6,1.41,123.1,M,47.9,M,,*44",,,,
2022-02-16T21:05:45+01:00,55,16.52,55.59,992.34,17.40,18.30,0,14.50,"$GNGGA,200540.000,4900.5807,N,00824.7832,E,1,5,1.47,119.2,M,47.9,M,,*40",,,,
2022-02-16T21:06:06+01:00,56,16.04,57.84,992.37,17.00,17.90,0,14.00,"$GNGGA,200601.000,4900.5793,N,00824.8007,E,1,6,1.41,111.8,M,47.9,M,,*42",,,,
2022-02-16T21:06:27+01:00,57,15.43,59.66,992.32,15.30,16.10,0,13.50,"$GNGGA,200622.000,4900.5826,N,00824.8258,E,1,6,1.41,120.0,M,47.9,M,,*40",,,,
2022-02-16T21:06:48+01:00,58,14.97,62.51,992.24,15.00,15.80,0,14.00,"$GNGGA,200643.000,4900.5772,N,00824.8364,E,1,6,1.41,123.2,M,47.9,M,,*46",,,,
2022-02-16T21:07:09+01:00,59,14.74,62.10,992.20,15.00,15.80,0,14.00,"$GNGGA,200704.000,4900.5745,N,00824.8658,E,1,6,1.41,119.7,M,47.9,M,,*46",,,,
2022-02-16T21:07:30+01:00,60,14.54,61.45,992.21,15.00,15.80,0,14.00,"$GNGGA,200725.000,4900.5760,N,00824.8891,E,1,6,1.41,119.9,M,47.9,M,,*47",,,,
2022-02-16T21:07:51+01:00,61,14.28,62.15,992.24,14.90,15.70,0,13.50,"$GNGGA,200746.000,4900.5847,N,00824.9082,E,1,6,1.41,118.6,M,47.9,M,,*4D",,,,
2022-02-16T21:08:12+01:00,62,14.11,62.87,992.24,14.70,15.50,0,14.00,"$GNGGA,200807.000,4900.5889,N,00824.9267,E,1,6,1.42,119.3,M,47.9,M,,*4B",,,,
2022-02-16T21:08:33+01:00,63,14.06,62.98,992.26,14.70,15.50,0,14.00,"$GNGGA,200828.000,4900.5919,N,00824.9504,E,1,7,1.35,127.3,M,47.9,M,,*40",,,,
2022-02-16T21:08:54+01:00,64,13.98,62.61,992.26,14.60,15.40,0,13.50,"$GNGGA,200849.000,4900.5810,N,00824.9669,E,1,7,1.36,123.6,M,47.9,M,,*45",,,,
2022-02-16T21:09:15+01:00,65,13.88,62.89,992.25,14.80,15.60,0,13.00,"$GNGGA,200910.000,4900.5679,N,00824.9828,E,1,6,1.48,120.4,M,47.9,M,,*4B",,,,
2022-02-16T21:09:36+01:00,66,13.71,63.49,992.22,15.60,16.40,0,12.50,"$GNGGA,200931.000,4900.5581,N,00825.0071,E,1,6,1.41,126.0,M,47.9,M,,*4B",,,,
2022-02-16T21:09:57+01:00,67,13.55,64.36,992.20,14.60,15.40,0,12.50,"$GNGGA,200952.000,4900.5628,N,00825.0235,E,1,7,1.36,137.2,M,47.9,M,,*4F",,,,
2022-02-16T21:10:18+01:00,68,13.45,64.65,992.23,14.40,15.20,0,13.00,"$GNGGA,201013.000,4900.5548,N,00825.0346,E,1,7,1.36,127.6,M,47.9,M,,*47",,,,
2022-02-16T21:10:39+01:00,69,13.37,64.97,992.23,16.00,16.90,0,13.00,"$GNGGA,201034.000,4900.5535,N,00825.0343,E,1,7,1.36,124.0,M,47.9,M,,*48",,,,
2022-02-16T21:11:00+01:00,70,13.33,64.97,992.24,19.50,20.50,0,13.00,"$GNGGA,201055.000,4900.5535,N,00825.0342,E,1,8,1.24,123.8,M,47.9,M,,*4D",,,,
2022-02-16T21:11:21+01:00,71,13.25,64.79,992.16,21.20,22.30,0,12.50,"$GNGGA,201116.000,4900.5496,N,00825.0421,E,1,9,1.14,124.1,M,47.9,M,,*4D",,,,
2022-02-16T21:11:42+01:00,72,13.17,65.35,992.16,21.60,22.70,0,12.50,"$GNGGA,201137.000,4900.5480,N,00825.0451,E,2,9,1.20,123.9,M,47.9,M,,*45",,,,
2022-02-16T21:12:03+01:00,73,13.13,65.50,992.16,21.70,22.80,0,12.50,"$GNGGA,201158.000,4900.5494,N,00825.0451,E,2,10,1.06,122.2,M,47.9,M,,*7F",,,,
2022-02-16T21:12:24+01:00,74,13.13,65.39,992.14,21.20,22.30,0,12.50,"$GNGGA,201219.000,4900.5509,N,00825.0444,E,2,10,1.00,120.3,M,47.9,M,,*7D",,,,
2022-02-16T21:12:45+01:00,75,13.11,65.30,992.15,19.30,20.30,0,12.50,"$GNGGA,201240.000,4900.5510,N,00825.0449,E,2,11,0.91,119.1,M,47.9,M,,*74",,,,
2022-02-16T21:13:06+01:00,76,13.09,65.16,992.18,18.30,19.30,0,12.50,"$GNGGA,201301.000,4900.5428,N,00825.0604,E,2,11,0.91,117.3,M,47.9,M,,*7D",,,,
2022-02-16T21:13:27+01:00,77,13.05,65.23,992.19,18.40,19.40,0,12.50,"$GNGGA,201322.000,4900.5394,N,00825.0793,E,2,11,0.91,118.4,M,47.9,M,,*7B",,,,
2022-02-16T21:13:48+01:00,78,13.00,65.55,992.19,19.30,20.30,0,12.50,"$GNGGA,201343.000,4900.5331,N,00825.0987,E,2,10,0.94,120.0,M,47.9,M,,*73",,,,
2022-02-16T21:14:09+01:00,79,13.01,65.86,992.21,19.20,20.20,0,13.00,"$GNGGA,201404.000,4900.5284,N,00825.1189,E,2,10,1.00,120.4,M,47.9,M,,*77",,,,
2022-02-16T21:14:30+01:00,80,13.05,65.50,992.22,18.70,19.70,0,12.50,"$GNGGA,201425.000,4900.5254,N,00825.1388,E,2,10,1.00,116.9,M,47.9,M,,*72",,,,
2022-02-16T21:14:51+01:00,81,13.06,65.20,992.24,16.80,17.70,0,12.50,"$GNGGA,201446.000,4900.5218,N,00825.1597,E,2,10,1.00,122.7,M,47.9,M,,*7E",,,,
2022-02-16T21:15:12+01:00,82,13.09,65.14,992.30,14.40,15.20,0,12.50,"$GNGGA,201507.000,4900.5176,N,00825.1813,E,2,10,1.02,125.9,M,47.9,M,,*7B",,,,
2022-02-16T21:15:33+01:00,83,13.22,65.25,992.26,11.90,12.50,0,13.00,"$GNGGA,201528.000,4900.5136,N,00825.2006,E,2,10,1.00,130.4,M,47.9,M,,*76",,,,
2022-02-16T21:15:54+01:00,84,13.34,64.10,992.16,11.30,11.90,0,12.50,"$GNGGA,201549.000,4900.5115,N,00825.2230,E,2,10,1.00,124.6,M,47.9,M,,*70",,,,
2022-02-16T21:16:15+01:00,85,13.48,63.61,992.14,10.80,11.40,0,13.00,"$GNGGA,201610.000,4900.5032,N,00825.2417,E,2,10,1.02,122.8,M,47.9,M,,*72",,,,
2022-02-16T21:16:36+01:00,86,13.59,63.32,992.17,11.00,11.60,0,13.00,"$GNGGA,201631.000,4900.4967,N,00825.2584,E,2,9,1.15,133.5,M,47.9,M,,*41",,,,
2022-02-16T21:16:57+01:00,87,13.66,62.98,992.18,11.40,12.00,0,12.50,"$GNGGA,201652.000,4900.4921,N,00825.2787,E,2,9,1.03,139.1,M,47.9,M,,*4E",,,,
2022-02-16T21:17:18+01:00,88,13.70,62.93,992.20,12.60,13.30,0,12.50,"$GNGGA,201713.000,4900.4881,N,00825.2986,E,2,10,1.00,141.5,M,47.9,M,,*7E",,,,
2022-02-16T21:17:39+01:00,89,13.76,62.73,992.22,12.90,13.60,0,13.00,"$GNGGA,201734.000,4900.4886,N,00825.3231,E,2,9,1.03,132.2,M,47.9,M,,*42",,,,
2022-02-16T21:18:00+01:00,90,13.82,62.57,992.21,13.40,14.10,0,13.00,"$GNGGA,201755.000,4900.4797,N,00825.3404,E,2,9,1.03,138.8,M,47.9,M,,*4A",,,,
2022-02-16T21:18:21+01:00,91,13.92,62.51,992.21,13.40,14.10,0,13.00,"$GNGGA,201816.000,4900.4791,N,00825.3610,E,2,10,0.92,141.0,M,47.9,M,,*74",,,,
2022-02-16T21:18:48+01:00,92,14.00,62.10,992.18,13.20,13.90,0,13.00,"$GNGGA,201843.000,4900.4929,N,00825.3831,E,2,8,1.19,124.6,M,47.9,M,,*4A",,,,
2022-02-16T21:19:09+01:00,93,14.06,61.75,992.18,13.40,14.10,0,13.00,"$GNGGA,201904.000,4900.5059,N,00825.3934,E,2,9,1.14,123.5,M,47.9,M,,*4B",,,,
2022-02-16T21:19:30+01:00,94,14.11,61.84,992.13,14.00,14.80,0,13.00,"$GNGGA,201925.000,4900.5055,N,00825.4212,E,2,10,1.04,125.0,M,47.9,M,,*76",,,,
2022-02-16T21:19:51+01:00,95,14.16,61.75,992.14,14.50,15.30,0,13.00,"$GNGGA,201946.000,4900.5124,N,00825.4358,E,2,9,1.06,122.8,M,47.9,M,,*4E",,,,
2022-02-16T21:20:12+01:00,96,14.16,61.62,992.10,16.10,17.00,0,13.00,"$GNGGA,202007.000,4900.5190,N,00825.4272,E,2,10,1.03,134.3,M,47.9,M,,*76",,,,
2022-02-16T21:20:33+01:00,97,14.18,61.15,992.06,17.80,18.70,0,13.00,"$GNGGA,202028.000,4900.5181,N,00825.4183,E,2,10,1.03,137.1,M,47.9,M,,*77",,,,
