created_at,entry_id,field1,field2,field3,field4,field5,field6,field7,field8,latitude,longitude,elevation,status
2022-01-11T18:21:03+01:00,1,25.94,34.66,1019.45,142.50,149.70,0,0,"$GNGGA,172058.299,9000.0000,N,00000.0000,E,0,0,,137.0,M,13.0,M,,*58",,,,
2022-01-11T18:21:24+01:00,2,25.78,34.77,1019.48,149.40,156.90,0,0,"$GNGGA,172119.000,4900.5259,N,00825.4698,E,1,5,3.41,141.9,M,47.9,M,,*41",,,,
2022-01-11T18:21:44+01:00,3,25.71,34.10,1019.47,145.50,152.80,0,0,"$GNGGA,172139.000,4900.5257,N,00825.4699,E,1,5,3.41,141.7,M,47.9,M,,*42",,,,
2022-01-11T18:22:04+01:00,4,25.69,33.58,1019.48,144.00,151.30,0,0,"$GNGGA,172159.000,4900.5263,N,00825.4772,E,1,6,3.50,147.1,M,47.9,M,,*44",,,,
2022-01-11T18:22:25+01:00,5,25.72,33.42,1019.48,137.30,144.20,0,0,"$GNGGA,172220.000,4900.5245,N,00825.4814,E,1,6,3.14,152.7,M,47.9,M,,*40",,,,
2022-01-11T18:22:45+01:00,6,25.77,33.28,1019.48,140.00,147.10,0,0,"$GNGGA,172240.000,4900.5263,N,00825.4793,E,1,6,3.13,154.5,M,47.9,M,,*41",,,,
2022-01-11T18:23:05+01:00,7,25.84,33.07,1019.49,136.70,143.60,0,0,"$GNGGA,172300.000,4900.5249,N,00825.4853,E,1,6,3.13,159.2,M,47.9,M,,*45",,,,
2022-01-11T18:23:26+01:00,8,25.93,33.03,1019.48,130.70,137.30,0,0,"$GNGGA,172321.000,4900.5266,N,00825.4802,E,1,6,3.13,160.1,M,47.9,M,,*46",,,,
2022-01-11T18:23:46+01:00,9,26.02,32.81,1019.47,128.30,134.80,0,0,"$GNGGA,172341.000,4900.5304,N,00825.4864,E,1,6,3.13,161.1,M,47.9,M,,*44",,,,
2022-01-11T18:24:06+01:00,10,26.11,32.21,1019.47,127.50,133.90,0,0,"$GNGGA,172401.000,4900.5305,N,00825.4799,E,1,6,3.13,155.1,M,47.9,M,,*4C",,,,
2022-01-11T18:24:27+01:00,11,26.21,31.94,1019.48,127.80,134.20,0,0,"$GNGGA,172422.000,4900.5306,N,00825.4765,E,1,6,3.13,151.8,M,47.9,M,,*40",,,,
2022-01-11T18:24:47+01:00,12,26.30,31.38,1019.48,126.40,132.80,0,0,"$GNGGA,172442.000,4900.5280,N,00825.4860,E,1,6,3.13,153.9,M,47.9,M,,*40",,,,
2022-01-11T18:25:07+01:00,13,26.40,31.41,1019.48,124.90,131.20,0,0,"$GNGGA,172502.000,4900.5292,N,00825.4910,E,1,6,3.13,157.9,M,47.9,M,,*44",,,,
2022-01-11T18:25:28+01:00,14,26.50,30.70,1019.48,123.20,129.40,0,0,"$GNGGA,172523.000,4900.5285,N,00825.4830,E,1,6,3.13,153.9,M,47.9,M,,*46",,,,
2022-01-11T18:25:48+01:00,15,26.59,30.29,1019.48,124.90,131.20,0,0,"$GNGGA,172543.000,4900.5262,N,00825.4882,E,1,6,3.42,157.0,M,47.9,M,,*49",,,,
2022-01-11T18:26:08+01:00,16,26.68,30.34,1019.48,125.40,131.70,0,0,"$GNGGA,172603.000,4900.5349,N,00825.4680,E,1,6,3.13,148.6,M,47.9,M,,*46",,,,
2022-01-11T18:26:29+01:00,17,26.78,30.49,1019.49,125.40,131.70,0,0,"$GNGGA,172624.000,4900.5356,N,00825.4694,E,1,6,3.13,144.8,M,47.9,M,,*4A",,,,
2022-01-11T18:26:49+01:00,18,26.87,30.25,1019.50,119.70,125.70,0,0,"$GNGGA,172644.000,4900.5277,N,00825.4667,E,1,6,7.19,143.5,M,47.9,M,,*46",,,,
2022-01-11T18:27:10+01:00,19,26.96,28.75,1019.50,113.70,119.40,0,0,"$GNGGA,172705.000,4900.5264,N,00825.4685,E,1,6,3.13,145.7,M,47.9,M,,*46",,,,
2022-01-11T18:27:31+01:00,20,27.05,28.04,1019.50,111.00,116.60,0,0,"$GNGGA,172726.000,4900.5233,N,00825.4719,E,1,6,3.13,147.9,M,47.9,M,,*4D",,,,
2022-01-11T18:27:51+01:00,21,27.13,28.11,1019.50,116.00,121.90,0,0,"$GNGGA,172746.000,4900.5246,N,00825.4681,E,1,7,3.00,146.8,M,47.9,M,,*4A",,,,
2022-01-11T18:28:12+01:00,22,27.22,28.46,1019.50,117.80,123.70,0,0,"$GNGGA,172807.000,4900.5267,N,00825.4739,E,1,7,3.01,147.9,M,47.9,M,,*40",,,,
2022-01-11T18:28:33+01:00,23,27.31,28.41,1019.50,118.00,124.00,0,0,"$GNGGA,172828.000,4900.5272,N,00825.4788,E,1,7,3.01,151.0,M,47.9,M,,*4D",,,,
2022-01-11T18:28:53+01:00,24,27.40,28.24,1019.51,114.70,120.50,0,0,"$GNGGA,172848.000,4900.5303,N,00825.4826,E,1,7,3.01,150.7,M,47.9,M,,*41",,,,
2022-01-11T18:29:14+01:00,25,27.49,28.06,1019.52,115.30,121.10,0,0,"$GNGGA,172909.000,4900.5300,N,00825.4682,E,1,7,3.01,144.9,M,47.9,M,,*4D",,,,
2022-01-11T18:29:35+01:00,26,27.58,27.18,1019.53,115.50,121.30,0,0,"$GNGGA,172930.000,4900.5270,N,00825.4615,E,1,7,3.02,139.8,M,47.9,M,,*47",,,,
2022-01-11T18:29:55+01:00,27,27.66,26.01,1019.54,114.90,120.70,0,0,"$GNGGA,172950.000,4900.5250,N,00825.4560,E,1,7,3.37,136.4,M,47.9,M,,*47",,,,
2022-01-11T18:30:15+01:00,28,27.73,26.52,1019.56,113.60,119.30,0,0,"$GNGGA,173010.000,4900.5257,N,00825.4595,E,1,7,3.02,136.2,M,47.9,M,,*46",,,,
2022-01-11T18:30:36+01:00,29,27.81,26.88,1019.57,110.30,115.90,0,0,"$GNGGA,173031.000,4900.5269,N,00825.4655,E,1,7,3.03,136.4,M,47.9,M,,*40",,,,
2022-01-11T18:30:56+01:00,30,27.88,26.33,1019.56,109.40,114.90,0,0,"$GNGGA,173051.000,4900.5264,N,00825.4679,E,1,7,3.03,137.1,M,47.9,M,,*41",,,,
2022-01-11T18:31:16+01:00,31,27.96,26.13,1019.57,109.20,114.70,0,0,"$GNGGA,173111.000,4900.5275,N,00825.4688,E,1,7,3.03,140.8,M,47.9,M,,*43",,,,
2022-01-11T18:31:37+01:00,32,28.02,26.34,1019.58,109.40,114.90,0,0,"$GNGGA,173132.000,4900.5277,N,00825.4690,E,1,7,3.04,141.2,M,47.9,M,,*45",,,,
2022-01-11T18:31:57+01:00,33,28.09,26.31,1019.58,107.20,112.60,0,0,"$GNGGA,173152.000,4900.5279,N,00825.4707,E,1,7,3.04,141.1,M,47.9,M,,*41",,,,
2022-01-11T18:32:18+01:00,34,28.16,26.35,1019.58,110.10,115.70,0,0,"$GNGGA,173213.000,4900.5268,N,00825.4695,E,1,7,3.04,143.8,M,47.9,M,,*46",,,,
2022-01-11T18:32:38+01:00,35,28.22,26.18,1019.58,113.50,119.20,0,0,"$GNGGA,173233.000,4900.5276,N,00825.4678,E,1,7,3.05,144.6,M,47.9,M,,*40",,,,
2022-01-11T18:32:58+01:00,36,28.29,25.97,1019.57,117.80,123.70,0,0,"$GNGGA,173253.000,4900.5265,N,00825.4689,E,1,7,3.05,144.3,M,47.9,M,,*4F",,,,
2022-01-11T18:33:19+01:00,37,28.35,26.07,1019.57,118.10,124.10,0,0,"$GNGGA,173314.000,4900.5278,N,00825.4623,E,1,7,3.06,144.6,M,47.9,M,,*47",,,,
2022-01-11T18:33:39+01:00,38,28.42,25.93,1019.56,117.60,123.50,0,0,"$GNGGA,173334.000,4900.5309,N,00825.4805,E,1,8,1.79,151.0,M,47.9,M,,*4F",,,,
2022-01-11T18:33:59+01:00,39,28.48,25.85,1019.57,111.80,117.40,0,0,"$GNGGA,173354.000,4900.5291,N,00825.4931,E,1,8,1.78,157.4,M,47.9,M,,*4C",,,,
2022-01-11T18:34:20+01:00,40,28.54,25.92,1019.56,107.40,112.80,0,0,"$GNGGA,173415.000,4900.5321,N,00825.4924,E,1,8,1.78,160.0,M,47.9,M,,*40",,,,
2022-01-11T18:34:40+01:00,41,28.60,25.81,1019.57,105.30,110.60,0,0,"$GNGGA,173435.000,4900.5351,N,00825.5098,E,1,7,3.07,173.1,M,47.9,M,,*4C",,,,
2022-01-11T18:35:00+01:00,42,28.65,25.82,1019.57,107.10,112.50,0,0,"$GNGGA,173455.000,4900.5340,N,00825.5170,E,1,7,3.08,180.7,M,47.9,M,,*48",,,,
2022-01-11T18:35:21+01:00,43,28.69,25.92,1019.56,108.30,113.80,0,0,"$GNGGA,173516.000,4900.5327,N,00825.5128,E,1,8,1.76,181.4,M,47.9,M,,*44",,,,
2022-01-11T18:35:41+01:00,44,28.73,25.67,1019.56,113.50,119.20,0,0,"$GNGGA,173536.000,4900.5290,N,00825.5096,E,1,8,1.75,181.5,M,47.9,M,,*4D",,,,
2022-01-11T18:36:01+01:00,45,28.77,25.66,1019.55,114.70,120.50,0,0,"$GNGGA,173556.000,4900.5284,N,00825.4957,E,1,7,3.09,181.4,M,47.9,M,,*4C",,,,
2022-01-11T18:36:22+01:00,46,28.82,25.71,1019.55,115.80,121.60,0,0,"$GNGGA,173617.000,4900.5308,N,00825.4996,E,1,7,3.10,181.3,M,47.9,M,,*4D",,,,
2022-01-11T18:36:42+01:00,47,28.86,25.69,1019.56,112.30,118.00,0,0,"$GNGGA,173637.000,4900.5365,N,00825.5024,E,1,9,1.65,180.7,M,47.9,M,,*4E",,,,
2022-01-11T18:37:02+01:00,48,28.91,25.57,1019.55,111.40,117.00,0,0,"$GNGGA,173657.000,4900.5328,N,00825.5034,E,1,9,1.64,177.5,M,47.9,M,,*4B",,,,
2022-01-11T18:37:23+01:00,49,28.95,25.61,1019.54,110.50,116.10,0,0,"$GNGGA,173718.000,4900.5367,N,00825.5034,E,1,9,1.64,175.8,M,47.9,M,,*45",,,,
2022-01-11T18:37:43+01:00,50,28.99,25.55,1019.54,112.20,117.90,0,0,"$GNGGA,173738.000,4900.5349,N,00825.5003,E,1,9,1.64,169.8,M,47.9,M,,*42",,,,
2022-01-11T18:38:03+01:00,51,29.04,25.23,1019.54,113.00,118.70,0,0,"$GNGGA,173758.000,4900.5339,N,00825.4794,E,1,9,1.64,164.1,M,47.9,M,,*4F",,,,
2022-01-11T18:38:24+01:00,52,29.08,25.32,1019.53,115.10,120.90,0,0,"$GNGGA,173819.000,4900.5345,N,00825.4679,E,1,9,1.63,153.4,M,47.9,M,,*4A",,,,
2022-01-11T18:38:44+01:00,53,29.11,25.38,1019.53,115.40,121.20,0,0,"$GNGGA,173839.000,4900.5287,N,00825.4618,E,1,9,1.63,149.2,M,47.9,M,,*4D",,,,
2022-01-11T18:39:04+01:00,54,29.15,25.45,1019.54,115.90,121.70,0,0,"$GNGGA,173859.000,4900.5317,N,00825.4533,E,1,9,1.63,143.0,M,47.9,M,,*41",,,,
2022-01-11T18:39:25+01:00,55,29.18,25.30,1019.54,116.60,122.50,0,0,"$GNGGA,173920.000,4900.5250,N,00825.4615,E,1,9,1.62,145.1,M,47.9,M,,*4D",,,,
2022-01-11T18:39:45+01:00,56,29.21,25.08,1019.53,117.20,123.10,0,0,"$GNGGA,173940.000,4900.5279,N,00825.4518,E,1,9,1.62,144.7,M,47.9,M,,*49",,,,
2022-01-11T18:40:06+01:00,57,29.25,24.99,1019.53,116.10,122.00,0,0,"$GNGGA,174001.000,4900.5271,N,00825.4847,E,1,9,1.62,153.4,M,47.9,M,,*48",,,,
2022-01-11T18:40:27+01:00,58,29.28,25.23,1019.53,113.40,119.10,0,0,"$GNGGA,174022.000,4900.5312,N,00825.4887,E,1,9,1.61,156.1,M,47.9,M,,*42",,,,
2022-01-11T18:40:47+01:00,59,29.30,25.14,1019.54,112.30,118.00,0,0,"$GNGGA,174042.000,4900.5324,N,00825.4905,E,1,9,1.84,159.5,M,47.9,M,,*4A",,,,
2022-01-11T18:41:07+01:00,60,29.32,25.05,1019.54,111.80,117.40,0,0,"$GNGGA,174102.000,4900.5300,N,00825.4988,E,1,9,1.61,161.6,M,47.9,M,,*4F",,,,
2022-01-11T18:41:28+01:00,61,29.35,25.00,1019.54,112.20,117.90,0,0,"$GNGGA,174123.000,4900.5296,N,00825.4914,E,1,8,2.05,162.6,M,47.9,M,,*44",,,,
2022-01-11T18:41:48+01:00,62,29.37,25.34,1019.54,114.70,120.50,0,0,"$GNGGA,174143.000,4900.5284,N,00825.4932,E,1,9,1.60,161.0,M,47.9,M,,*41",,,,
2022-01-11T18:42:08+01:00,63,29.40,25.44,1019.53,112.70,118.40,0,0,"$GNGGA,174203.000,4900.5325,N,00825.4869,E,1,9,1.60,158.8,M,47.9,M,,*41",,,,
2022-01-11T18:42:29+01:00,64,29.43,25.26,1019.54,111.80,117.40,0,0,"$GNGGA,174224.000,4900.5295,N,00825.4803,E,1,8,2.04,154.9,M,47.9,M,,*4F",,,,
2022-01-11T18:42:49+01:00,65,29.46,25.23,1019.54,112.50,118.20,0,0,"$GNGGA,174244.000,4900.5305,N,00825.4839,E,1,9,1.59,150.7,M,47.9,M,,*48",,,,
2022-01-11T18:43:09+01:00,66,29.49,25.21,1019.54,118.00,124.00,0,0,"$GNGGA,174304.000,4900.5317,N,00825.4744,E,1,9,1.59,148.6,M,47.9,M,,*43",,,,
2022-01-11T18:43:30+01:00,67,29.52,25.01,1019.54,117.50,123.40,0,0,"$GNGGA,174325.000,4900.5304,N,00825.4836,E,1,9,1.59,148.7,M,47.9,M,,*49",,,,
2022-01-11T18:43:50+01:00,68,29.55,24.85,1019.53,110.90,116.50,0,0,"$GNGGA,174345.000,4900.5292,N,00825.4851,E,1,9,1.58,150.0,M,47.9,M,,*4F",,,,
2022-01-11T18:44:10+01:00,69,29.57,24.75,1019.53,107.90,113.30,0,0,"$GNGGA,174405.000,4900.5284,N,00825.4674,E,1,9,1.58,140.1,M,47.9,M,,*42",,,,
2022-01-11T18:44:31+01:00,70,29.59,24.85,1019.54,113.00,118.70,0,0,"$GNGGA,174426.000,4900.5264,N,00825.4730,E,1,9,1.58,140.4,M,47.9,M,,*49",,,,
2022-01-11T18:44:51+01:00,71,29.61,24.92,1019.56,116.20,122.10,0,0,"$GNGGA,174446.000,4900.5260,N,00825.4700,E,1,9,1.57,146.6,M,47.9,M,,*43",,,,
2022-01-11T18:45:12+01:00,72,29.63,24.75,1019.56,112.80,118.50,0,0,"$GNGGA,174507.000,4900.5236,N,00825.4714,E,1,9,1.89,146.9,M,47.9,M,,*4D",,,,
2022-01-11T18:45:33+01:00,73,29.65,24.94,1019.55,107.20,112.60,0,0,"$GNGGA,174528.000,4900.5280,N,00825.4675,E,1,9,1.57,144.2,M,47.9,M,,*41",,,,
2022-01-11T18:45:53+01:00,74,29.68,24.98,1019.55,108.40,113.90,0,0,"$GNGGA,174548.000,4900.5326,N,00825.4587,E,1,9,1.56,137.3,M,47.9,M,,*40",,,,
2022-01-11T18:46:13+01:00,75,29.70,24.70,1019.56,114.80,120.60,0,0,"$GNGGA,174608.000,4900.5280,N,00825.4619,E,1,9,1.56,130.8,M,47.9,M,,*42",,,,
2022-01-11T18:46:34+01:00,76,29.73,24.93,1019.57,115.60,121.40,0,0,"$GNGGA,174629.000,4900.5243,N,00825.4656,E,1,9,1.56,131.1,M,47.9,M,,*4D",,,,
2022-01-11T18:46:54+01:00,77,29.76,24.91,1019.57,112.20,117.90,0,0,"$GNGGA,174649.000,4900.5224,N,00825.4530,E,1,9,1.55,130.9,M,47.9,M,,*43",,,,
2022-01-11T18:47:14+01:00,78,29.78,25.00,1019.58,105.70,111.00,0,0,"$GNGGA,174709.000,4900.5235,N,00825.4496,E,1,9,1.55,132.0,M,47.9,M,,*40",,,,
2022-01-11T18:47:35+01:00,79,29.81,24.90,1019.59,102.00,107.20,0,0,"$GNGGA,174730.000,4900.5238,N,00825.4533,E,1,9,1.55,132.9,M,47.9,M,,*40",,,,
2022-01-11T18:47:55+01:00,80,29.83,24.76,1019.60,101.20,106.30,0,0,"$GNGGA,174750.000,4900.5239,N,00825.4618,E,1,9,1.54,130.6,M,47.9,M,,*41",,,,
2022-01-11T18:48:16+01:00,81,29.86,24.65,1019.60,104.70,110.00,0,0,"$GNGGA,174811.000,4900.5263,N,00825.4680,E,1,9,1.54,128.7,M,47.9,M,,*4D",,,,
2022-01-11T18:48:37+01:00,82,29.88,24.58,1019.61,110.90,116.50,0,0,"$GNGGA,174832.000,4900.5244,N,00825.4581,E,1,9,1.54,121.2,M,47.9,M,,*47",,,,
2022-01-11T18:48:57+01:00,83,29.90,24.52,1019.61,114.30,120.10,0,0,"$GNGGA,174852.000,4900.5237,N,00825.4665,E,1,10,1.39,134.9,M,47.9,M,,*70",,,,
2022-01-11T18:49:18+01:00,84,29.92,24.58,1019.62,115.40,121.20,0,0,"$GNGGA,174913.000,4900.5243,N,00825.4718,E,1,10,1.39,143.0,M,47.9,M,,*75",,,,
2022-01-11T18:49:39+01:00,85,29.94,24.49,1019.62,114.20,120.00,0,0,"$GNGGA,174934.000,4900.5224,N,00825.4678,E,1,10,1.38,141.6,M,47.9,M,,*73",,,,
2022-01-11T18:49:59+01:00,86,29.95,24.47,1019.63,114.80,120.60,0,0,"$GNGGA,174954.000,4900.5219,N,00825.4655,E,1,10,1.38,141.9,M,47.9,M,,*7B",,,,
2022-01-11T18:50:19+01:00,87,29.96,24.42,1019.62,113.70,119.40,0,0,"$GNGGA,175014.000,4900.5246,N,00825.4615,E,1,10,1.38,135.5,M,47.9,M,,*76",,,,
2022-01-11T18:50:40+01:00,88,29.98,24.33,1019.62,112.80,118.50,0,0,"$GNGGA,175035.000,4900.5266,N,00825.4635,E,1,10,1.38,130.6,M,47.9,M,,*73",,,,
2022-01-11T18:51:00+01:00,89,29.99,24.51,1019.63,109.60,115.10,0,0,"$GNGGA,175055.000,4900.5235,N,00825.4547,E,1,10,1.38,127.7,M,47.9,M,,*72",,,,
2022-01-11T18:51:20+01:00,90,30.01,24.59,1019.63,111.80,117.40,0,0,"$GNGGA,175115.000,4900.5240,N,00825.4518,E,1,10,1.38,123.6,M,47.9,M,,*7A",,,,
2022-01-11T18:51:41+01:00,91,30.02,24.35,1019.63,113.00,118.70,0,0,"$GNGGA,175136.000,4900.5244,N,00825.4555,E,1,10,1.38,124.5,M,47.9,M,,*72",,,,
2022-01-11T18:52:01+01:00,92,30.04,24.38,1019.64,114.40,120.20,0,0,"$GNGGA,175156.000,4900.5237,N,00825.4604,E,1,10,1.37,125.9,M,47.9,M,,*75",,,,
2022-01-11T18:52:21+01:00,93,30.05,24.38,1019.64,116.20,122.10,0,0,"$GNGGA,175216.000,4900.5235,N,00825.4613,E,1,10,1.37,129.0,M,47.9,M,,*73",,,,
2022-01-11T18:52:42+01:00,94,30.07,24.34,1019.64,116.30,122.20,0,0,"$GNGGA,175237.000,4900.5245,N,00825.4629,E,1,10,1.37,131.9,M,47.9,M,,*7E",,,,
2022-01-11T18:53:02+01:00,95,30.08,24.39,1019.65,116.60,122.50,0,0,"$GNGGA,175257.000,4900.5252,N,00825.4676,E,1,10,1.37,138.4,M,47.9,M,,*70",,,,
2022-01-11T18:53:22+01:00,96,30.09,24.45,1019.65,114.40,120.20,0,0,"$GNGGA,175317.000,4900.5249,N,00825.4672,E,1,10,1.37,140.5,M,47.9,M,,*75",,,,
2022-01-11T18:53:43+01:00,97,30.11,24.46,1019.65,113.90,119.60,0,0,"$GNGGA,175338.000,4900.5261,N,00825.4669,E,1,10,1.37,137.8,M,47.9,M,,*75",,,,
2022-01-11T18:54:03+01:00,98,30.12,24.45,1019.65,115.40,121.20,0,0,"$GNGGA,175358.000,4900.5261,N,00825.4564,E,1,10,1.37,131.9,M,47.9,M,,*7A",,,,
2022-01-11T18:54:23+01:00,99,30.14,24.59,1019.65,115.50,121.30,0,0,"$GNGGA,175418.000,4900.5247,N,00825.4557,E,1,10,1.37,128.6,M,47.9,M,,*7A",,,,
2022-01-11T18:54:44+01:00,100,30.16,24.43,1019.65,115.10,120.90,0,0,"$GNGGA,175439.000,4900.5248,N,00825.4541,E,1,10,1.36,129.7,M,47.9,M,,*70",,,,
2022-01-11T18:55:04+01:00,101,30.19,24.32,1019.65,114.00,119.80,0,0,"$GNGGA,175459.000,4900.5232,N,00825.4574,E,1,10,1.36,131.5,M,47.9,M,,*76",,,,
2022-01-11T18:55:24+01:00,102,30.20,24.16,1019.65,113.70,119.40,0,0,"$GNGGA,175519.000,4900.5240,N,00825.4576,E,1,10,1.36,134.3,M,47.9,M,,*77",,,,
2022-01-11T18:55:45+01:00,103,30.22,24.18,1019.66,115.40,121.20,0,0,"$GNGGA,175540.000,4900.5269,N,00825.4626,E,1,10,1.61,138.5,M,47.9,M,,*7E",,,,
2022-01-11T18:56:05+01:00,104,30.23,24.23,1019.66,112.00,117.70,0,0,"$GNGGA,175600.000,4900.5269,N,00825.4606,E,1,11,1.60,137.0,M,47.9,M,,*71",,,,
2022-01-11T18:56:25+01:00,105,30.25,24.21,1019.65,113.60,119.30,0,0,"$GNGGA,175620.000,4900.5262,N,00825.4602,E,1,11,1.34,136.9,M,47.9,M,,*75",,,,
2022-01-11T18:56:46+01:00,106,30.27,24.34,1019.67,114.20,120.00,0,0,"$GNGGA,175641.000,4900.5277,N,00825.4566,E,1,11,1.60,132.5,M,47.9,M,,*7E",,,,
2022-01-11T18:57:06+01:00,107,30.28,24.39,1019.68,118.90,124.90,0,0,"$GNGGA,175701.000,4900.5273,N,00825.4523,E,1,11,1.34,125.2,M,47.9,M,,*7E",,,,
2022-01-11T18:57:27+01:00,108,30.29,24.30,1019.68,119.80,125.80,0,0,"$GNGGA,175722.000,4900.5260,N,00825.4525,E,1,11,1.34,121.3,M,47.9,M,,*7E",,,,
2022-01-11T18:57:47+01:00,109,30.31,24.32,1019.68,118.80,124.80,0,0,"$GNGGA,175742.000,4900.5230,N,00825.4469,E,1,11,1.34,117.7,M,47.9,M,,*75",,,,
2022-01-11T18:58:07+01:00,110,30.33,24.29,1019.69,112.00,117.70,0,0,"$GNGGA,175802.000,4900.5234,N,00825.4400,E,1,11,1.34,111.5,M,47.9,M,,*71",,,,
2022-01-11T18:58:28+01:00,111,30.34,24.26,1019.69,105.30,110.60,0,0,"$GNGGA,175823.000,4900.5234,N,00825.4350,E,1,11,1.34,105.2,M,47.9,M,,*72",,,,
2022-01-11T18:58:49+01:00,112,30.36,24.22,1019.70,100.30,105.40,0,0,"$GNGGA,175844.000,4900.5243,N,00825.4354,E,1,11,1.33,103.9,M,47.9,M,,*7D",,,,
2022-01-11T18:59:09+01:00,113,30.38,24.17,1019.70,104.90,110.20,0,0,"$GNGGA,175904.000,4900.5246,N,00825.4343,E,1,11,1.33,103.0,M,47.9,M,,*72",,,,
2022-01-11T18:59:30+01:00,114,30.39,24.14,1019.71,108.10,113.60,0,0,"$GNGGA,175925.000,4900.5262,N,00825.4296,E,1,11,1.33,99.7,M,47.9,M,,*4B",,,,
2022-01-11T18:59:50+01:00,115,30.41,24.13,1019.70,111.20,116.80,0,0,"$GNGGA,175945.000,4900.5245,N,00825.4255,E,1,11,1.33,96.0,M,47.9,M,,*4F",,,,
2022-01-11T19:00:11+01:00,116,30.42,24.16,1019.71,111.80,117.40,0,0,"$GNGGA,180006.000,4900.5244,N,00825.4277,E,1,11,1.33,93.5,M,47.9,M,,*4A",,,,
2022-01-11T19:00:32+01:00,117,30.43,24.04,1019.72,108.90,114.40,0,0,"$GNGGA,180027.000,4900.5250,N,00825.4218,E,1,11,1.33,92.0,M,47.9,M,,*41",,,,
2022-01-11T19:00:53+01:00,118,30.44,24.10,1019.71,106.40,111.80,0,0,"$GNGGA,180048.000,4900.5227,N,00825.4167,E,1,11,1.33,88.7,M,47.9,M,,*4F",,,,
2022-01-11T19:01:14+01:00,119,30.44,24.09,1019.71,106.20,111.60,0,0,"$GNGGA,180109.000,4900.5212,N,00825.4176,E,1,11,1.33,88.7,M,47.9,M,,*4D",,,,
2022-01-11T19:01:35+01:00,120,30.45,23.97,1019.71,105.00,110.30,0,0,"$GNGGA,180130.000,4900.5222,N,00825.4259,E,1,11,1.33,92.5,M,47.9,M,,*43",,,,
2022-01-11T19:01:55+01:00,121,30.46,24.11,1019.72,102.40,107.60,0,0,"$GNGGA,180150.000,4900.5232,N,00825.4259,E,1,11,1.32,91.7,M,47.9,M,,*44",,,,
2022-01-11T19:02:15+01:00,122,30.47,24.19,1019.72,98.50,103.50,0,0,"$GNGGA,180210.000,4900.5223,N,00825.4203,E,1,11,1.32,88.1,M,47.9,M,,*42",,,,
2022-01-11T19:02:36+01:00,123,30.47,24.05,1019.71,98.50,103.50,0,0,"$GNGGA,180231.000,4900.5247,N,00825.4253,E,1,11,1.32,91.1,M,47.9,M,,*4E",,,,
2022-01-11T19:02:56+01:00,124,30.48,23.96,1019.71,97.00,101.90,0,0,"$GNGGA,180251.000,4900.5247,N,00825.4268,E,1,11,1.53,94.3,M,47.9,M,,*40",,,,
2022-01-11T19:03:17+01:00,125,30.49,23.99,1019.71,96.80,101.70,0,0,"$GNGGA,180312.000,4900.5241,N,00825.4287,E,1,11,1.32,97.9,M,47.9,M,,*4F",,,,
2022-01-11T19:03:38+01:00,126,30.49,24.12,1019.70,103.60,108.80,0,0,"$GNGGA,180333.000,4900.5250,N,00825.4256,E,1,11,1.86,95.6,M,47.9,M,,*42",,,,
2022-01-11T19:03:58+01:00,127,30.49,24.11,1019.70,105.60,110.90,0,0,"$GNGGA,180353.000,4900.5244,N,00825.4189,E,1,11,1.32,87.6,M,47.9,M,,*4C",,,,
2022-01-11T19:04:18+01:00,128,30.49,24.18,1019.68,105.00,110.30,0,0,"$GNGGA,180413.000,4900.5254,N,00825.4254,E,1,11,1.32,91.8,M,47.9,M,,*44",,,,
2022-01-11T19:04:39+01:00,129,30.50,24.15,1019.69,101.10,106.20,0,0,"$GNGGA,180434.000,4900.5255,N,00825.4298,E,1,11,1.31,96.9,M,47.9,M,,*45",,,,
2022-01-11T19:04:59+01:00,130,30.50,24.17,1019.69,102.90,108.10,0,0,"$GNGGA,180454.000,4900.5255,N,00825.4295,E,1,11,1.31,97.5,M,47.9,M,,*43",,,,
2022-01-11T19:05:19+01:00,131,30.51,24.10,1019.70,106.50,111.90,0,0,"$GNGGA,180514.000,4900.5253,N,00825.4275,E,1,10,1.32,97.9,M,47.9,M,,*40",,,,
2022-01-11T19:05:40+01:00,132,30.52,23.97,1019.70,107.50,112.90,0,0,"$GNGGA,180535.000,4900.5250,N,00825.4286,E,1,10,1.32,97.1,M,47.9,M,,*44",,,,
2022-01-11T19:06:00+01:00,133,30.53,23.76,1019.70,106.90,112.30,0,0,"$GNGGA,180555.000,4900.5244,N,00825.4287,E,1,10,1.31,96.2,M,47.9,M,,*47",,,,
2022-01-11T19:06:20+01:00,134,30.53,23.88,1019.68,104.00,109.30,0,0,"$GNGGA,180615.000,4900.5243,N,00825.4273,E,1,9,2.03,95.4,M,47.9,M,,*73",,,,
2022-01-11T19:06:41+01:00,135,30.54,23.86,1019.68,102.50,107.70,0,0,"$GNGGA,180636.000,4900.5253,N,00825.4286,E,1,10,1.31,95.3,M,47.9,M,,*44",,,,
2022-01-11T19:07:02+01:00,136,30.54,23.98,1019.67,102.10,107.30,0,0,"$GNGGA,180657.000,4900.5261,N,00825.4314,E,1,10,1.49,96.2,M,47.9,M,,*45",,,,
2022-01-11T19:07:23+01:00,137,30.55,23.98,1019.67,104.40,109.70,0,0,"$GNGGA,180718.000,4900.5243,N,00825.4290,E,1,10,2.04,93.7,M,47.9,M,,*48",,,,
2022-01-11T19:07:44+01:00,138,30.56,23.99,1019.66,107.50,112.90,0,0,"$GNGGA,180739.000,4900.5247,N,00825.4259,E,1,10,2.05,92.0,M,47.9,M,,*4D",,,,
2022-01-11T19:08:04+01:00,139,30.56,24.03,1019.66,108.80,114.30,0,0,"$GNGGA,180759.000,4900.5238,N,00825.4236,E,1,10,1.48,90.6,M,47.9,M,,*44",,,,
2022-01-11T19:08:25+01:00,140,30.57,23.83,1019.65,106.90,112.30,0,0,"$GNGGA,180820.000,4900.5245,N,00825.4295,E,1,10,1.30,97.9,M,47.9,M,,*41",,,,
2022-01-11T19:08:46+01:00,141,30.58,23.76,1019.65,107.20,112.60,0,0,"$GNGGA,180841.000,4900.5267,N,00825.4377,E,1,10,1.30,106.1,M,47.9,M,,*7A",,,,
2022-01-11T19:09:06+01:00,142,30.58,23.81,1019.64,110.10,115.70,0,0,"$GNGGA,180901.000,4900.5275,N,00825.4508,E,1,10,1.30,121.2,M,47.9,M,,*74",,,,
2022-01-11T19:09:26+01:00,143,30.58,23.89,1019.64,109.60,115.10,0,0,"$GNGGA,180921.000,4900.5257,N,00825.4475,E,1,9,2.07,119.5,M,47.9,M,,*4E",,,,
2022-01-11T19:09:47+01:00,144,30.58,23.82,1019.65,105.70,111.00,0,0,"$GNGGA,180942.000,4900.5248,N,00825.4479,E,1,9,2.07,121.6,M,47.9,M,,*41",,,,
2022-01-11T19:10:07+01:00,145,30.59,23.71,1019.65,99.60,104.60,0,0,"$GNGGA,181002.000,4900.5246,N,00825.4500,E,1,9,1.55,122.5,M,47.9,M,,*48",,,,
2022-01-11T19:10:27+01:00,146,30.59,23.74,1019.65,99.60,104.60,0,0,"$GNGGA,181022.000,4900.5252,N,00825.4526,E,1,10,1.53,125.0,M,47.9,M,,*77",,,,
2022-01-11T19:10:48+01:00,147,30.59,23.70,1019.66,99.20,104.20,0,0,"$GNGGA,181043.000,4900.5261,N,00825.4570,E,1,10,1.46,132.7,M,47.9,M,,*76",,,,
2022-01-11T19:11:08+01:00,148,30.59,23.81,1019.67,100.90,106.00,0,0,"$GNGGA,181103.000,4900.5257,N,00825.4593,E,1,10,1.29,137.4,M,47.9,M,,*74",,,,
2022-01-11T19:11:28+01:00,149,30.60,23.89,1019.67,100.20,105.30,0,0,"$GNGGA,181123.000,4900.5235,N,00825.4524,E,1,9,2.09,131.1,M,47.9,M,,*44",,,,
2022-01-11T19:11:49+01:00,150,30.60,23.93,1019.67,101.70,106.80,0,0,"$GNGGA,181144.000,4900.5219,N,00825.4456,E,1,9,2.10,125.9,M,47.9,M,,*4A",,,,
2022-01-11T19:12:09+01:00,151,30.61,23.83,1019.67,106.00,111.40,0,0,"$GNGGA,181204.000,4900.5247,N,00825.4525,E,1,10,1.44,126.0,M,47.9,M,,*73",,,,
2022-01-11T19:12:29+01:00,152,30.61,23.89,1019.68,106.80,112.20,0,0,"$GNGGA,181224.000,4900.5253,N,00825.4643,E,1,10,1.29,137.7,M,47.9,M,,*7B",,,,
2022-01-11T19:12:53+01:00,153,30.62,23.86,1019.69,105.60,110.90,0,0,"$GNGGA,181248.000,4900.5276,N,00825.4791,E,1,11,1.17,152.5,M,47.9,M,,*75",,,,
2022-01-11T19:13:13+01:00,154,30.64,23.85,1019.70,101.90,107.00,0,0,"$GNGGA,181308.000,4900.5289,N,00825.4956,E,1,11,1.16,168.5,M,47.9,M,,*7D",,,,
2022-01-11T19:13:34+01:00,155,30.65,23.70,1019.70,103.10,108.30,0,0,"$GNGGA,181329.000,4900.5282,N,00825.4897,E,1,10,1.52,169.1,M,47.9,M,,*7D",,,,
2022-01-11T19:13:54+01:00,156,30.66,23.63,1019.71,102.90,108.10,0,0,"$GNGGA,181349.000,4900.5270,N,00825.4864,E,1,11,1.16,166.7,M,47.9,M,,*72",,,,
2022-01-11T19:14:14+01:00,157,30.66,23.52,1019.72,102.50,107.70,0,0,"$GNGGA,181409.000,4900.5271,N,00825.4901,E,1,11,1.16,171.0,M,47.9,M,,*73",,,,
2022-01-11T19:14:35+01:00,158,30.67,23.59,1019.73,100.90,106.00,0,0,"$GNGGA,181430.000,4900.5279,N,00825.4926,E,1,11,1.16,169.8,M,47.9,M,,*75",,,,
2022-01-11T19:14:55+01:00,159,30.66,23.72,1019.74,99.10,104.10,0,0,"$GNGGA,181450.000,4900.5282,N,00825.4956,E,1,10,1.27,172.0,M,47.9,M,,*71",,,,
2022-01-11T19:15:16+01:00,160,30.67,23.86,1019.74,99.00,104.00,0,0,"$GNGGA,181511.000,4900.5275,N,00825.4923,E,1,11,1.16,172.3,M,47.9,M,,*7F",,,,
2022-01-11T19:15:37+01:00,161,30.67,23.72,1019.75,104.40,109.70,0,0,"$GNGGA,181532.000,4900.5271,N,00825.4836,E,1,11,1.16,166.0,M,47.9,M,,*79",,,,
2022-01-11T19:15:57+01:00,162,30.67,23.77,1019.74,105.70,111.00,0,0,"$GNGGA,181552.000,4900.5255,N,00825.4777,E,1,11,1.16,157.0,M,47.9,M,,*71",,,,
2022-01-11T19:16:17+01:00,163,30.67,23.70,1019.75,102.50,107.70,0,0,"$GNGGA,181612.000,4900.5256,N,00825.4840,E,1,11,1.16,157.8,M,47.9,M,,*76",,,,
2022-01-11T19:16:38+01:00,164,30.67,23.69,1019.75,95.50,100.30,0,0,"$GNGGA,181633.000,4900.5246,N,00825.4760,E,1,10,1.50,154.0,M,47.9,M,,*71",,,,
2022-01-11T19:16:58+01:00,165,30.67,23.80,1019.76,100.90,106.00,0,0,"$GNGGA,181653.000,4900.5221,N,00825.4666,E,1,11,1.15,144.9,M,47.9,M,,*79",,,,
2022-01-11T19:17:18+01:00,166,30.67,23.76,1019.76,107.10,112.50,0,0,"$GNGGA,181713.000,4900.5221,N,00825.4578,E,1,10,1.49,133.9,M,47.9,M,,*78",,,,
2022-01-11T19:17:39+01:00,167,30.68,23.76,1019.76,108.90,114.40,0,0,"$GNGGA,181734.000,4900.5191,N,00825.4483,E,1,10,1.27,122.2,M,47.9,M,,*73",,,,
2022-01-11T19:17:59+01:00,168,30.68,23.84,1019.76,104.10,109.40,0,0,"$GNGGA,181754.000,4900.5204,N,00825.4548,E,1,10,1.27,121.3,M,47.9,M,,*7E",,,,
2022-01-11T19:18:19+01:00,169,30.68,23.75,1019.77,100.00,105.10,0,0,"$GNGGA,181814.000,4900.5250,N,00825.4682,E,1,11,1.07,131.1,M,47.9,M,,*71",,,,
2022-01-11T19:18:40+01:00,170,30.69,23.65,1019.77,99.90,104.90,0,0,"$GNGGA,181835.000,4900.5243,N,00825.4738,E,1,11,1.07,139.7,M,47.9,M,,*7E",,,,
2022-01-11T19:19:00+01:00,171,30.69,23.59,1019.78,99.50,104.50,0,0,"$GNGGA,181855.000,4900.5245,N,00825.4725,E,1,11,1.07,138.6,M,47.9,M,,*72",,,,
2022-01-11T19:19:20+01:00,172,30.69,23.63,1019.77,99.50,104.50,0,0,"$GNGGA,181915.000,4900.5235,N,00825.4611,E,1,11,1.26,134.7,M,47.9,M,,*78",,,,
2022-01-11T19:19:41+01:00,173,30.69,23.67,1019.77,98.30,103.30,0,0,"$GNGGA,181936.000,4900.5229,N,00825.4582,E,1,10,1.26,129.5,M,47.9,M,,*72",,,,
2022-01-11T19:20:01+01:00,174,30.68,23.74,1019.78,96.40,101.30,0,0,"$GNGGA,181956.000,4900.5226,N,00825.4593,E,1,11,1.06,129.5,M,47.9,M,,*78",,,,
2022-01-11T19:20:21+01:00,175,30.68,23.74,1019.78,98.20,103.20,0,0,"$GNGGA,182016.000,4900.5226,N,00825.4663,E,1,11,1.06,133.3,M,47.9,M,,*77",,,,
2022-01-11T19:20:42+01:00,176,30.68,23.70,1019.78,104.20,109.50,0,0,"$GNGGA,182037.000,4900.5254,N,00825.4753,E,1,10,1.19,136.5,M,47.9,M,,*7F",,,,
2022-01-11T19:21:02+01:00,177,30.68,23.74,1019.79,109.40,114.90,0,0,"$GNGGA,182057.000,4900.5264,N,00825.4813,E,1,10,1.19,141.4,M,47.9,M,,*70",,,,
2022-01-11T19:21:23+01:00,178,30.69,23.79,1019.79,110.30,115.90,0,0,"$GNGGA,182118.000,4900.5267,N,00825.4928,E,1,11,1.06,150.4,M,47.9,M,,*7F",,,,
2022-01-11T19:21:44+01:00,179,30.70,23.70,1019.79,109.50,115.00,0,0,"$GNGGA,182139.000,4900.5272,N,00825.4887,E,1,11,1.25,150.9,M,47.9,M,,*70",,,,
2022-01-11T19:22:05+01:00,180,30.70,23.74,1019.80,108.90,114.40,0,0,"$GNGGA,182200.000,4900.5248,N,00825.4719,E,1,10,2.26,144.5,M,47.9,M,,*70",,,,
2022-01-11T19:22:26+01:00,181,30.71,23.62,1019.80,109.90,115.40,0,0,"$GNGGA,182221.000,4900.5244,N,00825.4733,E,1,11,1.05,140.8,M,47.9,M,,*7D",,,,
2022-01-11T19:22:47+01:00,182,30.71,23.60,1019.81,105.80,111.10,0,0,"$GNGGA,182242.000,4900.5249,N,00825.4822,E,1,11,1.14,145.3,M,47.9,M,,*74",,,,
2022-01-11T19:23:08+01:00,183,30.71,23.46,1019.80,102.70,107.90,0,0,"$GNGGA,182303.000,4900.5237,N,00825.4659,E,1,10,1.19,135.3,M,47.9,M,,*70",,,,
2022-01-11T19:23:28+01:00,184,30.70,23.57,1019.80,99.30,104.30,0,0,"$GNGGA,182323.000,4900.5221,N,00825.4600,E,1,11,1.19,128.9,M,47.9,M,,*7E",,,,
2022-01-11T19:23:49+01:00,185,30.70,23.67,1019.80,100.80,105.90,0,0,"$GNGGA,182344.000,4900.5224,N,00825.4678,E,1,11,1.05,129.3,M,47.9,M,,*73",,,,
2022-01-11T19:24:09+01:00,186,30.71,23.63,1019.79,102.10,107.30,0,0,"$GNGGA,182404.000,4900.5226,N,00825.4607,E,1,11,1.05,129.3,M,47.9,M,,*7A",,,,
2022-01-11T19:24:29+01:00,187,30.71,23.63,1019.79,101.50,106.60,0,0,"$GNGGA,182424.000,4900.5231,N,00825.4571,E,1,11,1.05,127.2,M,47.9,M,,*73",,,,
2022-01-11T19:24:50+01:00,188,30.72,23.57,1019.79,101.00,106.10,0,0,"$GNGGA,182445.000,4900.5224,N,00825.4593,E,1,11,1.04,130.0,M,47.9,M,,*79",,,,
2022-01-11T19:25:10+01:00,189,30.72,23.56,1019.79,101.50,106.60,0,0,"$GNGGA,182505.000,4900.5227,N,00825.4688,E,1,11,1.04,136.5,M,47.9,M,,*75",,,,
2022-01-11T19:25:30+01:00,190,30.73,23.41,1019.79,101.30,106.40,0,0,"$GNGGA,182525.000,4900.5246,N,00825.4653,E,1,11,1.04,134.6,M,47.9,M,,*77",,,,
2022-01-11T19:25:51+01:00,191,30.74,23.52,1019.77,102.70,107.90,0,0,"$GNGGA,182546.000,4900.5250,N,00825.4629,E,1,11,1.04,131.4,M,47.9,M,,*7F",,,,
2022-01-11T19:26:11+01:00,192,30.74,23.58,1019.78,104.60,109.90,0,0,"$GNGGA,182606.000,4900.5255,N,00825.4675,E,1,11,1.04,133.2,M,47.9,M,,*70",,,,
2022-01-11T19:26:31+01:00,193,30.74,23.58,1019.78,107.00,112.40,0,0,"$GNGGA,182626.000,4900.5262,N,00825.4841,E,1,10,1.18,142.9,M,47.9,M,,*7E",,,,
2022-01-11T19:26:52+01:00,194,30.75,23.60,1019.77,106.70,112.10,0,0,"$GNGGA,182647.000,4900.5273,N,00825.4880,E,1,10,2.34,145.8,M,47.9,M,,*7F",,,,
2022-01-11T19:27:12+01:00,195,30.75,23.68,1019.77,106.80,112.20,0,0,"$GNGGA,182707.000,4900.5257,N,00825.4753,E,1,10,1.18,138.7,M,47.9,M,,*75",,,,
2022-01-11T19:27:32+01:00,196,30.75,23.51,1019.76,105.60,110.90,0,0,"$GNGGA,182727.000,4900.5245,N,00825.4629,E,1,9,2.36,130.6,M,47.9,M,,*46",,,,
2022-01-11T19:27:53+01:00,197,30.76,23.48,1019.75,105.40,110.70,0,0,"$GNGGA,182748.000,4900.5246,N,00825.4547,E,1,10,2.39,124.6,M,47.9,M,,*75",,,,
2022-01-11T19:28:13+01:00,198,30.76,23.45,1019.75,104.20,109.50,0,0,"$GNGGA,182808.000,4900.5249,N,00825.4546,E,1,10,1.23,122.5,M,47.9,M,,*7D",,,,
2022-01-11T19:28:34+01:00,199,30.76,23.41,1019.74,106.60,112.00,0,0,"$GNGGA,182829.000,4900.5275,N,00825.4800,E,1,11,1.03,137.3,M,47.9,M,,*7F",,,,
2022-01-11T19:28:55+01:00,200,30.75,23.40,1019.74,104.70,110.00,0,0,"$GNGGA,182850.000,4900.5297,N,00825.4966,E,1,11,1.12,150.0,M,47.9,M,,*7E",,,,
2022-01-11T19:29:15+01:00,201,30.74,23.51,1019.73,104.40,109.70,0,0,"$GNGGA,182910.000,4900.5290,N,00825.4936,E,1,11,1.12,149.7,M,47.9,M,,*76",,,,
2022-01-11T19:29:35+01:00,202,30.74,23.57,1019.73,103.70,108.90,0,0,"$GNGGA,182930.000,4900.5283,N,00825.4890,E,1,11,1.42,145.9,M,47.9,M,,*7C",,,,
2022-01-11T19:29:56+01:00,203,30.73,23.60,1019.74,104.90,110.20,0,0,"$GNGGA,182951.000,4900.5292,N,00825.4913,E,1,10,1.41,144.9,M,47.9,M,,*72",,,,
2022-01-11T19:30:16+01:00,204,30.73,23.47,1019.74,104.90,110.20,0,0,"$GNGGA,183011.000,4900.5296,N,00825.5038,E,1,11,1.23,150.0,M,47.9,M,,*72",,,,
2022-01-11T19:30:37+01:00,205,30.73,23.61,1019.73,104.60,109.90,0,0,"$GNGGA,183032.000,4900.5287,N,00825.4965,E,1,11,1.03,149.6,M,47.9,M,,*7F",,,,
2022-01-11T19:30:58+01:00,206,30.73,23.58,1019.74,107.80,113.20,0,0,"$GNGGA,183053.000,4900.5281,N,00825.4929,E,1,10,1.28,145.8,M,47.9,M,,*7C",,,,
2022-01-11T19:31:18+01:00,207,30.73,23.57,1019.73,108.00,113.50,0,0,"$GNGGA,183113.000,4900.5273,N,00825.4918,E,1,10,1.18,144.8,M,47.9,M,,*74",,,,
2022-01-11T19:31:39+01:00,208,30.74,23.59,1019.74,103.70,108.90,0,0,"$GNGGA,183134.000,4900.5259,N,00825.4798,E,1,10,1.05,138.3,M,47.9,M,,*73",,,,
2022-01-11T19:32:00+01:00,209,30.74,23.40,1019.74,96.20,101.10,0,0,"$GNGGA,183155.000,4900.5254,N,00825.4776,E,1,11,1.02,136.3,M,47.9,M,,*71",,,,
2022-01-11T19:32:20+01:00,210,30.74,23.42,1019.75,96.90,101.80,0,0,"$GNGGA,183215.000,4900.5246,N,00825.4693,E,1,11,1.12,135.0,M,47.9,M,,*7E",,,,
2022-01-11T19:32:40+01:00,211,30.75,23.44,1019.75,101.60,106.70,0,0,"$GNGGA,183235.000,4900.5251,N,00825.4669,E,1,11,1.12,133.9,M,47.9,M,,*70",,,,
2022-01-11T19:33:01+01:00,212,30.75,23.50,1019.75,105.60,110.90,0,0,"$GNGGA,183256.000,4900.5262,N,00825.4726,E,1,11,1.25,136.5,M,47.9,M,,*72",,,,
2022-01-11T19:33:21+01:00,213,30.75,23.38,1019.76,107.20,112.60,0,0,"$GNGGA,183316.000,4900.5271,N,00825.4809,E,1,11,1.02,141.9,M,47.9,M,,*7E",,,,
2022-01-11T19:33:41+01:00,214,30.75,23.36,1019.75,107.50,112.90,0,0,"$GNGGA,183336.000,4900.5276,N,00825.4830,E,1,11,1.12,142.9,M,47.9,M,,*73",,,,
2022-01-11T19:34:02+01:00,215,30.75,23.41,1019.75,110.30,115.90,0,0,"$GNGGA,183357.000,4900.5276,N,00825.4822,E,1,11,1.39,143.3,M,47.9,M,,*75",,,,
2022-01-11T19:34:22+01:00,216,30.75,23.52,1019.75,114.40,120.20,0,0,"$GNGGA,183417.000,4900.5276,N,00825.4838,E,1,10,1.39,142.4,M,47.9,M,,*7A",,,,
2022-01-11T19:34:43+01:00,217,30.75,23.56,1019.75,114.30,120.10,0,0,"$GNGGA,183438.000,4900.5286,N,00825.4851,E,1,11,1.39,144.5,M,47.9,M,,*71",,,,
2022-01-11T19:35:04+01:00,218,30.75,23.47,1019.75,109.70,115.20,0,0,"$GNGGA,183459.000,4900.5288,N,00825.4806,E,1,11,1.38,142.3,M,47.9,M,,*7B",,,,
2022-01-11T19:35:24+01:00,219,30.74,23.37,1019.75,102.30,107.50,0,0,"$GNGGA,183519.000,4900.5280,N,00825.4769,E,1,10,1.22,139.9,M,47.9,M,,*7C",,,,
2022-01-11T19:35:44+01:00,220,30.73,23.25,1019.75,101.10,106.20,0,0,"$GNGGA,183539.000,4900.5270,N,00825.4736,E,1,11,1.11,137.0,M,47.9,M,,*7D",,,,
2022-01-11T19:36:05+01:00,221,30.73,23.37,1019.76,102.90,108.10,0,0,"$GNGGA,183600.000,4900.5264,N,00825.4704,E,1,11,1.11,135.2,M,47.9,M,,*70",,,,
2022-01-11T19:36:25+01:00,222,30.71,23.47,1019.75,103.70,108.90,0,0,"$GNGGA,183620.000,4900.5251,N,00825.4601,E,1,11,1.11,133.1,M,47.9,M,,*75",,,,
2022-01-11T19:36:45+01:00,223,30.71,23.37,1019.76,102.40,107.60,0,0,"$GNGGA,183640.000,4900.5263,N,00825.4660,E,1,11,1.11,135.6,M,47.9,M,,*74",,,,
2022-01-11T19:37:06+01:00,224,30.70,23.52,1019.77,100.60,105.70,0,0,"$GNGGA,183701.000,4900.5266,N,00825.4751,E,1,11,1.11,139.2,M,47.9,M,,*7E",,,,
2022-01-11T19:37:27+01:00,225,30.69,23.58,1019.78,103.50,108.70,0,0,"$GNGGA,183722.000,4900.5272,N,00825.4739,E,1,10,1.28,138.0,M,47.9,M,,*7C",,,,
2022-01-11T19:37:48+01:00,226,30.69,23.47,1019.77,104.50,109.80,0,0,"$GNGGA,183743.000,4900.5249,N,00825.4681,E,1,11,1.11,136.1,M,47.9,M,,*75",,,,
2022-01-11T19:38:08+01:00,227,30.69,23.45,1019.77,105.50,110.80,0,0,"$GNGGA,183803.000,4900.5256,N,00825.4636,E,1,11,1.11,135.0,M,47.9,M,,*7E",,,,
2022-01-11T19:38:28+01:00,228,30.70,23.49,1019.78,102.80,108.00,0,0,"$GNGGA,183823.000,4900.5248,N,00825.4535,E,1,10,1.28,133.2,M,47.9,M,,*7C",,,,
2022-01-11T19:38:49+01:00,229,30.70,23.52,1019.78,102.20,107.40,0,0,"$GNGGA,183844.000,4900.5241,N,00825.4543,E,1,9,1.33,131.9,M,47.9,M,,*4E",,,,
2022-01-11T19:39:09+01:00,230,30.70,23.34,1019.79,101.50,106.60,0,0,"$GNGGA,183904.000,4900.5283,N,00825.4554,E,1,10,1.31,131.2,M,47.9,M,,*72",,,,
2022-01-11T19:39:29+01:00,231,30.71,23.12,1019.77,98.90,103.90,0,0,"$GNGGA,183924.000,4900.5355,N,00825.4883,E,1,10,1.31,145.8,M,47.9,M,,*74",,,,
2022-01-11T19:39:50+01:00,232,30.71,22.40,1019.77,99.50,104.50,0,0,"$GNGGA,183945.000,4900.5372,N,00825.4856,E,1,10,1.17,159.5,M,47.9,M,,*7A",,,,
2022-01-11T19:40:12+01:00,233,30.72,22.30,1019.78,102.50,107.70,0,0,"$GNGGA,184007.000,4900.5389,N,00825.4981,E,1,10,1.17,168.3,M,47.9,M,,*79",,,,
