created_at,entry_id,field1,field2,field3,field4,field5,field6,field7,field8,latitude,longitude,elevation,status
2022-05-10T16:36:14+02:00,1,27.46,48.60,1003.79,5.20,5.80,0,0,"$GNGGA,143609.088,4900.5085,N,00825.5126,E,0,0,,110.3,M,47.9,M,,*57",,,,
2022-05-10T16:36:35+02:00,2,27.81,45.59,1003.83,5.40,7.20,0,0,"$GNGGA,143630.297,4900.5085,N,00825.5126,E,0,0,,110.3,M,47.9,M,,*51",,,,
2022-05-10T16:36:56+02:00,3,28.48,42.27,1003.83,5.80,10.90,0,0,"$GNGGA,143651.297,4900.5085,N,00825.5126,E,0,0,,110.3,M,47.9,M,,*56",,,,
2022-05-10T16:37:16+02:00,4,29.26,39.46,1003.85,5.30,8.90,0,0,"$GNGGA,143711.304,4900.5177,N,00825.4363,E,0,3,,110.3,M,47.9,M,,*55",,,,
2022-05-10T16:37:36+02:00,5,30.08,38.06,1003.85,5.20,9.30,0,0,"$GNGGA,143731.304,4900.5201,N,00825.4437,E,0,3,,110.3,M,47.9,M,,*53",,,,
2022-05-10T16:37:57+02:00,6,30.88,35.89,1003.84,5.10,12.80,0,0,"$GNGGA,143752.304,4900.5180,N,00825.4345,E,0,3,,110.3,M,47.9,M,,*5E",,,,
2022-05-10T16:38:17+02:00,7,31.63,34.44,1003.85,5.30,8.50,0,0,"$GNGGA,143812.304,4900.5217,N,00825.4480,E,0,3,,110.3,M,47.9,M,,*56",,,,
2022-05-10T16:38:37+02:00,8,32.34,33.33,1003.85,5.50,7.20,0,0,"$GNGGA,143832.304,4900.5205,N,00825.4514,E,0,3,,110.3,M,47.9,M,,*5B",,,,
2022-05-10T16:39:00+02:00,9,33.02,32.30,1003.83,5.70,11.80,0,0,"$GNGGA,143855.304,4900.5221,N,00825.4462,E,0,3,,110.3,M,47.9,M,,*5C",,,,
2022-05-10T16:39:20+02:00,10,33.62,31.14,1003.83,6.10,11.00,0,0,"$GNGGA,143915.304,4900.5219,N,00825.4434,E,0,3,,110.3,M,47.9,M,,*51",,,,
2022-05-10T16:39:40+02:00,11,34.19,30.70,1003.83,5.70,7.50,0,0,"$GNGGA,143935.304,4900.5234,N,00825.4488,E,0,3,,110.3,M,47.9,M,,*5B",,,,
2022-05-10T16:40:01+02:00,12,34.70,29.90,1003.83,5.50,10.10,0,0,"$GNGGA,143956.304,4900.5179,N,00825.4477,E,0,3,,110.3,M,47.9,M,,*54",,,,
2022-05-10T16:40:22+02:00,13,35.18,29.50,1003.82,5.80,9.00,0,0,"$GNGGA,144017.092,4900.5195,N,00825.5177,E,0,2,,110.2,M,47.9,M,,*55",,,,
2022-05-10T16:40:42+02:00,14,35.61,28.80,1003.82,6.00,8.10,0,0,"$GNGGA,144037.094,4900.5362,N,00825.4775,E,0,3,,110.3,M,47.9,M,,*5E",,,,
2022-05-10T16:41:03+02:00,15,36.01,28.01,1003.81,6.30,7.90,0,0,"$GNGGA,144058.085,4900.5244,N,00825.4537,E,0,3,,102.1,M,47.9,M,,*57",,,,
2022-05-10T16:41:23+02:00,16,36.35,27.23,1003.82,7.10,9.40,0,0,"$GNGGA,144118.085,4900.5274,N,00825.4565,E,0,0,,102.1,M,47.9,M,,*55",,,,
2022-05-10T16:41:44+02:00,17,36.66,27.00,1003.81,7.00,8.90,0,0,"$GNGGA,144139.085,4900.5229,N,00825.4457,E,0,3,,102.0,M,47.9,M,,*5C",,,,
2022-05-10T16:42:05+02:00,18,36.97,26.50,1003.80,6.50,7.20,0,0,"$GNGGA,144200.085,4900.5238,N,00825.4592,E,0,3,,102.0,M,47.9,M,,*5D",,,,
2022-05-10T16:42:25+02:00,19,37.23,26.57,1003.80,6.30,7.00,0,0,"$GNGGA,144220.085,4900.5287,N,00825.4603,E,0,3,,102.0,M,47.9,M,,*50",,,,
2022-05-10T16:42:46+02:00,20,37.45,25.81,1003.80,6.80,7.50,0,0,"$GNGGA,144241.085,4900.5229,N,00825.4567,E,0,3,,102.0,M,47.9,M,,*52",,,,
2022-05-10T16:43:06+02:00,21,37.64,25.28,1003.80,6.90,9.20,0,0,"$GNGGA,144301.085,4900.5275,N,00825.4555,E,0,0,,102.1,M,47.9,M,,*5D",,,,
2022-05-10T16:43:26+02:00,22,37.81,25.03,1003.80,6.90,9.00,0,0,"$GNGGA,144321.085,4900.5297,N,00825.4601,E,0,3,,102.0,M,47.9,M,,*53",,,,
2022-05-10T16:43:47+02:00,23,37.98,24.81,1003.80,6.90,8.80,0,0,"$GNGGA,144342.085,4900.5211,N,00825.4461,E,0,3,,102.1,M,47.9,M,,*5D",,,,
2022-05-10T16:44:07+02:00,24,38.16,24.78,1003.79,6.60,7.20,0,0,"$GNGGA,144402.085,4900.5210,N,00825.4377,E,0,3,,102.0,M,47.9,M,,*5E",,,,
2022-05-10T16:44:27+02:00,25,38.34,24.18,1003.77,7.30,8.00,0,0,"$GNGGA,144422.085,4900.5247,N,00825.4416,E,0,3,,102.1,M,47.9,M,,*5F",,,,
2022-05-10T16:44:48+02:00,26,38.47,24.49,1003.77,7.30,9.20,0,0,"$GNGGA,144443.085,4900.5215,N,00825.4466,E,0,3,,102.0,M,47.9,M,,*59",,,,
2022-05-10T16:45:09+02:00,27,38.57,23.86,1003.76,6.90,7.70,0,0,"$GNGGA,144503.085,4900.5284,N,00825.4668,E,0,0,,102.1,M,47.9,M,,*5A",,,,
2022-05-10T16:45:30+02:00,28,38.69,24.00,1003.77,7.30,8.60,0,0,"$GNGGA,144525.085,4900.5245,N,00825.4559,E,0,3,,102.1,M,47.9,M,,*51",,,,
2022-05-10T16:45:50+02:00,29,38.78,23.36,1003.76,7.50,10.00,0,0,"$GNGGA,144545.085,4900.5094,N,00825.4230,E,0,3,,102.1,M,47.9,M,,*51",,,,
2022-05-10T16:46:10+02:00,30,38.92,23.09,1003.75,7.00,7.80,0,0,"$GNGGA,144605.085,4900.5162,N,00825.4484,E,0,0,,102.1,M,47.9,M,,*54",,,,
2022-05-10T16:46:31+02:00,31,39.02,23.38,1003.74,7.30,8.10,0,0,"$GNGGA,144626.085,4900.5174,N,00825.4397,E,0,3,,102.1,M,47.9,M,,*54",,,,
2022-05-10T16:46:52+02:00,32,39.08,22.87,1003.72,7.50,10.10,0,0,"$GNGGA,144647.000,4900.5052,N,00825.4284,E,6,2,99.99,102.4,M,47.9,M,,*74",,,,
2022-05-10T16:47:12+02:00,33,39.12,22.59,1003.73,6.80,8.20,0,0,"$GNGGA,144707.000,4900.5050,N,00825.4202,E,0,2,,102.5,M,47.9,M,,*54",,,,
2022-05-10T16:47:33+02:00,34,39.18,22.27,1003.72,7.20,9.90,0,0,"$GNGGA,144728.000,4900.5400,N,00825.4813,E,1,4,1.98,156.2,M,47.9,M,,*4D",,,,
2022-05-10T16:47:53+02:00,35,39.29,22.42,1003.72,7.30,9.00,0,0,"$GNGGA,144748.000,4900.5387,N,00825.4766,E,1,4,1.98,158.7,M,47.9,M,,*45",,,,
2022-05-10T16:48:14+02:00,36,39.37,22.83,1003.72,6.90,8.60,0,0,"$GNGGA,144809.000,4900.5397,N,00825.4762,E,1,4,1.98,159.0,M,47.9,M,,*4C",,,,
2022-05-10T16:48:35+02:00,37,39.43,22.38,1003.71,7.40,9.10,0,0,"$GNGGA,144830.000,4900.5389,N,00825.4770,E,1,4,1.99,158.2,M,47.9,M,,*48",,,,
2022-05-10T16:48:55+02:00,38,39.48,22.10,1003.70,7.20,8.60,0,0,"$GNGGA,144850.000,4900.5408,N,00825.4711,E,6,3,85.87,156.2,M,47.9,M,,*7A",,,,
2022-05-10T16:49:16+02:00,39,39.52,21.92,1003.69,7.00,7.80,0,0,"$GNGGA,144911.000,4900.5430,N,00825.4675,E,1,3,3.26,150.3,M,47.9,M,,*43",,,,
2022-05-10T16:49:36+02:00,40,39.58,21.91,1003.69,6.70,8.30,0,0,"$GNGGA,144931.000,4900.5335,N,00825.4633,E,0,2,,150.0,M,47.9,M,,*5B",,,,
2022-05-10T16:49:56+02:00,41,39.64,22.04,1003.70,6.80,8.70,0,0,"$GNGGA,144951.000,4900.5335,N,00825.4633,E,0,2,,150.0,M,47.9,M,,*5D",,,,
2022-05-10T16:50:17+02:00,42,39.69,21.53,1003.68,7.00,9.40,0,0,"$GNGGA,145012.000,4900.5333,N,00825.4632,E,0,2,,150.0,M,47.9,M,,*55",,,,
2022-05-10T16:50:37+02:00,43,39.74,21.81,1003.69,7.20,9.60,0,0,"$GNGGA,145032.000,4900.5360,N,00825.4614,E,0,2,,149.9,M,47.9,M,,*54",,,,
2022-05-10T16:50:58+02:00,44,39.79,21.64,1003.69,7.20,8.40,0,0,"$GNGGA,145053.000,4900.5354,N,00825.4696,E,1,3,3.26,149.6,M,47.9,M,,*48",,,,
2022-05-10T16:51:19+02:00,45,39.85,21.51,1003.69,7.00,9.10,0,0,"$GNGGA,145114.000,4900.5383,N,00825.4664,E,1,3,3.26,149.4,M,47.9,M,,*4F",,,,
2022-05-10T16:51:39+02:00,46,39.92,21.52,1003.68,7.20,10.10,0,0,"$GNGGA,145134.000,4900.5386,N,00825.4739,E,1,3,3.26,149.3,M,47.9,M,,*46",,,,
2022-05-10T16:52:00+02:00,47,39.98,21.52,1003.67,6.90,7.60,0,0,"$GNGGA,145155.000,4900.5454,N,00825.4877,E,1,3,3.26,149.4,M,47.9,M,,*4B",,,,
2022-05-10T16:52:21+02:00,48,40.02,21.08,1003.67,7.10,7.90,0,0,"$GNGGA,145216.000,4900.5505,N,00825.4877,E,1,4,2.01,149.9,M,47.9,M,,*44",,,,
2022-05-10T16:52:42+02:00,49,40.08,21.24,1003.66,7.10,7.90,0,0,"$GNGGA,145237.000,4900.5465,N,00825.4831,E,1,4,2.02,150.4,M,47.9,M,,*44",,,,
2022-05-10T16:53:03+02:00,50,40.12,20.99,1003.66,6.60,7.30,0,0,"$GNGGA,145258.000,4900.5441,N,00825.4759,E,1,4,2.02,148.7,M,47.9,M,,*40",,,,
2022-05-10T16:53:24+02:00,51,40.16,20.91,1003.64,6.70,7.50,0,0,"$GNGGA,145319.000,4900.5359,N,00825.4729,E,1,4,3.23,143.1,M,47.9,M,,*42",,,,
2022-05-10T16:53:44+02:00,52,40.20,21.07,1003.64,6.60,7.90,0,0,"$GNGGA,145339.000,4900.5303,N,00825.4650,E,1,4,3.22,140.0,M,47.9,M,,*43",,,,
2022-05-10T16:54:05+02:00,53,40.23,20.88,1003.64,6.90,7.70,0,0,"$GNGGA,145400.000,4900.5255,N,00825.4567,E,1,4,3.23,134.0,M,47.9,M,,*49",,,,
2022-05-10T16:54:25+02:00,54,40.25,20.94,1003.63,6.80,7.90,0,0,"$GNGGA,145420.000,4900.5240,N,00825.4553,E,1,4,6.35,129.8,M,47.9,M,,*4E",,,,
2022-05-10T16:54:45+02:00,55,40.28,21.06,1003.62,6.60,8.70,0,0,"$GNGGA,145440.000,4900.5251,N,00825.4687,E,1,4,5.82,125.9,M,47.9,M,,*40",,,,
2022-05-10T16:55:06+02:00,56,40.32,21.15,1003.63,6.80,9.00,0,0,"$GNGGA,145501.000,4900.5235,N,00825.4576,E,1,4,5.81,127.8,M,47.9,M,,*4B",,,,
2022-05-10T16:55:27+02:00,57,40.37,21.27,1003.62,6.50,8.40,0,0,"$GNGGA,145522.000,4900.5287,N,00825.4707,E,1,4,5.80,126.7,M,47.9,M,,*48",,,,
2022-05-10T16:55:47+02:00,58,40.40,21.21,1003.63,6.60,8.40,0,0,"$GNGGA,145542.000,4900.5269,N,00825.4650,E,1,4,5.80,125.5,M,47.9,M,,*4C",,,,
2022-05-10T16:56:08+02:00,59,40.44,21.25,1003.62,6.80,7.90,0,0,"$GNGGA,145603.000,4900.5260,N,00825.4412,E,1,4,5.79,123.8,M,47.9,M,,*4A",,,,
2022-05-10T16:56:28+02:00,60,40.48,21.33,1003.63,6.40,8.40,0,0,"$GNGGA,145623.000,4900.5240,N,00825.4393,E,1,4,5.79,124.1,M,47.9,M,,*4A",,,,
2022-05-10T16:56:49+02:00,61,40.52,21.32,1003.62,6.20,6.90,0,0,"$GNGGA,145644.000,4900.5208,N,00825.4070,E,1,4,5.78,126.2,M,47.9,M,,*49",,,,
2022-05-10T16:57:09+02:00,62,40.54,21.46,1003.62,6.30,7.60,0,0,"$GNGGA,145704.000,4900.5248,N,00825.4256,E,1,4,5.77,127.5,M,47.9,M,,*47",,,,
2022-05-10T16:57:29+02:00,63,40.57,21.43,1003.61,6.10,6.70,0,0,"$GNGGA,145724.000,4900.5323,N,00825.4840,E,1,4,5.77,128.9,M,47.9,M,,*47",,,,
2022-05-10T16:57:50+02:00,64,40.61,21.53,1003.59,6.50,8.00,0,0,"$GNGGA,145745.000,4900.5243,N,00825.4512,E,1,4,5.76,126.7,M,47.9,M,,*4C",,,,
2022-05-10T16:58:10+02:00,65,40.66,21.47,1003.58,6.60,7.40,0,0,"$GNGGA,145805.000,4900.5261,N,00825.4773,E,1,4,5.75,126.0,M,47.9,M,,*46",,,,
2022-05-10T16:58:31+02:00,66,40.70,21.45,1003.57,6.30,7.10,0,0,"$GNGGA,145826.000,4900.5267,N,00825.4525,E,1,4,2.86,124.5,M,47.9,M,,*4C",,,,
2022-05-10T16:58:52+02:00,67,40.73,21.41,1003.57,6.40,9.00,0,0,"$GNGGA,145847.000,4900.5262,N,00825.4685,E,1,6,1.22,127.9,M,47.9,M,,*47",,,,
2022-05-10T16:59:13+02:00,68,40.76,21.44,1003.57,6.50,8.40,0,0,"$GNGGA,145908.000,4900.5285,N,00825.5071,E,1,5,1.15,133.8,M,47.9,M,,*4B",,,,
2022-05-10T16:59:33+02:00,69,40.79,21.43,1003.55,6.50,7.20,0,0,"$GNGGA,145928.000,4900.5273,N,00825.5069,E,1,5,1.15,144.5,M,47.9,M,,*44",,,,
2022-05-10T16:59:54+02:00,70,40.83,21.45,1003.55,6.30,7.00,0,0,"$GNGGA,145949.000,4900.5279,N,00825.4845,E,1,5,1.48,141.4,M,47.9,M,,*42",,,,
2022-05-10T17:00:14+02:00,71,40.85,21.46,1003.54,6.60,7.40,0,0,"$GNGGA,150009.000,4900.5277,N,00825.4770,E,1,5,1.15,140.1,M,47.9,M,,*40",,,,
2022-05-10T17:00:35+02:00,72,40.87,21.45,1003.54,6.30,6.90,0,0,"$GNGGA,150030.000,4900.5218,N,00825.4381,E,1,4,5.71,138.1,M,47.9,M,,*41",,,,
2022-05-10T17:00:55+02:00,73,40.90,21.48,1003.54,6.80,8.60,0,0,"$GNGGA,150050.000,4900.5235,N,00825.4504,E,1,4,5.70,136.0,M,47.9,M,,*4D",,,,
2022-05-10T17:01:15+02:00,74,40.92,21.48,1003.55,6.60,7.30,0,0,"$GNGGA,150110.000,4900.5224,N,00825.4601,E,1,4,5.69,129.8,M,47.9,M,,*40",,,,
2022-05-10T17:01:36+02:00,75,40.96,21.49,1003.56,6.30,6.90,0,0,"$GNGGA,150131.000,4900.5236,N,00825.4658,E,1,4,5.69,122.6,M,47.9,M,,*49",,,,
2022-05-10T17:01:56+02:00,76,41.00,21.47,1003.55,6.40,7.10,0,0,"$GNGGA,150151.000,4900.5279,N,00825.4854,E,1,4,5.68,122.8,M,47.9,M,,*49",,,,
2022-05-10T17:02:18+02:00,77,41.02,21.40,1003.56,6.40,8.30,0,0,"$GNGGA,150213.000,4900.5272,N,00825.4698,E,1,4,5.68,122.6,M,47.9,M,,*47",,,,
2022-05-10T17:02:39+02:00,78,41.05,21.36,1003.57,6.50,8.40,0,0,"$GNGGA,150234.000,4900.5269,N,00825.4735,E,1,4,5.67,121.0,M,47.9,M,,*44",,,,
2022-05-10T17:02:59+02:00,79,41.07,21.36,1003.57,6.30,7.60,0,0,"$GNGGA,150254.000,4900.5275,N,00825.4553,E,1,5,1.49,122.3,M,47.9,M,,*44",,,,
2022-05-10T17:03:19+02:00,80,41.10,21.36,1003.58,6.10,9.60,0,0,"$GNGGA,150314.000,4900.5257,N,00825.4643,E,1,5,1.49,121.6,M,47.9,M,,*45",,,,
2022-05-10T17:03:40+02:00,81,41.12,21.37,1003.58,6.10,7.40,0,0,"$GNGGA,150335.000,4900.5264,N,00825.4593,E,1,4,5.65,121.3,M,47.9,M,,*46",,,,
2022-05-10T17:04:00+02:00,82,41.14,21.42,1003.58,6.40,8.10,0,0,"$GNGGA,150355.000,4900.5238,N,00825.4473,E,1,5,2.80,119.3,M,47.9,M,,*40",,,,
2022-05-10T17:04:21+02:00,83,41.17,21.44,1003.58,6.10,7.90,0,0,"$GNGGA,150416.000,4900.5247,N,00825.4485,E,1,4,3.19,117.2,M,47.9,M,,*4E",,,,
2022-05-10T17:04:41+02:00,84,41.19,21.47,1003.56,6.00,8.10,0,0,"$GNGGA,150436.000,4900.5283,N,00825.4773,E,1,5,2.80,115.1,M,47.9,M,,*4F",,,,
2022-05-10T17:05:01+02:00,85,41.22,21.53,1003.56,6.20,6.80,0,0,"$GNGGA,150456.000,4900.5255,N,00825.4594,E,1,5,2.80,112.1,M,47.9,M,,*4E",,,,
2022-05-10T17:05:22+02:00,86,41.25,21.45,1003.56,6.10,6.90,0,0,"$GNGGA,150517.000,4900.5247,N,00825.4441,E,1,4,5.61,109.4,M,47.9,M,,*46",,,,
2022-05-10T17:05:43+02:00,87,41.28,21.44,1003.56,6.30,7.00,0,0,"$GNGGA,150538.000,4900.5250,N,00825.4584,E,1,4,5.60,108.6,M,47.9,M,,*47",,,,
2022-05-10T17:06:03+02:00,88,41.31,21.41,1003.55,6.70,7.40,0,0,"$GNGGA,150558.000,4900.5240,N,00825.4443,E,1,4,5.59,108.9,M,47.9,M,,*4F",,,,
2022-05-10T17:06:24+02:00,89,41.33,21.38,1003.55,6.60,7.40,0,0,"$GNGGA,150619.000,4900.5263,N,00825.4674,E,1,4,5.59,109.4,M,47.9,M,,*42",,,,
2022-05-10T17:06:44+02:00,90,41.34,21.46,1003.55,6.20,6.90,0,0,"$GNGGA,150639.000,4900.5215,N,00825.3989,E,1,4,5.58,111.4,M,47.9,M,,*43",,,,
2022-05-10T17:07:04+02:00,91,41.35,21.47,1003.55,6.20,7.50,0,0,"$GNGGA,150659.000,4900.5293,N,00825.4712,E,1,4,5.57,106.0,M,47.9,M,,*4D",,,,
2022-05-10T17:07:25+02:00,92,41.37,21.47,1003.53,5.90,7.50,0,0,"$GNGGA,150720.000,4900.5269,N,00825.4479,E,1,4,1.77,105.8,M,47.9,M,,*44",,,,
2022-05-10T17:07:45+02:00,93,41.39,21.46,1003.52,5.90,8.20,0,0,"$GNGGA,150740.000,4900.5315,N,00825.4429,E,1,4,1.77,104.2,M,47.9,M,,*46",,,,
2022-05-10T17:08:05+02:00,94,41.39,21.44,1003.51,6.40,10.60,0,0,"$GNGGA,150800.000,4900.5285,N,00825.4326,E,1,4,1.77,101.8,M,47.9,M,,*42",,,,
2022-05-10T17:08:26+02:00,95,41.42,21.43,1003.49,6.40,8.50,0,0,"$GNGGA,150821.000,4900.5332,N,00825.4823,E,1,4,5.53,98.0,M,47.9,M,,*79",,,,
2022-05-10T17:08:46+02:00,96,41.45,21.44,1003.49,6.10,7.70,0,0,"$GNGGA,150841.000,4900.5337,N,00825.4945,E,1,4,5.53,94.6,M,47.9,M,,*71",,,,
2022-05-10T17:09:07+02:00,97,41.49,21.39,1003.48,5.90,6.70,0,0,"$GNGGA,150902.000,4900.5335,N,00825.4955,E,1,3,6.34,94.1,M,47.9,M,,*76",,,,
2022-05-10T17:09:28+02:00,98,41.51,21.39,1003.47,6.10,7.20,0,0,"$GNGGA,150923.000,4900.5305,N,00825.4678,E,1,3,6.35,94.4,M,47.9,M,,*72",,,,
2022-05-10T17:09:47+02:00,99,41.53,21.42,1003.47,6.00,6.60,0,0,"$GNGGA,150943.000,4900.5299,N,00825.4425,E,0,0,,94.6,M,47.9,M,,*64",,,,
2022-05-10T17:10:09+02:00,100,41.54,21.40,1003.47,5.90,6.60,0,0,"$GNGGA,151004.000,4900.5309,N,00825.4013,E,1,3,6.37,96.7,M,47.9,M,,*7B",,,,
2022-05-10T17:10:29+02:00,101,41.54,21.38,1003.45,6.20,8.40,0,0,"$GNGGA,151024.000,4900.5304,N,00825.3817,E,0,0,,96.7,M,47.9,M,,*61",,,,
2022-05-10T17:10:49+02:00,102,41.54,21.44,1003.45,6.30,7.10,0,0,"$GNGGA,151045.000,4900.5304,N,00825.3815,E,0,0,,96.7,M,47.9,M,,*64",,,,
2022-05-10T17:11:11+02:00,103,41.56,21.44,1003.44,6.10,8.20,0,0,"$GNGGA,151106.000,4900.5304,N,00825.3815,E,0,0,,96.7,M,47.9,M,,*62",,,,
2022-05-10T17:11:31+02:00,104,41.56,21.42,1003.42,6.00,7.00,0,0,"$GNGGA,151126.000,4900.5304,N,00825.3815,E,0,0,,96.7,M,47.9,M,,*60",,,,
2022-05-10T17:11:51+02:00,105,41.57,21.43,1003.42,5.90,6.50,0,0,"$GNGGA,151147.000,4900.5304,N,00825.3815,E,0,0,,96.7,M,47.9,M,,*67",,,,
2022-05-10T17:12:12+02:00,106,41.59,21.48,1003.41,5.70,6.30,0,0,"$GNGGA,151208.000,4900.5304,N,00825.3838,E,0,0,,96.7,M,47.9,M,,*60",,,,
2022-05-10T17:12:33+02:00,107,41.60,21.53,1003.41,6.10,6.60,0,0,"$GNGGA,151228.000,4900.5355,N,00825.4542,E,0,3,,89.0,M,47.9,M,,*6B",,,,
2022-05-10T17:12:53+02:00,108,41.61,21.49,1003.40,6.00,7.10,0,0,"$GNGGA,151249.000,4900.5381,N,00825.4559,E,0,0,,90.8,M,47.9,M,,*6C",,,,
2022-05-10T17:13:14+02:00,109,41.62,21.46,1003.40,5.70,7.10,0,0,"$GNGGA,151309.000,4900.5329,N,00825.4300,E,0,3,,92.7,M,47.9,M,,*6F",,,,
2022-05-10T17:13:34+02:00,110,41.63,21.46,1003.39,6.20,6.90,0,0,"$GNGGA,151329.000,4900.5303,N,00825.3861,E,0,0,,96.7,M,47.9,M,,*69",,,,
2022-05-10T17:13:55+02:00,111,41.64,21.50,1003.39,5.90,6.40,0,0,"$GNGGA,151350.000,4900.5303,N,00825.3861,E,0,0,,96.7,M,47.9,M,,*67",,,,
2022-05-10T17:14:15+02:00,112,41.65,21.57,1003.38,6.10,6.80,0,0,"$GNGGA,151410.000,4900.5303,N,00825.3861,E,0,0,,96.7,M,47.9,M,,*64",,,,
2022-05-10T17:14:35+02:00,113,41.65,21.51,1003.36,6.10,7.70,0,0,"$GNGGA,151430.000,4900.5303,N,00825.3861,E,0,0,,96.7,M,47.9,M,,*66",,,,
2022-05-10T17:14:56+02:00,114,41.66,21.53,1003.36,6.40,7.00,0,0,"$GNGGA,151451.000,4900.5303,N,00825.3861,E,0,0,,96.7,M,47.9,M,,*61",,,,
2022-05-10T17:15:16+02:00,115,41.66,21.47,1003.37,6.10,6.80,0,0,"$GNGGA,151511.000,4900.5303,N,00825.3861,E,0,0,,96.7,M,47.9,M,,*64",,,,
2022-05-10T17:15:36+02:00,116,41.67,21.54,1003.36,6.00,6.70,0,0,"$GNGGA,151532.000,4900.5303,N,00825.3861,E,0,0,,96.7,M,47.9,M,,*65",,,,
2022-05-10T17:15:57+02:00,117,41.66,21.51,1003.37,6.10,6.70,0,0,"$GNGGA,151553.000,4900.5303,N,00825.3861,E,0,0,,96.7,M,47.9,M,,*62",,,,
2022-05-10T17:16:17+02:00,118,41.65,21.52,1003.37,6.10,6.70,0,0,"$GNGGA,151613.000,4900.5303,N,00825.3861,E,0,0,,96.7,M,47.9,M,,*65",,,,
2022-05-10T17:16:38+02:00,119,41.65,21.56,1003.38,5.80,6.40,0,0,"$GNGGA,151634.000,4900.5303,N,00825.3861,E,0,0,,96.7,M,47.9,M,,*60",,,,
2022-05-10T17:16:58+02:00,120,41.66,21.53,1003.38,6.20,6.90,0,0,"$GNGGA,151654.000,4900.5303,N,00825.3861,E,0,0,,96.7,M,47.9,M,,*66",,,,
2022-05-10T17:17:18+02:00,121,41.69,21.53,1003.38,6.20,6.80,0,0,"$GNGGA,151714.000,4900.5303,N,00825.3861,E,0,0,,96.7,M,47.9,M,,*63",,,,
2022-05-10T17:17:39+02:00,122,41.70,21.52,1003.37,6.10,6.70,0,0,"$GNGGA,151735.000,4900.5303,N,00825.3861,E,0,0,,96.7,M,47.9,M,,*60",,,,
2022-05-10T17:18:00+02:00,123,41.70,21.50,1003.37,6.00,6.60,0,0,"$GNGGA,151755.000,4900.5303,N,00825.3861,E,0,0,,96.7,M,47.9,M,,*66",,,,
2022-05-10T17:18:19+02:00,124,41.70,21.47,1003.38,6.00,6.60,0,0,"$GNGGA,151815.000,4900.5303,N,00825.3861,E,0,0,,96.7,M,47.9,M,,*6D",,,,
2022-05-10T17:18:40+02:00,125,41.70,21.50,1003.38,5.70,6.30,0,0,"$GNGGA,151836.000,4900.5303,N,00825.3861,E,0,0,,96.7,M,47.9,M,,*6C",,,,
2022-05-10T17:19:00+02:00,126,41.69,21.50,1003.37,5.80,6.40,0,0,"$GNGGA,151856.000,4900.5303,N,00825.3861,E,0,0,,96.7,M,47.9,M,,*6A",,,,
2022-05-10T17:19:20+02:00,127,41.70,21.49,1003.37,5.80,6.40,0,0,"$GNGGA,151916.000,4900.5303,N,00825.3861,E,0,0,,96.7,M,47.9,M,,*6F",,,,
2022-05-10T17:19:41+02:00,128,41.69,21.44,1003.38,6.10,6.80,0,0,"$GNGGA,151937.000,4900.5303,N,00825.3861,E,0,0,,96.7,M,47.9,M,,*6C",,,,
2022-05-10T17:20:01+02:00,129,41.70,21.45,1003.37,6.30,7.40,0,0,"$GNGGA,151957.000,4900.5303,N,00825.3861,E,0,0,,96.7,M,47.9,M,,*6A",,,,
2022-05-10T17:20:21+02:00,130,41.71,21.48,1003.36,6.00,6.60,0,0,"$GNGGA,152017.000,4900.5303,N,00825.3861,E,0,0,,96.7,M,47.9,M,,*64",,,,
2022-05-10T17:20:42+02:00,131,41.72,21.44,1003.35,5.90,6.40,0,0,"$GNGGA,152038.000,4900.5303,N,00825.3861,E,0,0,,96.7,M,47.9,M,,*69",,,,
2022-05-10T17:21:02+02:00,132,41.73,21.43,1003.34,5.70,6.30,0,0,"$GNGGA,152058.000,4900.5303,N,00825.3861,E,0,0,,96.7,M,47.9,M,,*6F",,,,
2022-05-10T17:21:23+02:00,133,41.74,21.42,1003.34,5.80,6.40,0,0,"$GNGGA,152119.000,4900.5303,N,00825.3861,E,0,0,,96.7,M,47.9,M,,*6B",,,,
2022-05-10T17:21:43+02:00,134,41.74,21.38,1003.33,6.00,6.50,0,0,"$GNGGA,152139.000,4900.5303,N,00825.3861,E,0,0,,96.7,M,47.9,M,,*69",,,,
2022-05-10T17:22:03+02:00,135,41.75,21.42,1003.33,5.90,6.50,0,0,"$GNGGA,152159.000,4900.5303,N,00825.3861,E,0,0,,96.7,M,47.9,M,,*6F",,,,
2022-05-10T17:22:25+02:00,136,41.77,21.44,1003.33,5.90,6.50,0,0,"$GNGGA,152220.000,4900.5214,N,00825.4091,E,0,3,,95.8,M,47.9,M,,*6A",,,,
2022-05-10T17:22:44+02:00,137,41.78,21.42,1003.32,5.60,6.10,0,0,"$GNGGA,152240.000,4900.5269,N,00825.3991,E,0,3,,54.9,M,47.9,M,,*64",,,,
2022-05-10T17:23:04+02:00,138,41.78,21.38,1003.32,5.60,6.20,0,0,"$GNGGA,152300.000,4900.5243,N,00825.3410,E,0,0,,51.3,M,47.9,M,,*61",,,,
2022-05-10T17:23:26+02:00,139,41.77,21.40,1003.32,5.70,6.30,0,0,"$GNGGA,152321.000,4900.5192,N,00825.3398,E,0,3,,82.7,M,47.9,M,,*63",,,,
2022-05-10T17:23:45+02:00,140,41.78,21.41,1003.32,6.00,7.10,0,0,"$GNGGA,152341.000,4900.5219,N,00825.3666,E,0,3,,70.5,M,47.9,M,,*6E",,,,
2022-05-10T17:24:05+02:00,141,41.78,21.34,1003.30,8.00,9.20,0,0,"$GNGGA,152401.000,4900.5233,N,00825.4006,E,0,3,,71.9,M,47.9,M,,*6F",,,,
2022-05-10T17:24:27+02:00,142,41.78,21.37,1003.29,9.40,10.40,0,0,"$GNGGA,152422.000,4900.5206,N,00825.4351,E,1,3,6.82,90.2,M,47.9,M,,*7E",,,,
2022-05-10T17:24:47+02:00,143,41.80,21.36,1003.28,7.80,8.50,0,0,"$GNGGA,152442.000,4900.5214,N,00825.4619,E,1,4,1.79,108.0,M,47.9,M,,*44",,,,
2022-05-10T17:25:07+02:00,144,41.81,21.29,1003.27,8.90,9.90,0,0,"$GNGGA,152502.000,4900.5199,N,00825.4839,E,1,4,1.79,125.7,M,47.9,M,,*43",,,,
2022-05-10T17:25:28+02:00,145,41.82,21.37,1003.28,10.10,12.20,0,0,"$GNGGA,152523.000,4900.5198,N,00825.4778,E,1,4,1.79,140.0,M,47.9,M,,*4F",,,,
2022-05-10T17:25:48+02:00,146,41.82,21.37,1003.27,9.60,11.80,0,0,"$GNGGA,152543.000,4900.5200,N,00825.4771,E,1,3,6.88,140.6,M,47.9,M,,*4A",,,,
2022-05-10T17:26:08+02:00,147,41.82,21.35,1003.27,10.20,12.30,0,0,"$GNGGA,152603.000,4900.5219,N,00825.4865,E,1,3,6.90,140.3,M,47.9,M,,*43",,,,
2022-05-10T17:26:29+02:00,148,41.83,21.31,1003.27,11.40,14.10,0,0,"$GNGGA,152624.000,4900.5241,N,00825.5336,E,1,3,6.91,140.3,M,47.9,M,,*46",,,,
2022-05-10T17:26:49+02:00,149,41.83,21.32,1003.26,11.40,13.60,0,0,"$GNGGA,152644.000,4900.5257,N,00825.5191,E,1,3,6.93,140.7,M,47.9,M,,*4E",,,,
2022-05-10T17:27:09+02:00,150,41.84,21.30,1003.25,11.10,12.40,0,0,"$GNGGA,152704.000,4900.5213,N,00825.4869,E,1,4,1.80,140.8,M,47.9,M,,*49",,,,
2022-05-10T17:27:30+02:00,151,41.83,21.29,1003.24,10.40,11.60,0,0,"$GNGGA,152725.000,4900.5250,N,00825.5394,E,1,4,1.80,140.6,M,47.9,M,,*4B",,,,
2022-05-10T17:27:50+02:00,152,41.84,21.31,1003.24,10.70,11.90,0,0,"$GNGGA,152745.000,4900.5265,N,00825.5451,E,1,3,6.97,140.4,M,47.9,M,,*41",,,,
2022-05-10T17:28:10+02:00,153,41.83,21.39,1003.25,10.80,12.50,0,0,"$GNGGA,152805.000,4900.5249,N,00825.5373,E,1,3,6.98,141.1,M,47.9,M,,*48",,,,
2022-05-10T17:28:31+02:00,154,41.83,21.41,1003.24,11.00,13.70,0,0,"$GNGGA,152826.000,4900.5270,N,00825.5448,E,1,3,7.00,141.5,M,47.9,M,,*48",,,,
2022-05-10T17:28:50+02:00,155,41.84,21.38,1003.23,10.40,12.70,0,0,"$GNGGA,152846.000,4900.5230,N,00825.5183,E,1,3,7.01,141.4,M,47.9,M,,*48",,,,
2022-05-10T17:29:11+02:00,156,41.83,21.33,1003.22,11.10,13.10,0,0,"$GNGGA,152906.000,4900.5256,N,00825.4811,E,1,3,7.03,141.3,M,47.9,M,,*4B",,,,
2022-05-10T17:29:32+02:00,157,41.84,21.36,1003.22,11.20,13.20,0,0,"$GNGGA,152927.000,4900.5236,N,00825.4881,E,1,3,7.05,141.1,M,47.9,M,,*43",,,,
2022-05-10T17:29:52+02:00,158,41.84,21.32,1003.22,10.80,13.30,0,0,"$GNGGA,152947.000,4900.5266,N,00825.5464,E,1,3,7.06,140.8,M,47.9,M,,*4D",,,,
2022-05-10T17:30:12+02:00,159,41.84,21.29,1003.21,10.90,13.60,0,0,"$GNGGA,153008.000,4900.5234,N,00825.5312,E,1,3,7.08,140.7,M,47.9,M,,*4E",,,,
2022-05-10T17:30:34+02:00,160,41.83,21.30,1003.22,10.50,11.70,0,0,"$GNGGA,153029.000,4900.5252,N,00825.5170,E,1,3,7.10,140.6,M,47.9,M,,*43",,,,
2022-05-10T17:30:54+02:00,161,41.83,21.32,1003.21,11.00,12.30,0,0,"$GNGGA,153049.000,4900.5222,N,00825.4647,E,1,3,7.12,140.6,M,47.9,M,,*42",,,,
2022-05-10T17:31:15+02:00,162,41.83,21.31,1003.21,11.50,12.80,0,0,"$GNGGA,153110.000,4900.5236,N,00825.4817,E,1,3,7.14,140.5,M,47.9,M,,*44",,,,
2022-05-10T17:31:36+02:00,163,41.83,21.30,1003.21,11.20,12.70,0,0,"$GNGGA,153131.000,4900.5245,N,00825.5062,E,1,3,7.15,140.5,M,47.9,M,,*49",,,,
2022-05-10T17:31:57+02:00,164,41.83,21.31,1003.21,11.40,13.00,0,0,"$GNGGA,153152.000,4900.5289,N,00825.5518,E,1,3,7.17,141.0,M,47.9,M,,*42",,,,
2022-05-10T17:32:18+02:00,165,41.82,21.33,1003.21,10.90,12.20,0,0,"$GNGGA,153213.000,4900.5261,N,00825.5464,E,1,3,7.19,141.6,M,47.9,M,,*40",,,,
2022-05-10T17:32:38+02:00,166,41.82,21.36,1003.21,11.00,12.20,0,0,"$GNGGA,153233.000,4900.5232,N,00825.4479,E,1,3,7.21,141.6,M,47.9,M,,*42",,,,
2022-05-10T17:32:59+02:00,167,41.82,21.29,1003.21,10.50,11.60,0,0,"$GNGGA,153254.000,4900.5226,N,00825.4731,E,1,3,7.23,141.4,M,47.9,M,,*49",,,,
2022-05-10T17:33:20+02:00,168,41.81,21.29,1003.21,10.40,11.50,0,0,"$GNGGA,153315.000,4900.5214,N,00825.5063,E,1,3,7.24,141.6,M,47.9,M,,*48",,,,
2022-05-10T17:33:40+02:00,169,41.81,21.30,1003.20,10.50,12.10,0,0,"$GNGGA,153335.000,4900.5252,N,00825.5446,E,1,3,7.26,142.1,M,47.9,M,,*4D",,,,
2022-05-10T17:33:59+02:00,170,41.81,21.29,1003.20,10.60,12.00,0,0,"$GNGGA,153355.000,4900.5255,N,00825.5411,E,6,3,7.29,142.3,M,47.9,M,,*44",,,,
2022-05-10T17:34:21+02:00,171,41.81,21.26,1003.20,11.00,12.70,0,0,"$GNGGA,153416.000,4900.5236,N,00825.5038,E,1,3,7.30,142.1,M,47.9,M,,*43",,,,
2022-05-10T17:34:41+02:00,172,41.81,21.27,1003.20,10.40,11.60,0,0,"$GNGGA,153436.000,4900.5267,N,00825.5153,E,1,3,7.32,141.6,M,47.9,M,,*4F",,,,
2022-05-10T17:35:00+02:00,173,41.83,21.26,1003.20,10.30,12.20,0,0,"$GNGGA,153456.000,4900.5270,N,00825.5380,E,1,3,7.34,141.2,M,47.9,M,,*41",,,,
2022-05-10T17:35:21+02:00,174,41.83,21.25,1003.20,10.50,12.30,0,0,"$GNGGA,153517.000,4900.5262,N,00825.5471,E,1,3,7.36,140.9,M,47.9,M,,*47",,,,
2022-05-10T17:35:42+02:00,175,41.83,21.24,1003.20,10.80,12.70,0,0,"$GNGGA,153537.000,4900.5252,N,00825.5353,E,1,4,1.83,140.6,M,47.9,M,,*41",,,,
2022-05-10T17:36:02+02:00,176,41.82,21.27,1003.20,10.70,12.70,0,0,"$GNGGA,153557.000,4900.5208,N,00825.4896,E,1,4,1.83,141.1,M,47.9,M,,*4D",,,,
2022-05-10T17:36:23+02:00,177,41.82,21.24,1003.19,10.80,12.70,0,0,"$GNGGA,153618.000,4900.5221,N,00825.4818,E,1,4,1.83,135.9,M,47.9,M,,*43",,,,
2022-05-10T17:36:43+02:00,178,41.82,21.26,1003.19,10.50,11.70,0,0,"$GNGGA,153638.000,4900.5227,N,00825.4763,E,1,4,1.83,131.4,M,47.9,M,,*4D",,,,
2022-05-10T17:37:03+02:00,179,41.82,21.25,1003.18,10.60,12.50,0,0,"$GNGGA,153658.000,4900.5208,N,00825.4683,E,1,4,6.29,126.6,M,47.9,M,,*4A",,,,
2022-05-10T17:37:24+02:00,180,41.82,21.25,1003.19,10.50,11.70,0,0,"$GNGGA,153719.000,4900.5233,N,00825.4390,E,1,4,6.31,122.2,M,47.9,M,,*48",,,,
2022-05-10T17:37:44+02:00,181,41.83,21.20,1003.19,10.10,12.00,0,0,"$GNGGA,153739.000,4900.5228,N,00825.4269,E,1,4,6.32,119.6,M,47.9,M,,*48",,,,
2022-05-10T17:38:04+02:00,182,41.83,21.21,1003.20,10.00,11.20,0,0,"$GNGGA,153759.000,4900.5236,N,00825.5049,E,1,4,6.34,118.9,M,47.9,M,,*48",,,,
2022-05-10T17:38:25+02:00,183,41.84,21.20,1003.19,10.40,11.60,0,0,"$GNGGA,153820.000,4900.5245,N,00825.4911,E,1,5,1.64,120.9,M,47.9,M,,*40",,,,
2022-05-10T17:38:45+02:00,184,41.86,21.18,1003.18,10.50,11.70,0,0,"$GNGGA,153840.000,4900.5253,N,00825.4464,E,1,5,1.64,121.1,M,47.9,M,,*47",,,,
2022-05-10T17:39:05+02:00,185,41.86,21.14,1003.18,9.70,11.20,0,0,"$GNGGA,153900.000,4900.5240,N,00825.4494,E,1,4,6.39,120.9,M,47.9,M,,*48",,,,
2022-05-10T17:39:26+02:00,186,41.87,21.13,1003.17,10.30,11.50,0,0,"$GNGGA,153921.000,4900.5247,N,00825.4532,E,1,5,1.65,117.9,M,47.9,M,,*4A",,,,
2022-05-10T17:39:46+02:00,187,41.86,21.15,1003.17,10.60,12.00,0,0,"$GNGGA,153941.000,4900.5228,N,00825.4662,E,1,5,1.65,114.6,M,47.9,M,,*4F",,,,
2022-05-10T17:40:06+02:00,188,41.86,21.15,1003.15,10.60,11.80,0,0,"$GNGGA,154001.000,4900.5241,N,00825.4779,E,1,5,1.65,111.1,M,47.9,M,,*43",,,,
2022-05-10T17:40:28+02:00,189,41.86,21.14,1003.15,10.00,11.20,0,0,"$GNGGA,154023.000,4900.5253,N,00825.4642,E,1,5,1.65,112.0,M,47.9,M,,*4B",,,,
2022-05-10T17:40:48+02:00,190,41.87,21.12,1003.14,10.10,12.30,0,0,"$GNGGA,154043.000,4900.5258,N,00825.4584,E,1,4,6.48,113.5,M,47.9,M,,*42",,,,
2022-05-10T17:41:08+02:00,191,41.88,21.11,1003.14,10.40,11.60,0,0,"$GNGGA,154103.000,4900.5231,N,00825.4452,E,1,4,7.69,115.5,M,47.9,M,,*46",,,,
2022-05-10T17:41:28+02:00,192,41.87,21.12,1003.14,9.50,10.50,0,0,"$GNGGA,154124.000,4900.5238,N,00825.4682,E,1,4,6.52,116.7,M,47.9,M,,*4D",,,,
2022-05-10T17:41:48+02:00,193,41.88,21.14,1003.14,10.20,11.50,0,0,"$GNGGA,154144.000,4900.5246,N,00825.4565,E,1,4,6.54,116.1,M,47.9,M,,*48",,,,
2022-05-10T17:42:09+02:00,194,41.88,21.13,1003.14,9.90,11.50,0,0,"$GNGGA,154204.000,4900.5226,N,00825.4162,E,1,5,1.66,117.7,M,47.9,M,,*4A",,,,
2022-05-10T17:42:30+02:00,195,41.89,21.12,1003.15,9.80,11.20,0,0,"$GNGGA,154225.000,4900.5200,N,00825.4350,E,1,4,6.58,120.9,M,47.9,M,,*4F",,,,
2022-05-10T17:42:50+02:00,196,41.90,21.07,1003.14,9.90,11.10,0,0,"$GNGGA,154245.000,4900.5220,N,00825.4704,E,1,4,6.60,120.7,M,47.9,M,,*4B",,,,
2022-05-10T17:43:10+02:00,197,41.91,21.08,1003.14,9.70,10.80,0,0,"$GNGGA,154305.000,4900.5238,N,00825.4565,E,1,4,6.62,120.5,M,47.9,M,,*42",,,,
2022-05-10T17:43:31+02:00,198,41.92,21.05,1003.14,9.60,10.70,0,0,"$GNGGA,154326.000,4900.5228,N,00825.4374,E,1,4,6.64,120.1,M,47.9,M,,*46",,,,
2022-05-10T17:43:52+02:00,199,41.93,21.05,1003.14,9.90,11.40,0,0,"$GNGGA,154347.000,4900.5239,N,00825.4344,E,1,4,7.85,120.3,M,47.9,M,,*4E",,,,
2022-05-10T17:44:13+02:00,200,41.93,21.04,1003.14,9.80,11.60,0,0,"$GNGGA,154408.000,4900.5239,N,00825.4860,E,1,5,1.66,120.6,M,47.9,M,,*40",,,,
2022-05-10T17:44:33+02:00,201,41.94,21.03,1003.14,9.60,10.60,0,0,"$GNGGA,154428.000,4900.5248,N,00825.4749,E,1,4,6.70,119.6,M,47.9,M,,*4B",,,,
2022-05-10T17:44:53+02:00,202,41.95,21.03,1003.14,9.80,10.90,0,0,"$GNGGA,154448.000,4900.5237,N,00825.4681,E,1,5,1.66,116.2,M,47.9,M,,*4A",,,,
2022-05-10T17:45:14+02:00,203,41.96,20.99,1003.14,9.70,10.80,0,0,"$GNGGA,154509.000,4900.5219,N,00825.4612,E,1,5,1.67,116.5,M,47.9,M,,*4E",,,,
2022-05-10T17:45:34+02:00,204,41.97,21.01,1003.15,9.60,11.10,0,0,"$GNGGA,154529.000,4900.5225,N,00825.4560,E,1,4,6.77,115.7,M,47.9,M,,*43",,,,
2022-05-10T17:45:54+02:00,205,41.96,20.99,1003.15,9.80,11.20,0,0,"$GNGGA,154550.000,4900.5232,N,00825.4748,E,1,4,6.79,116.9,M,47.9,M,,*40",,,,
2022-05-10T17:46:15+02:00,206,41.95,21.03,1003.14,9.50,10.60,0,0,"$GNGGA,154611.000,4900.5244,N,00825.4653,E,1,4,6.81,116.4,M,47.9,M,,*46",,,,
2022-05-10T17:46:36+02:00,207,41.95,21.06,1003.14,9.60,10.70,0,0,"$GNGGA,154631.000,4900.5247,N,00825.4494,E,1,4,6.83,114.9,M,47.9,M,,*43",,,,
2022-05-10T17:46:57+02:00,208,41.94,21.02,1003.14,9.30,10.40,0,0,"$GNGGA,154652.000,4900.5229,N,00825.4276,E,1,5,1.67,114.3,M,47.9,M,,*42",,,,
2022-05-10T17:47:18+02:00,209,41.94,21.01,1003.13,9.50,10.60,0,0,"$GNGGA,154713.000,4900.5229,N,00825.4436,E,1,4,6.89,115.2,M,47.9,M,,*42",,,,
2022-05-10T17:47:38+02:00,210,41.93,20.99,1003.12,9.30,10.60,0,0,"$GNGGA,154733.000,4900.5223,N,00825.4515,E,1,4,6.90,116.0,M,47.9,M,,*43",,,,
2022-05-10T17:47:58+02:00,211,41.92,21.03,1003.11,9.90,11.10,0,0,"$GNGGA,154753.000,4900.5217,N,00825.4632,E,1,4,6.93,118.6,M,47.9,M,,*4F",,,,
2022-05-10T17:48:19+02:00,212,41.92,20.99,1003.12,9.20,10.20,0,0,"$GNGGA,154814.000,4900.5217,N,00825.4198,E,1,4,6.95,117.1,M,47.9,M,,*4A",,,,
2022-05-10T17:48:39+02:00,213,41.91,20.98,1003.11,9.00,10.00,0,0,"$GNGGA,154834.000,4900.5215,N,00825.4375,E,1,4,6.98,118.1,M,47.9,M,,*49",,,,
2022-05-10T17:49:00+02:00,214,41.91,20.98,1003.11,9.20,10.30,0,0,"$GNGGA,154855.000,4900.5214,N,00825.4158,E,1,4,7.00,120.2,M,47.9,M,,*4A",,,,
2022-05-10T17:49:20+02:00,215,41.90,20.96,1003.10,9.10,10.10,0,0,"$GNGGA,154916.000,4900.5224,N,00825.4370,E,1,4,7.03,120.1,M,47.9,M,,*47",,,,
2022-05-10T17:49:41+02:00,216,41.89,20.96,1003.10,9.60,10.70,0,0,"$GNGGA,154936.000,4900.5223,N,00825.4392,E,1,4,7.05,121.8,M,47.9,M,,*40",,,,
2022-05-10T17:50:02+02:00,217,41.90,20.95,1003.10,9.40,10.40,0,0,"$GNGGA,154957.000,4900.5225,N,00825.4326,E,1,4,7.08,118.2,M,47.9,M,,*43",,,,
2022-05-10T17:50:23+02:00,218,41.89,20.97,1003.09,9.50,10.50,0,0,"$GNGGA,155018.000,4900.5235,N,00825.4681,E,1,5,1.69,117.6,M,47.9,M,,*42",,,,
2022-05-10T17:50:43+02:00,219,41.90,21.01,1003.08,9.50,10.60,0,0,"$GNGGA,155038.000,4900.5242,N,00825.4875,E,1,5,1.69,119.6,M,47.9,M,,*4B",,,,
2022-05-10T17:51:04+02:00,220,41.90,20.95,1003.07,9.30,10.40,0,0,"$GNGGA,155059.000,4900.5240,N,00825.4768,E,1,4,7.15,119.3,M,47.9,M,,*44",,,,
2022-05-10T17:51:25+02:00,221,41.90,20.97,1003.08,8.90,9.90,0,0,"$GNGGA,155120.000,4900.5233,N,00825.4956,E,1,4,7.18,119.0,M,47.9,M,,*42",,,,
2022-05-10T17:51:45+02:00,222,41.88,20.94,1003.07,8.80,9.80,0,0,"$GNGGA,155140.000,4900.5244,N,00825.4425,E,1,4,7.21,116.8,M,47.9,M,,*40",,,,
2022-05-10T17:52:05+02:00,223,41.88,20.97,1003.06,9.40,10.90,0,0,"$GNGGA,155200.000,4900.5233,N,00825.3628,E,1,5,1.69,114.7,M,47.9,M,,*49",,,,
2022-05-10T17:52:26+02:00,224,41.88,20.95,1003.07,9.00,10.10,0,0,"$GNGGA,155221.000,4900.5239,N,00825.3710,E,1,4,7.26,115.4,M,47.9,M,,*44",,,,
2022-05-10T17:52:46+02:00,225,41.88,20.95,1003.07,8.80,10.20,0,0,"$GNGGA,155241.000,4900.5236,N,00825.4774,E,1,4,7.29,114.1,M,47.9,M,,*43",,,,
2022-05-10T17:53:06+02:00,226,41.89,20.92,1003.07,8.70,9.70,0,0,"$GNGGA,155301.000,4900.5249,N,00825.4905,E,1,4,7.32,113.7,M,47.9,M,,*4D",,,,
2022-05-10T17:53:27+02:00,227,41.89,20.91,1003.06,9.10,10.80,0,0,"$GNGGA,155322.000,4900.5238,N,00825.4544,E,1,5,4.15,112.2,M,47.9,M,,*40",,,,
2022-05-10T17:53:47+02:00,228,41.90,20.92,1003.06,8.90,10.00,0,0,"$GNGGA,155342.000,4900.5231,N,00825.4562,E,1,6,1.60,110.6,M,47.9,M,,*49",,,,
2022-05-10T17:54:07+02:00,229,41.92,20.88,1003.06,8.70,9.70,0,0,"$GNGGA,155402.000,4900.5229,N,00825.4470,E,1,5,5.03,112.4,M,47.9,M,,*43",,,,
2022-05-10T17:54:28+02:00,230,41.92,20.89,1003.06,8.60,9.50,0,0,"$GNGGA,155423.000,4900.5232,N,00825.4716,E,1,6,1.61,110.2,M,47.9,M,,*4E",,,,
2022-05-10T17:54:49+02:00,231,41.92,20.93,1003.05,8.60,9.80,0,0,"$GNGGA,155444.000,4900.5238,N,00825.4689,E,1,6,1.61,107.3,M,47.9,M,,*45",,,,
2022-05-10T17:55:09+02:00,232,41.93,20.91,1003.05,8.70,9.70,0,0,"$GNGGA,155504.000,4900.5228,N,00825.4657,E,1,5,5.05,105.3,M,47.9,M,,*45",,,,
2022-05-10T17:55:32+02:00,233,41.92,20.89,1003.05,8.70,10.20,0,0,"$GNGGA,155527.000,4900.5214,N,00825.4744,E,1,6,1.61,105.2,M,47.9,M,,*4C",,,,
2022-05-10T17:55:52+02:00,234,41.91,20.91,1003.05,9.20,11.20,0,0,"$GNGGA,155547.000,4900.5224,N,00825.4678,E,1,6,1.62,107.1,M,47.9,M,,*45",,,,
2022-05-10T17:56:13+02:00,235,41.89,20.95,1003.04,8.90,10.00,0,0,"$GNGGA,155608.000,4900.5229,N,00825.4501,E,1,5,4.28,109.0,M,47.9,M,,*4A",,,,
2022-05-10T17:56:34+02:00,236,41.90,20.94,1003.05,8.60,9.60,0,0,"$GNGGA,155628.000,4900.5246,N,00825.4567,E,1,6,1.62,108.2,M,47.9,M,,*4A",,,,
2022-05-10T17:56:54+02:00,237,41.88,20.89,1003.05,8.40,10.00,0,0,"$GNGGA,155649.000,4900.5226,N,00825.4640,E,1,6,1.62,106.9,M,47.9,M,,*48",,,,
2022-05-10T17:57:15+02:00,238,41.88,20.94,1003.05,8.70,10.30,0,0,"$GNGGA,155710.000,4900.5212,N,00825.4955,E,1,4,5.79,107.2,M,47.9,M,,*4F",,,,
2022-05-10T17:57:35+02:00,239,41.87,20.96,1003.04,9.20,10.90,0,0,"$GNGGA,155730.000,4900.5232,N,00825.4686,E,1,6,7.71,114.3,M,47.9,M,,*45",,,,
2022-05-10T17:57:55+02:00,240,41.86,20.97,1003.03,8.70,9.70,0,0,"$GNGGA,155750.000,4900.5231,N,00825.4472,E,1,6,7.74,115.2,M,47.9,M,,*4C",,,,
2022-05-10T17:58:16+02:00,241,41.87,20.97,1003.03,8.30,9.20,0,0,"$GNGGA,155811.000,4900.5233,N,00825.4331,E,1,6,8.96,112.6,M,47.9,M,,*44",,,,
2022-05-10T17:58:38+02:00,242,41.87,20.95,1003.03,8.90,10.70,0,0,"$GNGGA,155833.000,4900.5212,N,00825.4286,E,1,6,4.70,111.4,M,47.9,M,,*4F",,,,
2022-05-10T17:58:59+02:00,243,41.88,20.95,1003.03,8.70,9.70,0,0,"$GNGGA,155854.000,4900.5206,N,00825.3959,E,1,6,3.97,110.2,M,47.9,M,,*4C",,,,
2022-05-10T17:59:20+02:00,244,41.89,20.92,1003.02,8.50,9.40,0,0,"$GNGGA,155915.000,4900.5239,N,00825.3835,E,1,7,3.68,110.4,M,47.9,M,,*48",,,,
2022-05-10T17:59:40+02:00,245,41.91,20.92,1003.02,9.20,10.90,0,0,"$GNGGA,155935.000,4900.5234,N,00825.3797,E,1,7,3.69,108.2,M,47.9,M,,*4E",,,,
2022-05-10T18:00:00+02:00,246,41.92,20.93,1003.01,8.80,10.60,0,0,"$GNGGA,155955.000,4900.5175,N,00825.3598,E,1,7,3.70,104.4,M,47.9,M,,*41",,,,
2022-05-10T18:00:21+02:00,247,41.92,20.95,1003.01,8.60,9.50,0,0,"$GNGGA,160016.000,4900.5207,N,00825.3644,E,1,6,4.13,101.4,M,47.9,M,,*4B",,,,
2022-05-10T18:00:41+02:00,248,41.92,20.97,1003.01,8.50,10.20,0,0,"$GNGGA,160036.000,4900.5188,N,00825.3670,E,1,8,1.59,99.5,M,47.9,M,,*7E",,,,
2022-05-10T18:01:02+02:00,249,41.92,20.96,1003.01,8.70,9.70,0,0,"$GNGGA,160057.000,4900.5185,N,00825.3560,E,1,5,6.27,96.6,M,47.9,M,,*79",,,,
2022-05-10T18:01:23+02:00,250,41.93,20.91,1003.01,8.20,9.10,0,0,"$GNGGA,160118.000,4900.5179,N,00825.3659,E,1,6,4.16,95.3,M,47.9,M,,*7C",,,,
2022-05-10T18:01:43+02:00,251,41.94,20.92,1003.00,8.40,9.30,0,0,"$GNGGA,160138.000,4900.5225,N,00825.3777,E,1,7,3.75,98.3,M,47.9,M,,*77",,,,
2022-05-10T18:02:04+02:00,252,41.94,20.96,1003.00,8.30,9.20,0,0,"$GNGGA,160159.000,4900.5233,N,00825.3620,E,1,7,4.74,99.8,M,47.9,M,,*78",,,,
2022-05-10T18:02:24+02:00,253,41.95,20.90,1003.00,8.40,9.80,0,0,"$GNGGA,160219.000,4900.5274,N,00825.3629,E,1,7,4.74,100.2,M,47.9,M,,*4E",,,,
2022-05-10T18:02:44+02:00,254,41.97,20.86,1002.99,8.70,10.50,0,0,"$GNGGA,160239.000,4900.5260,N,00825.3508,E,1,7,3.79,101.5,M,47.9,M,,*45",,,,
2022-05-10T18:03:05+02:00,255,41.99,20.79,1002.99,8.40,9.40,0,0,"$GNGGA,160300.000,4900.5231,N,00825.3452,E,1,7,3.80,100.8,M,47.9,M,,*4E",,,,
2022-05-10T18:03:26+02:00,256,42.00,20.82,1002.99,7.90,8.80,0,0,"$GNGGA,160321.000,4900.5234,N,00825.3608,E,1,7,4.77,99.5,M,47.9,M,,*76",,,,
2022-05-10T18:03:46+02:00,257,42.01,20.81,1002.99,8.40,9.60,0,0,"$GNGGA,160341.000,4900.5198,N,00825.3648,E,1,7,3.82,98.4,M,47.9,M,,*7C",,,,
2022-05-10T18:04:07+02:00,258,42.01,20.86,1002.99,8.10,9.00,0,0,"$GNGGA,160402.000,4900.5209,N,00825.4011,E,1,7,3.83,94.4,M,47.9,M,,*77",,,,
2022-05-10T18:04:27+02:00,259,42.02,20.83,1003.00,8.10,9.60,0,0,"$GNGGA,160422.000,4900.5171,N,00825.3930,E,1,7,3.85,94.3,M,47.9,M,,*75",,,,
2022-05-10T18:04:48+02:00,260,42.02,20.87,1003.00,8.40,9.30,0,0,"$GNGGA,160443.000,4900.5200,N,00825.3971,E,1,7,3.85,97.2,M,47.9,M,,*70",,,,
2022-05-10T18:05:09+02:00,261,42.02,20.85,1003.00,7.80,8.70,0,0,"$GNGGA,160504.000,4900.5181,N,00825.4039,E,1,7,3.87,96.4,M,47.9,M,,*7F",,,,
2022-05-10T18:05:29+02:00,262,42.02,20.86,1003.00,8.00,8.90,0,0,"$GNGGA,160524.000,4900.5219,N,00825.3994,E,1,7,4.81,97.1,M,47.9,M,,*73",,,,
2022-05-10T18:05:50+02:00,263,42.02,20.86,1003.00,8.00,8.90,0,0,"$GNGGA,160545.000,4900.5190,N,00825.4077,E,1,5,6.48,96.7,M,47.9,M,,*77",,,,
2022-05-10T18:06:10+02:00,264,42.00,20.88,1003.01,8.20,9.10,0,0,"$GNGGA,160605.000,4900.5209,N,00825.4126,E,1,7,8.64,96.2,M,47.9,M,,*71",,,,
2022-05-10T18:06:31+02:00,265,41.99,20.84,1003.00,8.20,9.10,0,0,"$GNGGA,160626.000,4900.5211,N,00825.4443,E,1,6,4.94,95.2,M,47.9,M,,*7E",,,,
2022-05-10T18:06:52+02:00,266,42.00,20.86,1003.01,8.30,9.20,0,0,"$GNGGA,160647.000,4900.5225,N,00825.4351,E,1,6,4.43,97.7,M,47.9,M,,*77",,,,
2022-05-10T18:07:12+02:00,267,42.00,20.84,1003.01,8.10,10.10,0,0,"$GNGGA,160707.000,4900.5268,N,00825.4811,E,1,7,1.65,101.9,M,47.9,M,,*44",,,,
2022-05-10T18:07:33+02:00,268,41.98,20.87,1002.99,8.00,9.90,0,0,"$GNGGA,160728.000,4900.5265,N,00825.4766,E,1,5,6.80,105.9,M,47.9,M,,*41",,,,
2022-05-10T18:07:54+02:00,269,41.98,20.89,1002.98,7.70,8.60,0,0,"$GNGGA,160749.000,4900.5277,N,00825.4588,E,1,6,10.10,111.1,M,47.9,M,,*77",,,,
2022-05-10T18:08:14+02:00,270,41.97,20.87,1002.97,8.40,9.40,0,0,"$GNGGA,160809.000,4900.5297,N,00825.4135,E,1,6,4.52,109.5,M,47.9,M,,*4E",,,,
2022-05-10T18:08:35+02:00,271,41.98,20.86,1002.96,8.30,10.10,0,0,"$GNGGA,160830.000,4900.5241,N,00825.4248,E,1,6,4.55,108.1,M,47.9,M,,*44",,,,
2022-05-10T18:08:56+02:00,272,41.99,20.89,1002.97,8.30,9.20,0,0,"$GNGGA,160851.000,4900.5209,N,00825.4511,E,1,6,4.58,107.7,M,47.9,M,,*40",,,,
2022-05-10T18:09:16+02:00,273,41.99,20.83,1002.98,8.20,9.00,0,0,"$GNGGA,160911.000,4900.5218,N,00825.4466,E,1,6,4.60,107.5,M,47.9,M,,*4D",,,,
2022-05-10T18:09:37+02:00,274,42.00,20.83,1002.98,8.20,9.10,0,0,"$GNGGA,160932.000,4900.5244,N,00825.4720,E,1,5,5.18,108.6,M,47.9,M,,*45",,,,
2022-05-10T18:09:58+02:00,275,42.02,20.83,1002.97,8.30,11.60,0,0,"$GNGGA,160953.000,4900.5257,N,00825.5034,E,1,6,9.16,107.7,M,47.9,M,,*4C",,,,
2022-05-10T18:10:19+02:00,276,42.03,20.84,1002.95,8.20,9.20,0,0,"$GNGGA,161014.000,4900.5303,N,00825.5006,E,1,5,5.24,107.6,M,47.9,M,,*49",,,,
2022-05-10T18:10:40+02:00,277,42.04,20.83,1002.95,8.00,8.90,0,0,"$GNGGA,161035.000,4900.5284,N,00825.4545,E,1,5,7.22,106.8,M,47.9,M,,*4C",,,,
2022-05-10T18:11:01+02:00,278,42.03,20.80,1002.94,7.90,8.70,0,0,"$GNGGA,161056.000,4900.5276,N,00825.3497,E,1,5,7.26,105.5,M,47.9,M,,*47",,,,
2022-05-10T18:11:22+02:00,279,42.04,20.81,1002.94,8.00,8.90,0,0,"$GNGGA,161117.000,4900.5234,N,00825.4784,E,1,6,1.73,97.1,M,47.9,M,,*78",,,,
2022-05-10T18:11:43+02:00,280,42.02,20.84,1002.94,7.50,8.40,0,0,"$GNGGA,161138.000,4900.5228,N,00825.4721,E,1,6,4.79,96.9,M,47.9,M,,*71",,,,
2022-05-10T18:12:03+02:00,281,42.02,20.85,1002.93,7.40,8.20,0,0,"$GNGGA,161158.000,4900.5262,N,00825.4786,E,1,7,2.59,97.1,M,47.9,M,,*78",,,,
2022-05-10T18:12:24+02:00,282,42.02,20.86,1002.93,7.60,8.40,0,0,"$GNGGA,161219.000,4900.5254,N,00825.4586,E,1,4,7.93,104.7,M,47.9,M,,*44",,,,
2022-05-10T18:12:44+02:00,283,42.01,20.90,1002.93,7.60,8.40,0,0,"$GNGGA,161239.000,4900.5274,N,00825.4582,E,1,6,2.06,106.6,M,47.9,M,,*48",,,,
2022-05-10T18:13:05+02:00,284,41.99,20.87,1002.93,7.80,8.60,0,0,"$GNGGA,161300.000,4900.5251,N,00825.4214,E,1,6,4.90,109.5,M,47.9,M,,*49",,,,
2022-05-10T18:13:26+02:00,285,41.99,20.92,1002.92,8.00,9.10,0,0,"$GNGGA,161321.000,4900.5505,N,00825.3865,E,1,6,2.07,112.4,M,47.9,M,,*44",,,,
2022-05-10T18:13:47+02:00,286,42.00,20.89,1002.93,7.60,8.40,0,0,"$GNGGA,161342.000,4900.5369,N,00825.4069,E,1,6,2.08,113.2,M,47.9,M,,*46",,,,
2022-05-10T18:14:08+02:00,287,42.02,20.86,1002.92,7.60,8.40,0,0,"$GNGGA,161403.000,4900.5462,N,00825.4862,E,1,7,1.71,125.7,M,47.9,M,,*47",,,,
2022-05-10T18:14:29+02:00,288,42.02,20.91,1002.93,7.40,8.20,0,0,"$GNGGA,161424.000,4900.5401,N,00825.5091,E,1,6,2.09,129.9,M,47.9,M,,*4D",,,,
2022-05-10T18:14:49+02:00,289,42.01,20.88,1002.93,7.60,8.50,0,0,"$GNGGA,161444.000,4900.5432,N,00825.5320,E,1,7,1.72,133.0,M,47.9,M,,*4E",,,,
2022-05-10T18:15:10+02:00,290,42.01,20.89,1002.92,7.40,8.10,0,0,"$GNGGA,161505.000,4900.5449,N,00825.5675,E,1,6,2.10,136.1,M,47.9,M,,*41",,,,
2022-05-10T18:15:31+02:00,291,42.01,20.88,1002.92,7.80,8.60,0,0,"$GNGGA,161526.000,4900.5442,N,00825.5689,E,1,7,1.98,137.8,M,47.9,M,,*42",,,,
2022-05-10T18:15:51+02:00,292,42.01,20.86,1002.92,7.90,8.70,0,0,"$GNGGA,161546.000,4900.5405,N,00825.5501,E,1,8,1.66,133.4,M,47.9,M,,*42",,,,
2022-05-10T18:16:12+02:00,293,42.02,20.84,1002.92,7.90,8.80,0,0,"$GNGGA,161607.000,4900.5309,N,00825.4852,E,1,7,3.12,129.4,M,47.9,M,,*40",,,,
2022-05-10T18:16:32+02:00,294,42.02,20.82,1002.92,7.50,8.40,0,0,"$GNGGA,161627.000,4900.5272,N,00825.4699,E,1,4,9.49,126.1,M,47.9,M,,*4B",,,,
2022-05-10T18:16:52+02:00,295,42.02,20.85,1002.92,7.20,8.00,0,0,"$GNGGA,161647.000,4900.5277,N,00825.4882,E,1,7,1.74,125.6,M,47.9,M,,*4D",,,,
2022-05-10T18:17:13+02:00,296,42.03,20.83,1002.92,8.10,9.00,0,0,"$GNGGA,161708.000,4900.5229,N,00825.4789,E,1,7,3.68,123.9,M,47.9,M,,*4E",,,,
2022-05-10T18:17:33+02:00,297,42.01,20.87,1002.92,7.70,8.60,0,0,"$GNGGA,161728.000,4900.5223,N,00825.4400,E,1,7,3.69,122.1,M,47.9,M,,*4C",,,,
2022-05-10T18:17:54+02:00,298,42.01,20.85,1002.92,7.80,8.60,0,0,"$GNGGA,161749.000,4900.5241,N,00825.4486,E,1,7,3.70,121.1,M,47.9,M,,*4A",,,,
2022-05-10T18:18:15+02:00,299,42.01,20.88,1002.91,7.50,8.30,0,0,"$GNGGA,161810.000,4900.5226,N,00825.4600,E,1,7,3.19,123.6,M,47.9,M,,*4E",,,,
2022-05-10T18:18:35+02:00,300,41.99,20.83,1002.90,7.60,8.40,0,0,"$GNGGA,161830.000,4900.5258,N,00825.4034,E,1,8,1.68,119.7,M,47.9,M,,*47",,,,
2022-05-10T18:18:56+02:00,301,41.98,20.82,1002.90,7.80,8.70,0,0,"$GNGGA,161851.000,4900.5212,N,00825.4278,E,1,7,3.21,120.4,M,47.9,M,,*4D",,,,
2022-05-10T18:19:17+02:00,302,41.98,20.78,1002.90,7.60,8.40,0,0,"$GNGGA,161912.000,4900.5237,N,00825.3912,E,1,6,5.51,114.9,M,47.9,M,,*46",,,,
2022-05-10T18:19:37+02:00,303,41.97,20.81,1002.90,8.00,9.00,0,0,"$GNGGA,161932.000,4900.5192,N,00825.4379,E,1,7,3.75,113.9,M,47.9,M,,*4E",,,,
2022-05-10T18:19:58+02:00,304,41.97,20.83,1002.89,7.70,8.50,0,0,"$GNGGA,161953.000,4900.5198,N,00825.4434,E,1,7,3.25,111.9,M,47.9,M,,*4A",,,,
2022-05-10T18:20:18+02:00,305,41.97,20.77,1002.89,7.50,8.30,0,0,"$GNGGA,162013.000,4900.5220,N,00825.4253,E,1,7,1.77,110.3,M,47.9,M,,*4D",,,,
2022-05-10T18:20:38+02:00,306,41.97,20.82,1002.88,7.60,8.40,0,0,"$GNGGA,162033.000,4900.5214,N,00825.4634,E,1,8,1.80,104.4,M,47.9,M,,*48",,,,
2022-05-10T18:20:59+02:00,307,41.97,20.82,1002.87,7.70,8.50,0,0,"$GNGGA,162054.000,4900.5209,N,00825.3992,E,1,7,3.79,100.8,M,47.9,M,,*42",,,,
2022-05-10T18:21:19+02:00,308,41.97,20.78,1002.87,7.90,8.80,0,0,"$GNGGA,162114.000,4900.5200,N,00825.4113,E,1,4,9.13,99.5,M,47.9,M,,*71",,,,
2022-05-10T18:21:39+02:00,309,41.97,20.81,1002.86,7.60,8.50,0,0,"$GNGGA,162134.000,4900.5196,N,00825.4652,E,1,5,3.55,99.2,M,47.9,M,,*73",,,,
2022-05-10T18:22:00+02:00,310,41.96,20.81,1002.85,7.60,8.40,0,0,"$GNGGA,162155.000,4900.5221,N,00825.4518,E,1,5,3.56,98.5,M,47.9,M,,*73",,,,
2022-05-10T18:22:20+02:00,311,41.96,20.80,1002.85,7.90,8.90,0,0,"$GNGGA,162215.000,4900.5319,N,00825.4261,E,1,5,3.57,96.6,M,47.9,M,,*7B",,,,
2022-05-10T18:22:41+02:00,312,41.96,20.78,1002.85,7.90,8.80,0,0,"$GNGGA,162236.000,4900.5185,N,00825.4364,E,1,5,3.59,96.0,M,47.9,M,,*71",,,,
2022-05-10T18:23:02+02:00,313,41.97,20.80,1002.85,7.40,8.20,0,0,"$GNGGA,162257.000,4900.5134,N,00825.4681,E,1,4,5.61,94.2,M,47.9,M,,*7E",,,,
2022-05-10T18:23:23+02:00,314,41.96,20.81,1002.85,7.10,8.00,0,0,"$GNGGA,162318.000,4900.5037,N,00825.4753,E,1,5,3.62,91.6,M,47.9,M,,*7D",,,,
2022-05-10T18:23:44+02:00,315,41.95,20.83,1002.85,7.80,8.70,0,0,"$GNGGA,162339.000,4900.4904,N,00825.5284,E,1,6,3.95,89.9,M,47.9,M,,*75",,,,
2022-05-10T18:24:05+02:00,316,41.94,20.82,1002.84,7.80,8.70,0,0,"$GNGGA,162400.000,4900.5023,N,00825.4658,E,1,6,3.62,85.8,M,47.9,M,,*74",,,,
2022-05-10T18:24:26+02:00,317,41.94,20.80,1002.84,7.80,8.60,0,0,"$GNGGA,162421.000,4900.5303,N,00825.4695,E,1,5,3.98,75.7,M,47.9,M,,*71",,,,
2022-05-10T18:24:47+02:00,318,41.96,20.80,1002.84,7.80,8.70,0,0,"$GNGGA,162442.000,4900.5273,N,00825.5098,E,1,4,3.99,66.1,M,47.9,M,,*7C",,,,
2022-05-10T18:25:07+02:00,319,41.96,20.77,1002.85,7.00,7.80,0,0,"$GNGGA,162502.000,4900.5250,N,00825.3980,E,1,5,3.69,54.8,M,47.9,M,,*78",,,,
2022-05-10T18:25:28+02:00,320,41.97,20.78,1002.85,7.00,7.70,0,0,"$GNGGA,162523.000,4900.5247,N,00825.4578,E,1,5,3.71,48.2,M,47.9,M,,*7F",,,,
2022-05-10T18:25:49+02:00,321,41.98,20.74,1002.84,7.10,7.80,0,0,"$GNGGA,162544.000,4900.5234,N,00825.4274,E,1,5,3.72,44.3,M,47.9,M,,*7F",,,,
2022-05-10T18:26:09+02:00,322,41.98,20.76,1002.84,7.30,8.10,0,0,"$GNGGA,162604.000,4900.5223,N,00825.3906,E,1,4,6.94,41.3,M,47.9,M,,*7E",,,,
2022-05-10T18:26:29+02:00,323,41.98,20.78,1002.84,7.50,9.40,0,0,"$GNGGA,162624.000,4900.5237,N,00825.4001,E,1,5,3.75,35.0,M,47.9,M,,*7B",,,,
2022-05-10T18:26:50+02:00,324,41.98,20.78,1002.83,7.80,10.30,0,0,"$GNGGA,162645.000,4900.5223,N,00825.4193,E,1,5,3.77,25.2,M,47.9,M,,*72",,,,
2022-05-10T18:27:10+02:00,325,41.97,20.80,1002.82,7.30,8.10,0,0,"$GNGGA,162705.000,4900.5229,N,00825.4350,E,1,7,1.86,19.6,M,47.9,M,,*75",,,,
2022-05-10T18:27:31+02:00,326,41.95,20.81,1002.82,7.50,8.20,0,0,"$GNGGA,162726.000,4900.5280,N,00825.3889,E,1,6,3.78,6.1,M,47.9,M,,*44",,,,
2022-05-10T18:27:52+02:00,327,41.96,20.82,1002.80,7.40,9.00,0,0,"$GNGGA,162747.000,4900.5275,N,00825.4209,E,1,5,6.82,0.2,M,47.9,M,,*4A",,,,
2022-05-10T18:28:12+02:00,328,41.95,20.77,1002.80,7.00,7.70,0,0,"$GNGGA,162807.000,4900.5258,N,00825.3453,E,1,5,17.35,0.6,M,47.9,M,,*78",,,,
2022-05-10T18:28:33+02:00,329,41.95,20.78,1002.79,7.20,8.00,0,0,"$GNGGA,162828.000,4900.5236,N,00825.3753,E,1,6,1.99,-3.0,M,47.9,M,,*64",,,,
2022-05-10T18:28:53+02:00,330,41.95,20.74,1002.78,7.00,7.80,0,0,"$GNGGA,162848.000,4900.5303,N,00825.3419,E,1,5,6.98,-3.0,M,47.9,M,,*6D",,,,
2022-05-10T18:29:13+02:00,331,41.96,20.76,1002.78,7.30,8.10,0,0,"$GNGGA,162908.000,4900.5313,N,00825.3434,E,1,6,3.87,0.4,M,47.9,M,,*44",,,,
2022-05-10T18:29:34+02:00,332,41.96,20.73,1002.78,7.20,7.90,0,0,"$GNGGA,162929.000,4900.5274,N,00825.4264,E,1,6,2.01,-1.7,M,47.9,M,,*63",,,,
2022-05-10T18:29:54+02:00,333,41.95,20.76,1002.76,7.80,8.60,0,0,"$GNGGA,162949.000,4900.5239,N,00825.3852,E,1,5,7.17,-1.6,M,47.9,M,,*64",,,,
2022-05-10T18:30:15+02:00,334,41.95,20.79,1002.76,7.60,8.40,0,0,"$GNGGA,163010.000,4900.5180,N,00825.3786,E,1,5,7.23,-0.5,M,47.9,M,,*62",,,,
2022-05-10T18:30:36+02:00,335,41.95,20.75,1002.76,7.20,8.00,0,0,"$GNGGA,163031.000,4900.5157,N,00825.4180,E,1,5,7.29,1.0,M,47.9,M,,*4F",,,,
2022-05-10T18:30:56+02:00,336,41.95,20.74,1002.75,7.30,8.10,0,0,"$GNGGA,163051.000,4900.5185,N,00825.4379,E,1,5,7.35,1.4,M,47.9,M,,*4B",,,,
2022-05-10T18:31:16+02:00,337,41.95,20.76,1002.75,6.90,7.60,0,0,"$GNGGA,163111.000,4900.5218,N,00825.4765,E,1,6,3.98,0.1,M,47.9,M,,*44",,,,
2022-05-10T18:31:37+02:00,338,41.94,20.78,1002.75,7.30,8.10,0,0,"$GNGGA,163132.000,4900.5199,N,00825.4806,E,1,6,4.00,-8.5,M,47.9,M,,*62",,,,
2022-05-10T18:31:57+02:00,339,41.96,20.78,1002.74,7.60,8.50,0,0,"$GNGGA,163152.000,4900.5195,N,00825.4185,E,1,6,4.02,-10.8,M,47.9,M,,*5C",,,,
2022-05-10T18:32:21+02:00,340,41.96,20.79,1002.74,7.30,8.20,0,0,"$GNGGA,163213.000,4900.5179,N,00825.4079,E,1,5,9.18,-10.6,M,47.9,M,,*51",,,,
2022-05-10T18:32:42+02:00,341,41.95,20.84,1002.74,7.60,8.40,0,0,"$GNGGA,163237.000,4900.5118,N,00825.3541,E,1,5,7.69,-11.8,M,47.9,M,,*5E",,,,
2022-05-10T18:33:02+02:00,342,41.94,20.83,1002.72,7.10,7.90,0,0,"$GNGGA,163257.000,4900.5091,N,00825.3537,E,1,5,7.77,-12.0,M,47.9,M,,*5D",,,,
2022-05-10T18:33:22+02:00,343,41.93,20.83,1002.72,7.10,7.80,0,0,"$GNGGA,163317.000,4900.5158,N,00825.4050,E,1,6,4.15,-13.3,M,47.9,M,,*59",,,,
2022-05-10T18:33:44+02:00,344,41.94,20.80,1002.72,7.20,8.00,0,0,"$GNGGA,163338.000,4900.5258,N,00825.4358,E,1,6,4.13,-14.5,M,47.9,M,,*5B",,,,
2022-05-10T18:34:04+02:00,345,41.94,20.77,1002.72,6.90,8.80,0,0,"$GNGGA,163359.000,4900.5212,N,00825.4652,E,1,6,4.15,-16.8,M,47.9,M,,*54",,,,
2022-05-10T18:34:24+02:00,346,41.93,20.78,1002.71,7.30,8.40,0,0,"$GNGGA,163419.000,4900.5208,N,00825.4770,E,1,6,4.45,-22.7,M,47.9,M,,*50",,,,
2022-05-10T18:34:45+02:00,347,41.92,20.80,1002.70,7.30,9.10,0,0,"$GNGGA,163440.000,4900.5210,N,00825.5036,E,1,5,8.15,-26.6,M,47.9,M,,*5E",,,,
2022-05-10T18:35:05+02:00,348,41.92,20.82,1002.69,7.20,8.00,0,0,"$GNGGA,163500.000,4900.5333,N,00825.5012,E,1,6,4.22,-26.6,M,47.9,M,,*56",,,,
2022-05-10T18:35:26+02:00,349,41.92,20.86,1002.68,7.10,7.80,0,0,"$GNGGA,163521.000,4900.5290,N,00825.5447,E,1,5,8.31,-24.0,M,47.9,M,,*50",,,,
2022-05-10T18:35:47+02:00,350,41.90,20.94,1002.68,7.50,8.40,0,0,"$GNGGA,163542.000,4900.5182,N,00825.5436,E,1,7,3.57,-22.6,M,47.9,M,,*5A",,,,
2022-05-10T18:36:08+02:00,351,41.88,20.94,1002.67,7.10,7.90,0,0,"$GNGGA,163603.000,4900.5169,N,00825.5465,E,1,7,4.56,-23.5,M,47.9,M,,*5B",,,,
2022-05-10T18:36:28+02:00,352,41.87,20.95,1002.66,7.10,8.90,0,0,"$GNGGA,163623.000,4900.5146,N,00825.5378,E,1,7,3.60,-23.3,M,47.9,M,,*5B",,,,
2022-05-10T18:36:49+02:00,353,41.86,20.96,1002.66,7.00,9.20,0,0,"$GNGGA,163644.000,4900.5117,N,00825.4978,E,1,7,3.61,-20.2,M,47.9,M,,*56",,,,
2022-05-10T18:37:09+02:00,354,41.87,20.94,1002.66,7.40,9.50,0,0,"$GNGGA,163704.000,4900.5159,N,00825.4512,E,1,7,3.63,-16.9,M,47.9,M,,*55",,,,
2022-05-10T18:37:29+02:00,355,41.88,20.92,1002.66,7.20,9.20,0,0,"$GNGGA,163724.000,4900.5153,N,00825.4262,E,1,7,3.64,-12.4,M,47.9,M,,*53",,,,
2022-05-10T18:37:50+02:00,356,41.88,20.95,1002.65,7.60,11.50,0,0,"$GNGGA,163745.000,4900.5147,N,00825.4037,E,1,8,1.93,-5.9,M,47.9,M,,*6D",,,,
2022-05-10T18:38:10+02:00,357,41.86,20.98,1002.64,7.40,11.00,0,0,"$GNGGA,163805.000,4900.5194,N,00825.4492,E,1,7,3.67,-3.4,M,47.9,M,,*6E",,,,
2022-05-10T18:38:31+02:00,358,41.85,20.99,1002.64,7.20,9.90,0,0,"$GNGGA,163826.000,4900.5189,N,00825.4659,E,1,7,3.68,5.0,M,47.9,M,,*46",,,,
2022-05-10T18:38:52+02:00,359,41.84,21.00,1002.62,7.00,8.50,0,0,"$GNGGA,163847.000,4900.5142,N,00825.4762,E,1,7,3.70,11.8,M,47.9,M,,*7B",,,,
2022-05-10T18:39:13+02:00,360,41.84,20.97,1002.62,7.30,9.40,0,0,"$GNGGA,163908.000,4900.5147,N,00825.4878,E,1,7,3.71,16.6,M,47.9,M,,*78",,,,
2022-05-10T18:39:34+02:00,361,41.83,20.96,1002.61,6.80,9.10,0,0,"$GNGGA,163929.000,4900.5123,N,00825.4799,E,1,6,4.02,18.1,M,47.9,M,,*72",,,,
2022-05-10T18:39:55+02:00,362,41.82,20.96,1002.62,6.90,9.50,0,0,"$GNGGA,163950.000,4900.5204,N,00825.4273,E,1,7,3.74,18.5,M,47.9,M,,*78",,,,
2022-05-10T18:40:15+02:00,363,41.81,20.98,1002.61,7.00,7.90,0,0,"$GNGGA,164010.000,4900.5367,N,00825.3779,E,1,8,1.97,15.9,M,47.9,M,,*7F",,,,
2022-05-10T18:40:36+02:00,364,41.82,20.96,1002.60,7.30,10.80,0,0,"$GNGGA,164031.000,4900.5361,N,00825.3757,E,1,7,4.89,14.2,M,47.9,M,,*79",,,,
2022-05-10T18:40:57+02:00,365,41.83,20.91,1002.60,7.00,9.20,0,0,"$GNGGA,164052.000,4900.5286,N,00825.4141,E,1,7,3.79,14.3,M,47.9,M,,*7B",,,,
2022-05-10T18:41:17+02:00,366,41.84,20.87,1002.60,7.10,7.90,0,0,"$GNGGA,164112.000,4900.5355,N,00825.4171,E,1,7,3.80,14.0,M,47.9,M,,*77",,,,
2022-05-10T18:41:38+02:00,367,41.85,20.85,1002.60,7.10,7.90,0,0,"$GNGGA,164133.000,4900.5167,N,00825.4428,E,1,5,6.95,17.3,M,47.9,M,,*7D",,,,
2022-05-10T18:41:59+02:00,368,41.85,20.87,1002.61,7.30,8.50,0,0,"$GNGGA,164154.000,4900.5147,N,00825.4970,E,1,7,3.84,22.5,M,47.9,M,,*79",,,,
2022-05-10T18:42:20+02:00,369,41.87,20.86,1002.62,7.00,7.80,0,0,"$GNGGA,164215.000,4900.5130,N,00825.4810,E,1,6,6.37,25.3,M,47.9,M,,*75",,,,
2022-05-10T18:42:41+02:00,370,41.87,20.83,1002.61,7.10,7.90,0,0,"$GNGGA,164236.000,4900.5180,N,00825.4682,E,1,6,6.41,27.0,M,47.9,M,,*7A",,,,
2022-05-10T18:43:02+02:00,371,41.86,20.86,1002.61,7.20,8.00,0,0,"$GNGGA,164257.000,4900.5075,N,00825.4711,E,1,7,3.89,28.4,M,47.9,M,,*76",,,,
2022-05-10T18:43:23+02:00,372,41.86,20.86,1002.61,7.30,8.50,0,0,"$GNGGA,164318.000,4900.5171,N,00825.4676,E,1,6,6.49,32.5,M,47.9,M,,*7B",,,,
2022-05-10T18:43:43+02:00,373,41.85,20.87,1002.60,6.90,7.70,0,0,"$GNGGA,164338.000,4900.5169,N,00825.4562,E,1,6,6.52,36.4,M,47.9,M,,*79",,,,
2022-05-10T18:44:04+02:00,374,41.85,20.81,1002.59,6.90,7.70,0,0,"$GNGGA,164359.000,4900.5209,N,00825.4479,E,1,7,2.17,36.3,M,47.9,M,,*73",,,,
2022-05-10T18:44:24+02:00,375,41.87,20.80,1002.59,7.20,8.20,0,0,"$GNGGA,164419.000,4900.5137,N,00825.4532,E,1,6,3.12,35.0,M,47.9,M,,*75",,,,
2022-05-10T18:44:44+02:00,376,41.87,20.78,1002.59,7.20,8.00,0,0,"$GNGGA,164439.000,4900.5161,N,00825.4295,E,1,7,2.18,35.1,M,47.9,M,,*75",,,,
2022-05-10T18:45:05+02:00,377,41.87,20.80,1002.58,7.00,8.50,0,0,"$GNGGA,164500.000,4900.5125,N,00825.4538,E,1,7,3.99,36.0,M,47.9,M,,*74",,,,
2022-05-10T18:45:26+02:00,378,41.86,20.79,1002.58,6.80,8.30,0,0,"$GNGGA,164521.000,4900.5166,N,00825.5239,E,1,7,4.01,42.4,M,47.9,M,,*76",,,,
2022-05-10T18:45:47+02:00,379,41.86,20.80,1002.58,6.80,7.50,0,0,"$GNGGA,164542.000,4900.5118,N,00825.4969,E,1,7,4.03,46.4,M,47.9,M,,*73",,,,
2022-05-10T18:46:07+02:00,380,41.85,20.80,1002.57,7.00,8.50,0,0,"$GNGGA,164602.000,4900.5129,N,00825.4657,E,1,7,4.05,44.8,M,47.9,M,,*7C",,,,
2022-05-10T18:46:27+02:00,381,41.85,20.76,1002.56,7.60,9.40,0,0,"$GNGGA,164622.000,4900.5149,N,00825.4365,E,1,5,7.53,42.8,M,47.9,M,,*78",,,,
2022-05-10T18:46:48+02:00,382,41.85,20.79,1002.57,7.00,7.80,0,0,"$GNGGA,164643.000,4900.5132,N,00825.4421,E,1,6,6.87,45.2,M,47.9,M,,*72",,,,
2022-05-10T18:47:08+02:00,383,41.84,20.81,1002.56,7.00,8.70,0,0,"$GNGGA,164703.000,4900.5228,N,00825.4789,E,1,8,2.08,50.3,M,47.9,M,,*76",,,,
2022-05-10T18:47:28+02:00,384,41.83,20.81,1002.56,7.10,7.90,0,0,"$GNGGA,164723.000,4900.5129,N,00825.4709,E,1,8,2.08,51.2,M,47.9,M,,*7E",,,,
2022-05-10T18:47:49+02:00,385,41.84,20.81,1002.55,6.60,7.30,0,0,"$GNGGA,164744.000,4900.5211,N,00825.4623,E,1,8,2.09,54.5,M,47.9,M,,*7D",,,,
2022-05-10T18:48:10+02:00,386,41.84,20.80,1002.55,6.10,6.70,0,0,"$GNGGA,164805.000,4900.5144,N,00825.4398,E,1,8,2.29,61.9,M,47.9,M,,*79",,,,
2022-05-10T18:48:30+02:00,387,41.83,20.80,1002.54,6.70,7.40,0,0,"$GNGGA,164825.000,4900.5170,N,00825.4254,E,1,8,2.30,70.8,M,47.9,M,,*74",,,,
2022-05-10T18:48:51+02:00,388,41.82,20.82,1002.54,6.60,7.20,0,0,"$GNGGA,164846.000,4900.5125,N,00825.5262,E,1,7,4.20,77.0,M,47.9,M,,*72",,,,
2022-05-10T18:49:11+02:00,389,41.82,20.79,1002.53,6.70,7.40,0,0,"$GNGGA,164906.000,4900.5144,N,00825.4520,E,1,5,5.71,82.5,M,47.9,M,,*78",,,,
2022-05-10T18:49:31+02:00,390,41.82,20.81,1002.53,6.60,7.60,0,0,"$GNGGA,164926.000,4900.5191,N,00825.4286,E,1,7,2.30,83.5,M,47.9,M,,*78",,,,
2022-05-10T18:49:52+02:00,391,41.81,20.80,1002.53,6.80,7.50,0,0,"$GNGGA,164947.000,4900.5216,N,00825.4271,E,1,7,4.25,78.5,M,47.9,M,,*7D",,,,
2022-05-10T18:50:12+02:00,392,41.81,20.79,1002.53,7.00,7.70,0,0,"$GNGGA,165007.000,4900.5262,N,00825.4502,E,1,7,4.28,75.6,M,47.9,M,,*72",,,,
2022-05-10T18:50:33+02:00,393,41.81,20.79,1002.52,6.80,7.40,0,0,"$GNGGA,165028.000,4900.5163,N,00825.4471,E,1,7,2.64,73.0,M,47.9,M,,*76",,,,
2022-05-10T18:50:54+02:00,394,41.82,20.76,1002.53,7.00,7.90,0,0,"$GNGGA,165049.000,4900.5205,N,00825.4466,E,1,5,31.97,70.1,M,47.9,M,,*48",,,,
2022-05-10T18:51:14+02:00,395,41.81,20.77,1002.52,7.00,7.80,0,0,"$GNGGA,165109.000,4900.5189,N,00825.5056,E,1,6,7.42,67.5,M,47.9,M,,*70",,,,
2022-05-10T18:51:34+02:00,396,41.80,20.78,1002.51,7.00,7.70,0,0,"$GNGGA,165129.000,4900.5148,N,00825.4396,E,1,7,2.35,64.0,M,47.9,M,,*73",,,,
2022-05-10T18:51:55+02:00,397,41.80,20.77,1002.52,6.50,7.30,0,0,"$GNGGA,165150.000,4900.5228,N,00825.4887,E,1,7,4.38,64.8,M,47.9,M,,*70",,,,
2022-05-10T18:52:15+02:00,398,41.79,20.77,1002.51,6.70,7.40,0,0,"$GNGGA,165210.000,4900.5151,N,00825.5539,E,1,7,4.40,62.0,M,47.9,M,,*72",,,,
2022-05-10T18:52:36+02:00,399,41.79,20.78,1002.51,7.00,8.40,0,0,"$GNGGA,165231.000,4900.5174,N,00825.5598,E,1,6,3.58,61.0,M,47.9,M,,*71",,,,
2022-05-10T18:52:57+02:00,400,41.78,20.79,1002.51,6.60,7.50,0,0,"$GNGGA,165252.000,4900.5196,N,00825.4606,E,1,6,5.48,63.2,M,47.9,M,,*7A",,,,
2022-05-10T18:53:17+02:00,401,41.78,20.79,1002.51,6.70,7.60,0,0,"$GNGGA,165312.000,4900.5164,N,00825.5525,E,1,7,4.82,61.8,M,47.9,M,,*7F",,,,
2022-05-10T18:53:37+02:00,402,41.78,20.77,1002.50,6.60,7.30,0,0,"$GNGGA,165332.000,4900.5129,N,00825.5098,E,1,7,2.77,62.6,M,47.9,M,,*76",,,,
2022-05-10T18:53:58+02:00,403,41.78,20.76,1002.51,6.70,7.40,0,0,"$GNGGA,165353.000,4900.5203,N,00825.4124,E,1,6,7.77,73.4,M,47.9,M,,*7B",,,,
2022-05-10T18:54:18+02:00,404,41.78,20.74,1002.51,6.50,7.10,0,0,"$GNGGA,165413.000,4900.5158,N,00825.3933,E,1,6,7.82,74.8,M,47.9,M,,*7D",,,,
2022-05-10T18:54:38+02:00,405,41.78,20.75,1002.50,6.40,7.10,0,0,"$GNGGA,165433.000,4900.5096,N,00825.4498,E,1,6,7.86,74.2,M,47.9,M,,*79",,,,
2022-05-10T18:54:59+02:00,406,41.79,20.74,1002.51,6.90,8.30,0,0,"$GNGGA,165454.000,4900.5124,N,00825.4228,E,1,6,7.91,75.7,M,47.9,M,,*7F",,,,
2022-05-10T18:55:19+02:00,407,41.80,20.73,1002.50,7.20,8.10,0,0,"$GNGGA,165514.000,4900.5143,N,00825.4689,E,1,6,7.95,75.1,M,47.9,M,,*76",,,,
2022-05-10T18:55:39+02:00,408,41.79,20.76,1002.50,6.70,8.10,0,0,"$GNGGA,165534.000,4900.5177,N,00825.4403,E,1,6,7.99,76.7,M,47.9,M,,*7A",,,,
2022-05-10T18:56:00+02:00,409,41.78,20.76,1002.49,6.20,6.90,0,0,"$GNGGA,165555.000,4900.5084,N,00825.5561,E,1,8,2.25,67.0,M,47.9,M,,*7F",,,,
2022-05-10T18:56:20+02:00,410,41.77,20.77,1002.50,6.50,7.20,0,0,"$GNGGA,165615.000,4900.5113,N,00825.4109,E,1,7,2.49,69.0,M,47.9,M,,*77",,,,
2022-05-10T18:56:41+02:00,411,41.76,20.77,1002.50,6.50,7.20,0,0,"$GNGGA,165636.000,4900.5110,N,00825.3898,E,1,6,8.13,63.1,M,47.9,M,,*7C",,,,
2022-05-10T18:57:02+02:00,412,41.76,20.77,1002.50,6.90,7.60,0,0,"$GNGGA,165657.000,4900.5132,N,00825.3278,E,1,6,10.55,56.9,M,47.9,M,,*4A",,,,
2022-05-10T18:57:22+02:00,413,41.76,20.75,1002.50,7.20,8.00,0,0,"$GNGGA,165717.000,4900.5154,N,00825.2387,E,1,6,10.59,50.5,M,47.9,M,,*49",,,,
2022-05-10T18:57:42+02:00,414,41.76,20.76,1002.49,7.20,8.00,0,0,"$GNGGA,165737.000,4900.5092,N,00825.2022,E,1,6,8.26,44.8,M,47.9,M,,*75",,,,
2022-05-10T18:58:03+02:00,415,41.76,20.75,1002.49,7.30,8.40,0,0,"$GNGGA,165758.000,4900.5064,N,00825.4068,E,1,7,2.55,32.0,M,47.9,M,,*7B",,,,
2022-05-10T18:58:23+02:00,416,41.76,20.75,1002.49,6.90,7.60,0,0,"$GNGGA,165818.000,4900.5053,N,00825.4569,E,1,7,2.56,25.9,M,47.9,M,,*7C",,,,
2022-05-10T18:58:44+02:00,417,41.75,20.75,1002.48,7.30,8.00,0,0,"$GNGGA,165839.000,4900.5082,N,00825.4286,E,1,6,8.39,18.6,M,47.9,M,,*76",,,,
2022-05-10T18:59:05+02:00,418,41.74,20.76,1002.47,7.20,7.90,0,0,"$GNGGA,165900.000,4900.5138,N,00825.4179,E,1,8,2.57,32.9,M,47.9,M,,*75",,,,
2022-05-10T18:59:25+02:00,419,41.74,20.77,1002.47,6.90,7.60,0,0,"$GNGGA,165920.000,4900.5091,N,00825.4293,E,1,8,2.58,43.1,M,47.9,M,,*73",,,,
2022-05-10T18:59:46+02:00,420,41.74,20.77,1002.47,6.70,7.40,0,0,"$GNGGA,165941.000,4900.5028,N,00825.4650,E,1,8,2.34,43.9,M,47.9,M,,*7F",,,,
2022-05-10T19:00:06+02:00,421,41.74,20.75,1002.46,6.80,7.60,0,0,"$GNGGA,170001.000,4900.5037,N,00825.4482,E,1,7,2.62,45.6,M,47.9,M,,*70",,,,
2022-05-10T19:00:26+02:00,422,41.73,20.78,1002.46,6.90,7.60,0,0,"$GNGGA,170021.000,4900.5013,N,00825.4676,E,1,7,2.63,45.2,M,47.9,M,,*78",,,,
2022-05-10T19:00:47+02:00,423,41.72,20.78,1002.45,7.10,7.90,0,0,"$GNGGA,170042.000,4900.5040,N,00825.4562,E,1,7,2.65,41.5,M,47.9,M,,*78",,,,
2022-05-10T19:01:07+02:00,424,41.71,20.79,1002.45,7.00,8.60,0,0,"$GNGGA,170102.000,4900.5052,N,00825.4154,E,1,6,11.09,41.0,M,47.9,M,,*43",,,,
