created_at,entry_id,field1,field2,field3,field4,field5,field6,field7,field8,latitude,longitude,elevation,status
2022-01-15T19:54:40+01:00,1,27.45,28.87,1012.12,105.70,111.00,0,20.50,"$GNGGA,000028.264,4900.7874,N,00825.4525,E,0,0,,102.1,M,47.9,M,,*57",,,,
2022-01-15T19:55:00+01:00,2,27.29,25.88,1012.13,97.90,102.80,0,17.00,"$GNGGA,000048.264,4900.7874,N,00825.4525,E,0,0,,102.1,M,47.9,M,,*51",,,,
2022-01-15T19:55:20+01:00,3,27.20,24.64,1012.13,84.30,88.60,0,15.00,"$GNGGA,000108.264,4900.7874,N,00825.4525,E,0,0,,102.1,M,47.9,M,,*54",,,,
2022-01-15T19:55:41+01:00,4,27.14,23.18,1012.13,84.00,88.30,0,13.50,"$GNGGA,000129.264,4900.7874,N,00825.4525,E,0,0,,102.1,M,47.9,M,,*57",,,,
2022-01-15T19:56:01+01:00,5,27.04,22.09,1012.13,81.00,85.10,0,12.00,"$GNGGA,000149.264,4900.7874,N,00825.4525,E,0,0,,102.1,M,47.9,M,,*51",,,,
2022-01-15T19:56:21+01:00,6,26.93,22.04,1012.11,81.60,85.70,0,11.50,"$GNGGA,000209.264,4900.7874,N,00825.4525,E,0,0,,102.1,M,47.9,M,,*56",,,,
2022-01-15T19:56:42+01:00,7,26.74,21.93,1012.11,182.40,191.60,0,11.50,"$GNGGA,000230.264,4900.7874,N,00825.4525,E,0,0,,102.1,M,47.9,M,,*5C",,,,
2022-01-15T19:57:02+01:00,8,26.44,21.94,1012.11,50.30,52.90,0,13.50,"$GNGGA,000250.264,4900.7874,N,00825.4525,E,0,0,,102.1,M,47.9,M,,*5A",,,,
2022-01-15T19:57:22+01:00,9,26.03,27.64,1012.18,46.80,49.20,0,17.50,"$GNGGA,000310.264,4900.7874,N,00825.4525,E,0,0,,102.1,M,47.9,M,,*5F",,,,
2022-01-15T19:57:43+01:00,10,25.52,24.70,1012.24,41.60,43.70,0,19.00,"$GNGGA,000331.264,4900.7874,N,00825.4525,E,0,0,,102.1,M,47.9,M,,*5C",,,,
2022-01-15T19:58:03+01:00,11,25.06,23.26,1012.29,32.60,45.10,0,18.50,"$GNGGA,000351.264,4900.7874,N,00825.4525,E,0,0,,102.1,M,47.9,M,,*5A",,,,
2022-01-15T19:58:23+01:00,12,24.72,23.70,1012.36,34.00,35.80,0,19.00,"$GNGGA,000411.264,4900.7874,N,00825.4525,E,0,0,,102.1,M,47.9,M,,*59",,,,
2022-01-15T19:58:44+01:00,13,24.23,23.29,1012.78,33.90,35.60,0,17.50,"$GNGGA,000432.264,4900.7874,N,00825.4525,E,0,0,,102.1,M,47.9,M,,*58",,,,
2022-01-15T19:59:04+01:00,14,23.44,23.48,1013.10,38.70,40.70,0,13.50,"$GNGGA,000452.264,4900.7874,N,00825.4525,E,0,0,,102.1,M,47.9,M,,*5E",,,,
2022-01-15T19:59:24+01:00,15,22.42,24.64,1013.33,43.60,45.80,0,11.00,"$GNGGA,000512.264,4900.7874,N,00825.4525,E,0,0,,102.1,M,47.9,M,,*5B",,,,
2022-01-15T19:59:45+01:00,16,21.58,26.06,1013.50,47.80,50.20,0,10.50,"$GNGGA,000533.264,4900.7874,N,00825.4525,E,0,0,,102.1,M,47.9,M,,*58",,,,
2022-01-15T20:00:05+01:00,17,20.80,26.71,1013.64,49.10,51.60,0,9.00,"$GNGGA,000553.264,4900.7874,N,00825.4525,E,0,0,,102.1,M,47.9,M,,*5E",,,,
2022-01-15T20:00:25+01:00,18,20.05,27.53,1013.74,45.50,47.80,0,8.00,"$GNGGA,000613.264,4900.7874,N,00825.4525,E,0,0,,102.1,M,47.9,M,,*59",,,,
2022-01-15T20:00:46+01:00,19,19.28,28.32,1013.82,42.40,44.60,0,8.00,"$GNGGA,000634.264,4900.7874,N,00825.4525,E,0,0,,102.1,M,47.9,M,,*5C",,,,
2022-01-15T20:01:06+01:00,20,18.46,29.56,1013.87,38.30,40.30,0,7.50,"$GNGGA,000654.264,4900.7874,N,00825.4525,E,0,0,,102.1,M,47.9,M,,*5A",,,,
2022-01-15T20:01:26+01:00,21,17.72,30.81,1013.92,37.60,39.50,0,7.50,"$GNGGA,000714.264,4900.7874,N,00825.4525,E,0,0,,102.1,M,47.9,M,,*5F",,,,
2022-01-15T20:01:47+01:00,22,17.08,31.59,1013.95,37.70,39.60,0,9.00,"$GNGGA,000735.264,4900.7874,N,00825.4525,E,0,0,,102.1,M,47.9,M,,*5C",,,,
2022-01-15T20:02:07+01:00,23,16.53,31.95,1013.96,41.40,43.50,0,9.50,"$GNGGA,000755.264,4900.7874,N,00825.4525,E,0,0,,102.1,M,47.9,M,,*5A",,,,
2022-01-15T20:02:28+01:00,24,15.84,32.75,1013.97,45.40,47.70,0,9.00,"$GNGGA,000816.264,4900.7874,N,00825.4525,E,0,0,,102.1,M,47.9,M,,*52",,,,
2022-01-15T20:02:47+01:00,25,15.05,34.44,1013.97,47.60,50.00,0,8.00,"$GNGGA,190243.083,4900.7874,N,00825.4525,E,0,0,,102.1,M,47.9,M,,*5B",,,,
2022-01-15T20:03:07+01:00,26,14.29,36.21,1013.98,45.70,48.00,0,7.50,"$GNGGA,190303.095,4900.7874,N,00825.4525,E,0,0,,102.1,M,47.9,M,,*59",,,,
2022-01-15T20:03:29+01:00,27,13.42,38.00,1013.98,48.10,50.60,0,6.50,"$GNGGA,190324.087,4900.7874,N,00825.4525,E,0,0,,102.1,M,47.9,M,,*5F",,,,
2022-01-15T20:03:48+01:00,28,12.77,39.59,1013.99,47.30,49.70,0,7.00,"$GNGGA,190344.090,4900.7874,N,00825.4525,E,0,0,,102.1,M,47.9,M,,*5F",,,,
2022-01-15T20:04:09+01:00,29,12.25,40.20,1013.99,46.10,48.50,0,7.00,"$GNGGA,190404.000,4900.4688,N,00825.4552,E,1,4,2.11,125.8,M,47.9,M,,*4E",,,,
2022-01-15T20:04:30+01:00,30,11.78,40.62,1013.98,44.10,46.40,0,7.00,"$GNGGA,190425.000,4900.4605,N,00825.4545,E,1,4,2.11,122.2,M,47.9,M,,*43",,,,
2022-01-15T20:04:51+01:00,31,11.45,41.36,1013.95,46.60,49.00,0,7.50,"$GNGGA,190446.000,4900.4572,N,00825.4522,E,0,0,,122.7,M,47.9,M,,*58",,,,
2022-01-15T20:05:11+01:00,32,11.20,41.69,1013.94,46.90,49.30,0,7.00,"$GNGGA,190506.000,4900.4572,N,00825.4522,E,0,0,,122.7,M,47.9,M,,*5D",,,,
2022-01-15T20:05:32+01:00,33,11.04,41.74,1013.92,44.60,46.90,0,7.00,"$GNGGA,190527.000,4900.4572,N,00825.4522,E,0,0,,122.7,M,47.9,M,,*5E",,,,
2022-01-15T20:05:52+01:00,34,10.95,41.64,1013.91,42.90,45.10,0,7.00,"$GNGGA,190547.000,4900.4572,N,00825.4522,E,0,0,,122.7,M,47.9,M,,*58",,,,
2022-01-15T20:06:12+01:00,35,10.87,41.82,1013.91,40.30,42.40,0,7.00,"$GNGGA,190607.000,4900.4572,N,00825.4522,E,0,0,,122.7,M,47.9,M,,*5F",,,,
2022-01-15T20:06:33+01:00,36,10.79,41.90,1013.92,37.90,39.80,0,6.00,"$GNGGA,190628.000,4900.4574,N,00825.4524,E,0,0,,122.6,M,47.9,M,,*53",,,,
2022-01-15T20:06:53+01:00,37,10.70,41.95,1013.91,37.60,39.50,0,6.00,"$GNGGA,190648.000,4900.4574,N,00825.4524,E,0,0,,122.6,M,47.9,M,,*55",,,,
2022-01-15T20:07:13+01:00,38,10.64,42.13,1013.92,39.10,41.10,0,6.00,"$GNGGA,190708.000,4900.4574,N,00825.4524,E,0,0,,122.6,M,47.9,M,,*50",,,,
2022-01-15T20:07:34+01:00,39,10.63,42.47,1013.93,38.50,40.50,0,6.00,"$GNGGA,190729.000,4900.4574,N,00825.4524,E,0,0,,122.6,M,47.9,M,,*53",,,,
2022-01-15T20:07:54+01:00,40,10.65,42.24,1013.94,37.90,39.80,0,5.50,"$GNGGA,190749.000,4900.4574,N,00825.4524,E,0,0,,122.6,M,47.9,M,,*55",,,,
2022-01-15T20:08:14+01:00,41,10.68,42.09,1013.95,37.80,39.70,0,6.00,"$GNGGA,190809.000,4900.4574,N,00825.4524,E,0,0,,122.6,M,47.9,M,,*5E",,,,
2022-01-15T20:08:35+01:00,42,10.67,42.15,1013.97,41.20,43.30,0,6.00,"$GNGGA,190830.000,4900.4574,N,00825.4524,E,0,0,,122.6,M,47.9,M,,*54",,,,
2022-01-15T20:08:55+01:00,43,10.57,42.28,1013.97,43.50,45.70,0,5.50,"$GNGGA,190850.000,4900.4574,N,00825.4524,E,0,0,,122.6,M,47.9,M,,*52",,,,
2022-01-15T20:09:15+01:00,44,10.36,42.83,1013.97,47.90,50.30,0,5.00,"$GNGGA,190910.000,4900.4574,N,00825.4524,E,0,0,,122.6,M,47.9,M,,*57",,,,
2022-01-15T20:09:36+01:00,45,10.05,43.88,1013.99,47.90,50.30,0,5.00,"$GNGGA,190931.000,4900.4574,N,00825.4524,E,0,0,,122.6,M,47.9,M,,*54",,,,
2022-01-15T20:09:56+01:00,46,9.80,44.84,1014.00,45.90,48.20,0,5.00,"$GNGGA,190951.000,4900.4574,N,00825.4524,E,0,0,,122.6,M,47.9,M,,*52",,,,
2022-01-15T20:10:16+01:00,47,9.60,45.26,1014.01,45.20,47.50,0,4.50,"$GNGGA,191011.000,4900.4575,N,00825.4525,E,0,0,,122.6,M,47.9,M,,*5E",,,,
2022-01-15T20:10:37+01:00,48,9.34,45.82,1014.00,44.60,46.90,0,4.50,"$GNGGA,191032.000,4900.4575,N,00825.4525,E,0,0,,122.6,M,47.9,M,,*5F",,,,
2022-01-15T20:10:57+01:00,49,9.04,46.42,1013.99,47.30,49.70,0,4.50,"$GNGGA,191052.000,4900.4575,N,00825.4525,E,0,0,,122.6,M,47.9,M,,*59",,,,
2022-01-15T20:11:17+01:00,50,8.74,47.49,1013.99,47.30,49.70,0,4.00,"$GNGGA,191112.000,4900.4575,N,00825.4525,E,0,0,,122.6,M,47.9,M,,*5C",,,,
2022-01-15T20:11:38+01:00,51,8.41,48.38,1013.99,47.60,50.00,0,4.00,"$GNGGA,191133.000,4900.4575,N,00825.4525,E,0,0,,122.6,M,47.9,M,,*5F",,,,
2022-01-15T20:11:58+01:00,52,8.10,49.45,1013.98,48.50,51.00,0,4.00,"$GNGGA,191153.000,4900.4575,N,00825.4525,E,0,0,,122.6,M,47.9,M,,*59",,,,
2022-01-15T20:12:18+01:00,53,7.83,50.16,1013.98,49.30,51.80,0,3.50,"$GNGGA,191213.000,4900.4575,N,00825.4525,E,0,0,,122.6,M,47.9,M,,*5E",,,,
2022-01-15T20:12:39+01:00,54,7.72,50.67,1013.98,47.40,49.80,0,4.00,"$GNGGA,191234.000,4900.4575,N,00825.4525,E,0,0,,122.6,M,47.9,M,,*5B",,,,
2022-01-15T20:12:59+01:00,55,7.69,50.46,1013.98,42.60,44.80,0,4.00,"$GNGGA,191254.000,4900.4575,N,00825.4525,E,0,0,,122.6,M,47.9,M,,*5D",,,,
2022-01-15T20:13:19+01:00,56,7.73,50.06,1014.00,39.40,41.40,0,4.00,"$GNGGA,191314.000,4900.4575,N,00825.4525,E,0,0,,122.6,M,47.9,M,,*58",,,,
2022-01-15T20:13:40+01:00,57,7.69,49.78,1013.99,40.60,42.70,0,4.00,"$GNGGA,191335.000,4900.4575,N,00825.4525,E,0,0,,122.6,M,47.9,M,,*5B",,,,
2022-01-15T20:14:00+01:00,58,7.54,50.06,1014.01,42.90,45.10,0,4.00,"$GNGGA,191355.000,4900.4575,N,00825.4525,E,0,0,,122.6,M,47.9,M,,*5D",,,,
2022-01-15T20:14:20+01:00,59,7.49,50.69,1014.01,45.00,47.30,0,4.00,"$GNGGA,191415.000,4900.4575,N,00825.4525,E,0,0,,122.6,M,47.9,M,,*5E",,,,
2022-01-15T20:14:41+01:00,60,7.41,50.81,1014.01,44.60,46.90,0,4.00,"$GNGGA,191436.000,4900.4575,N,00825.4525,E,0,0,,122.6,M,47.9,M,,*5F",,,,
2022-01-15T20:15:01+01:00,61,7.16,51.48,1014.01,44.60,46.90,0,3.50,"$GNGGA,191456.000,4900.4575,N,00825.4525,E,0,0,,122.6,M,47.9,M,,*59",,,,
2022-01-15T20:15:22+01:00,62,6.87,52.79,1014.01,47.60,50.00,0,3.00,"$GNGGA,191517.000,4900.4575,N,00825.4525,E,0,0,,122.6,M,47.9,M,,*5D",,,,
2022-01-15T20:15:43+01:00,63,6.62,53.88,1014.01,50.90,53.50,0,3.00,"$GNGGA,191538.000,4900.4575,N,00825.4525,E,0,0,,122.6,M,47.9,M,,*50",,,,
2022-01-15T20:16:03+01:00,64,6.44,54.48,1014.02,51.50,54.10,0,3.00,"$GNGGA,191558.000,4900.4575,N,00825.4525,E,0,0,,122.6,M,47.9,M,,*56",,,,
2022-01-15T20:16:24+01:00,65,6.24,54.91,1014.04,50.40,53.00,0,3.00,"$GNGGA,191619.000,4900.4575,N,00825.4525,E,0,0,,122.6,M,47.9,M,,*50",,,,
2022-01-15T20:16:46+01:00,66,6.06,55.53,1014.07,50.20,52.80,0,3.00,"$GNGGA,191641.000,4900.4575,N,00825.4525,E,0,0,,122.6,M,47.9,M,,*5D",,,,
2022-01-15T20:17:06+01:00,67,5.87,56.01,1014.09,49.10,51.60,0,3.00,"$GNGGA,191701.000,4900.4575,N,00825.4525,E,0,0,,122.6,M,47.9,M,,*58",,,,
2022-01-15T20:17:28+01:00,68,5.69,56.75,1014.11,49.40,51.90,0,3.00,"$GNGGA,191723.000,4900.4575,N,00825.4525,E,0,0,,122.6,M,47.9,M,,*58",,,,
2022-01-15T20:17:49+01:00,69,5.56,57.08,1014.14,49.90,52.40,0,3.00,"$GNGGA,191744.000,4900.4575,N,00825.4525,E,0,0,,122.6,M,47.9,M,,*59",,,,
2022-01-15T20:18:09+01:00,70,5.33,57.56,1014.16,50.50,53.10,0,3.00,"$GNGGA,191804.000,4900.4575,N,00825.4525,E,0,0,,122.6,M,47.9,M,,*52",,,,
2022-01-15T20:18:29+01:00,71,5.06,58.56,1014.18,52.10,54.80,0,2.50,"$GNGGA,191824.000,4900.4575,N,00825.4525,E,0,0,,122.6,M,47.9,M,,*50",,,,
2022-01-15T20:18:50+01:00,72,4.86,59.53,1014.19,52.10,54.80,0,2.50,"$GNGGA,191845.000,4900.4575,N,00825.4525,E,0,0,,122.6,M,47.9,M,,*57",,,,
2022-01-15T20:19:10+01:00,73,4.73,60.10,1014.19,49.40,51.90,0,2.50,"$GNGGA,191905.000,4900.4575,N,00825.4525,E,0,0,,122.6,M,47.9,M,,*52",,,,
2022-01-15T20:19:30+01:00,74,4.63,60.43,1014.20,48.00,50.50,0,2.50,"$GNGGA,191925.000,4900.4575,N,00825.4525,E,0,0,,122.6,M,47.9,M,,*50",,,,
2022-01-15T20:19:51+01:00,75,4.57,60.65,1014.22,45.00,47.30,0,2.50,"$GNGGA,191946.000,4900.4575,N,00825.4525,E,0,0,,122.6,M,47.9,M,,*55",,,,
2022-01-15T20:20:11+01:00,76,4.54,60.74,1014.22,46.20,48.60,0,2.50,"$GNGGA,192006.000,4900.4575,N,00825.4525,E,0,0,,122.6,M,47.9,M,,*5B",,,,
2022-01-15T20:20:32+01:00,77,4.52,60.72,1014.24,45.90,48.20,0,2.50,"$GNGGA,192027.000,4900.4575,N,00825.4525,E,0,0,,122.6,M,47.9,M,,*58",,,,
