created_at,entry_id,field1,field2,field3,field4,field5,field6,field7,field8,latitude,longitude,elevation,status
2022-03-11T16:32:24+01:00,58,31.62,14.05,1002.91,45.8,48.1,0,-127,"$GNGGA,153219.030,4900.5563,N,00826.5697,E,0,2,,148.4,M,47.9,M,,*5B",,,,
2022-03-11T16:32:44+01:00,59,31.39,13.55,1002.93,44,46.3,0,-127,"$GNGGA,153239.000,4900.5323,N,00825.4601,E,1,5,1.59,121.0,M,47.9,M,,*4B",,,,
2022-03-11T16:33:05+01:00,60,31.18,13.28,1002.93,43,45.2,0,-127,"$GNGGA,153300.000,4900.5272,N,00825.4596,E,1,7,1.22,129.7,M,47.9,M,,*49",,,,
2022-03-11T16:33:25+01:00,61,30.97,12.3,1002.92,42.1,44.3,0,-127,"$GNGGA,153320.000,4900.5270,N,00825.4581,E,1,8,1.12,125.4,M,47.9,M,,*4C",,,,
2022-03-11T16:33:45+01:00,62,30.77,12.04,1002.92,41.5,43.6,0,-127,"$GNGGA,153340.000,4900.5264,N,00825.4592,E,1,10,1.01,125.8,M,47.9,M,,*7A",,,,
2022-03-11T16:34:06+01:00,63,30.41,12.36,1002.94,40.8,42.9,0,-127,"$GNGGA,153401.000,4900.5258,N,00825.4562,E,1,10,1.01,123.0,M,47.9,M,,*76",,,,
2022-03-11T16:34:26+01:00,64,30.02,12.05,1002.94,39.9,41.9,0,-127,"$GNGGA,153421.000,4900.5132,N,00825.4490,E,1,7,1.20,118.0,M,47.9,M,,*4A",,,,
2022-03-11T16:34:46+01:00,65,29.49,12.59,1002.94,39.9,41.9,0,-127,"$GNGGA,153441.000,4900.5118,N,00825.4288,E,1,9,1.09,120.5,M,47.9,M,,*40",,,,
2022-03-11T16:35:07+01:00,66,28.87,12.68,1002.94,40.8,42.9,0,-127,"$GNGGA,153502.000,4900.5058,N,00825.4229,E,6,0,99.99,120.6,M,47.9,M,,*7D",,,,
2022-03-11T16:35:27+01:00,67,28.46,12.75,1002.95,42.1,44.3,0,-127,"$GNGGA,153522.000,4900.5059,N,00825.4233,E,0,0,,120.5,M,47.9,M,,*5E",,,,
2022-03-11T16:35:47+01:00,68,28.17,12.62,1002.95,42.1,44.3,0,-127,"$GNGGA,153542.000,4900.5059,N,00825.4233,E,0,0,,120.5,M,47.9,M,,*58",,,,
2022-03-11T16:36:08+01:00,69,27.9,12.56,1002.94,43,45.2,0,-127,"$GNGGA,153603.000,4900.5059,N,00825.4233,E,0,0,,120.5,M,47.9,M,,*5E",,,,
2022-03-11T16:36:28+01:00,70,27.72,12.64,1002.94,41.4,43.5,0,-127,"$GNGGA,153623.000,4900.5059,N,00825.4233,E,0,0,,120.5,M,47.9,M,,*5C",,,,
2022-03-11T16:36:48+01:00,71,27.61,12.79,1002.95,42.4,44.6,0,-127,"$GNGGA,153643.000,4900.5059,N,00825.4233,E,0,0,,120.5,M,47.9,M,,*5A",,,,
2022-03-11T16:37:09+01:00,72,27.52,13.62,1002.96,40.5,42.6,0,-127,"$GNGGA,153704.000,4900.5057,N,00825.4228,E,0,0,,120.5,M,47.9,M,,*5C",,,,
2022-03-11T16:37:29+01:00,73,27.38,12.81,1002.94,41.2,43.3,0,-127,"$GNGGA,153724.000,4900.5057,N,00825.4228,E,0,0,,120.5,M,47.9,M,,*5E",,,,
2022-03-11T16:37:49+01:00,74,27.2,12.88,1002.94,40.3,42.4,0,-127,"$GNGGA,153744.000,4900.5060,N,00825.4277,E,1,9,1.09,115.3,M,47.9,M,,*48",,,,
2022-03-11T16:38:10+01:00,75,26.84,13.24,1002.93,40,42.1,0,-127,"$GNGGA,153805.000,4900.5022,N,00825.4262,E,1,9,1.09,119.0,M,47.9,M,,*4F",,,,
2022-03-11T16:38:30+01:00,76,26.15,13.67,1002.91,38.8,40.8,0,-127,"$GNGGA,153825.000,4900.5310,N,00825.4233,E,1,9,1.09,140.5,M,47.9,M,,*42",,,,
2022-03-11T16:38:51+01:00,77,24.94,14.74,1002.9,40.3,42.4,0,-127,"$GNGGA,153846.000,4900.5579,N,00825.4427,E,1,9,1.09,136.8,M,47.9,M,,*41",,,,
2022-03-11T16:39:12+01:00,78,23.64,16.17,1002.89,42.6,44.8,0,-127,"$GNGGA,153907.000,4900.5527,N,00825.5076,E,1,7,1.22,144.1,M,47.9,M,,*44",,,,
2022-03-11T16:39:32+01:00,79,22.33,17.37,1002.88,44.3,46.6,0,-127,"$GNGGA,153927.000,4900.5416,N,00825.5847,E,1,10,1.11,137.3,M,47.9,M,,*7F",,,,
2022-03-11T16:39:52+01:00,80,21.15,18.41,1002.85,44.4,46.7,0,-127,"$GNGGA,153947.000,4900.5231,N,00825.6571,E,1,7,1.34,120.7,M,47.9,M,,*42",,,,
2022-03-11T17:00:05+01:00,81,19.42,19.54,1002.92,60.5,164.2,0,-127,"$GNGGA,155959.000,4900.6756,N,00825.7754,E,1,5,1.75,128.4,M,47.9,M,,*44",,,,
2022-03-11T17:01:05+01:00,82,18.67,20.53,1002.75,40.5,42.6,0,-127,"$GNGGA,160100.000,4900.6839,N,00825.5884,E,1,6,2.60,152.4,M,47.9,M,,*49",,,,
2022-03-11T17:01:54+01:00,83,18.96,20.51,1002.78,39,41,0,-127,"$GNGGA,160149.000,4900.7251,N,00825.5331,E,1,5,1.77,163.2,M,47.9,M,,*46",,,,
2022-03-11T17:02:17+01:00,84,18.65,20.58,1002.81,39.6,41.6,0,-127,"$GNGGA,160210.000,4900.7583,N,00825.4758,E,1,6,1.26,130.3,M,47.9,M,,*4B",,,,
2022-03-11T18:49:11+01:00,85,22.83,20.72,1003.21,41.8,43.9,0,-127,"$GNGGA,174906.093,4900.7202,N,00825.5376,E,0,0,,159.5,M,47.9,M,,*5A",,,,
2022-03-11T21:30:50+01:00,86,16.42,22.2,1003.95,38.9,40.9,0,-127,"$GNGGA,203046.096,4900.7202,N,00825.5376,E,0,0,,159.5,M,47.9,M,,*51",,,,
2022-03-11T21:31:11+01:00,87,16.2,22.05,1003.98,38.7,40.7,0,-127,"$GNGGA,203106.090,4900.7456,N,00825.5405,E,0,1,,159.5,M,47.9,M,,*57",,,,
2022-03-11T21:31:30+01:00,88,16.07,21.99,1003.99,39.6,41.6,0,-127,"$GNGGA,203126.090,9000.0000,N,00000.0000,E,0,0,,137.0,M,13.0,M,,*5E",,,,
2022-03-11T21:31:52+01:00,89,15.96,21.99,1004,39.3,41.3,0,-127,"$GNGGA,203147.096,9000.0000,N,00000.0000,E,0,0,,137.0,M,13.0,M,,*5F",,,,
2022-03-11T21:32:12+01:00,90,15.87,21.85,1004.01,39.9,41.9,0,-127,"$GNGGA,203207.282,9000.0000,N,00000.0000,E,0,0,,137.0,M,13.0,M,,*5F",,,,
2022-03-11T21:32:32+01:00,91,15.83,21.91,1004.01,38.5,40.5,0,-127,"$GNGGA,203227.304,9000.0000,N,00000.0000,E,0,0,,137.0,M,13.0,M,,*52",,,,
2022-03-11T21:32:52+01:00,92,15.86,21.76,1004.01,37.8,39.7,0,-127,"$GNGGA,203248.090,9000.0000,N,00000.0000,E,0,0,,137.0,M,13.0,M,,*55",,,,
2022-03-11T21:33:13+01:00,93,15.88,21.43,1004.02,36.5,38.4,0,-127,"$GNGGA,203308.000,4900.6944,N,00825.3742,E,1,5,1.68,109.5,M,47.9,M,,*4A",,,,
2022-03-11T21:33:33+01:00,94,15.93,21.51,1004.03,36.4,38.3,0,-127,"$GNGGA,203328.000,4900.6812,N,00825.3622,E,1,5,1.68,107.0,M,47.9,M,,*46",,,,
2022-03-11T21:33:54+01:00,95,15.98,21.68,1004.05,36.1,38,0,-127,"$GNGGA,203349.000,4900.6703,N,00825.3573,E,1,6,1.52,115.7,M,47.9,M,,*47",,,,
2022-03-11T21:34:14+01:00,96,16.04,21.55,1004.06,36.3,38.2,0,-127,"$GNGGA,203409.000,4900.6659,N,00825.3347,E,1,6,1.52,122.1,M,47.9,M,,*49",,,,
2022-03-11T21:34:36+01:00,97,16.12,21.85,1004.08,37.3,39.2,0,-127,"$GNGGA,203431.000,4900.6604,N,00825.3193,E,1,7,1.24,129.6,M,47.9,M,,*4D",,,,
2022-03-11T21:34:57+01:00,98,16.25,21.85,1004.07,37.1,39,0,-127,"$GNGGA,203452.000,4900.6526,N,00825.3028,E,1,7,1.24,128.1,M,47.9,M,,*4C",,,,
2022-03-11T21:35:17+01:00,99,16.33,21.44,1004.07,37.8,39.7,0,-127,"$GNGGA,203512.000,4900.6465,N,00825.2858,E,1,7,1.23,127.8,M,47.9,M,,*40",,,,
2022-03-11T21:35:38+01:00,100,16.38,21.34,1004.06,36.3,38.2,0,-127,"$GNGGA,203533.000,4900.6381,N,00825.2696,E,1,7,1.23,126.8,M,47.9,M,,*43",,,,
2022-03-11T21:35:58+01:00,101,16.43,21.37,1004.05,36.7,38.6,0,-127,"$GNGGA,203553.000,4900.6293,N,00825.2564,E,1,7,1.23,122.3,M,47.9,M,,*46",,,,
2022-03-11T21:36:18+01:00,102,16.42,21.16,1004.07,36,37.9,0,-127,"$GNGGA,203613.000,4900.6239,N,00825.2303,E,1,6,1.53,121.3,M,47.9,M,,*43",,,,
2022-03-11T21:36:39+01:00,103,16.42,21.18,1004.06,36.4,38.3,0,-127,"$GNGGA,203634.000,4900.6153,N,00825.2200,E,1,6,1.88,125.3,M,47.9,M,,*49",,,,
2022-03-11T21:36:59+01:00,104,16.47,21.52,1004.06,35.9,37.7,0,-127,"$GNGGA,203654.000,4900.6086,N,00825.2055,E,1,6,1.88,127.9,M,47.9,M,,*4C",,,,
2022-03-11T21:37:19+01:00,105,16.51,21.35,1004.06,35.5,37.3,0,-127,"$GNGGA,203714.000,4900.6039,N,00825.1884,E,1,6,1.88,128.2,M,47.9,M,,*4E",,,,
2022-03-11T21:37:40+01:00,106,16.54,21.33,1004.06,37.4,39.3,0,-127,"$GNGGA,203735.000,4900.5990,N,00825.1698,E,1,8,1.13,129.4,M,47.9,M,,*4C",,,,
2022-03-11T21:38:00+01:00,107,16.53,21.05,1004.05,38,40,0,-127,"$GNGGA,203755.000,4900.5954,N,00825.1481,E,1,8,1.26,129.2,M,47.9,M,,*48",,,,
2022-03-11T21:38:21+01:00,108,16.56,21.34,1004.05,37.7,39.6,0,-127,"$GNGGA,203816.000,4900.5894,N,00825.1293,E,1,8,1.13,129.0,M,47.9,M,,*4C",,,,
2022-03-11T21:38:42+01:00,109,16.6,21.39,1004.04,35.5,37.3,0,-127,"$GNGGA,203837.000,4900.5886,N,00825.1061,E,1,9,1.01,117.9,M,47.9,M,,*45",,,,
2022-03-11T21:39:02+01:00,110,16.64,21.35,1004.04,34.1,35.9,0,-127,"$GNGGA,203857.000,4900.5910,N,00825.0871,E,1,10,0.87,115.3,M,47.9,M,,*7A",,,,
2022-03-11T21:39:22+01:00,111,16.64,21.11,1004.03,33.9,35.6,0,-127,"$GNGGA,203917.000,4900.5936,N,00825.0810,E,1,11,0.86,114.1,M,47.9,M,,*7F",,,,
2022-03-11T21:39:43+01:00,112,16.63,20.88,1004,34.7,36.5,0,-127,"$GNGGA,203938.000,4900.5939,N,00825.0807,E,1,12,0.81,114.6,M,47.9,M,,*78",,,,
2022-03-11T21:40:04+01:00,113,16.66,21.22,1004,34.3,36.1,0,-127,"$GNGGA,203959.000,4900.5952,N,00825.0710,E,1,13,0.80,114.7,M,47.9,M,,*7A",,,,
2022-03-11T21:40:25+01:00,114,16.67,21.16,1004.01,34.2,36,0,-127,"$GNGGA,204020.000,4900.5942,N,00825.0537,E,1,12,0.85,115.4,M,47.9,M,,*7A",,,,
2022-03-11T21:40:46+01:00,115,16.56,20.75,1004.02,35.2,37,0,-127,"$GNGGA,204041.000,4900.5789,N,00825.0441,E,1,11,0.88,117.9,M,47.9,M,,*75",,,,
2022-03-11T21:41:06+01:00,116,16.38,20.91,1004.02,35.6,37.4,0,-127,"$GNGGA,204101.000,4900.5670,N,00825.0337,E,1,12,0.83,116.7,M,47.9,M,,*76",,,,
2022-03-11T21:41:27+01:00,117,16.31,21.41,1004.03,35.1,36.9,0,-127,"$GNGGA,204122.000,4900.5559,N,00825.0289,E,2,13,0.80,120.4,M,47.9,M,,*7C",,,,
2022-03-11T21:41:48+01:00,118,16.31,21.49,1004.02,35.5,37.3,0,-127,"$GNGGA,204143.000,4900.5521,N,00825.0181,E,2,13,0.80,120.0,M,47.9,M,,*7B",,,,
2022-03-11T21:42:09+01:00,119,16.31,21.2,1004.01,35.7,37.5,0,-127,"$GNGGA,204204.000,4900.5440,N,00825.0092,E,2,12,0.85,124.6,M,47.9,M,,*78",,,,
2022-03-11T21:42:29+01:00,120,16.3,21.07,1003.99,35.3,37.1,0,-127,"$GNGGA,204224.000,4900.5372,N,00824.9947,E,2,12,0.85,124.3,M,47.9,M,,*70",,,,
2022-03-11T21:42:50+01:00,121,16.31,21.1,1003.98,36,37.9,0,-127,"$GNGGA,204245.000,4900.5403,N,00824.9735,E,2,11,0.88,118.3,M,47.9,M,,*7C",,,,
2022-03-11T21:43:11+01:00,122,16.33,21,1003.99,36.3,38.2,0,-127,"$GNGGA,204306.000,4900.5428,N,00824.9630,E,2,11,0.89,118.0,M,47.9,M,,*75",,,,
2022-03-11T21:43:32+01:00,123,16.3,20.89,1003.99,36.8,38.7,0,-127,"$GNGGA,204327.000,4900.5497,N,00824.9446,E,2,12,0.85,120.8,M,47.9,M,,*7D",,,,
2022-03-11T21:43:53+01:00,124,16.31,20.9,1004,36.5,38.4,0,-127,"$GNGGA,204348.000,4900.5653,N,00824.9218,E,2,12,0.85,141.2,M,47.9,M,,*7E",,,,
2022-03-11T21:44:14+01:00,125,16.37,21.05,1003.99,35.6,37.4,0,-127,"$GNGGA,204409.000,4900.5622,N,00824.9052,E,2,11,0.88,142.2,M,47.9,M,,*7B",,,,
2022-03-11T21:44:35+01:00,126,16.47,20.87,1004,35,36.8,0,-127,"$GNGGA,204430.000,4900.5554,N,00824.8836,E,2,12,0.85,132.4,M,47.9,M,,*77",,,,
2022-03-11T21:44:56+01:00,127,16.58,20.71,1004,35.4,37.2,0,-127,"$GNGGA,204451.000,4900.5633,N,00824.8640,E,2,12,0.85,135.3,M,47.9,M,,*7D",,,,
2022-03-11T21:45:17+01:00,128,16.7,20.84,1004.01,34.8,36.6,0,-127,"$GNGGA,204512.000,4900.5673,N,00824.8449,E,2,11,0.86,134.8,M,47.9,M,,*7E",,,,
2022-03-11T21:45:38+01:00,129,16.8,20.73,1004,35,36.8,0,-127,"$GNGGA,204533.000,4900.5674,N,00824.8262,E,2,12,0.85,138.6,M,47.9,M,,*77",,,,
2022-03-11T21:45:59+01:00,130,16.81,20.43,1004.01,34.6,36.4,0,-127,"$GNGGA,204554.000,4900.5621,N,00824.8103,E,2,12,0.85,132.1,M,47.9,M,,*7F",,,,
2022-03-11T21:46:20+01:00,131,16.74,20.44,1004,35.2,37,0,-127,"$GNGGA,204615.000,4900.5572,N,00824.7851,E,2,12,0.85,140.1,M,47.9,M,,*78",,,,
2022-03-11T21:46:41+01:00,132,16.73,20.62,1004.01,35.7,37.5,0,-127,"$GNGGA,204636.000,4900.5601,N,00824.7634,E,2,12,0.85,140.6,M,47.9,M,,*74",,,,
2022-03-11T21:47:03+01:00,133,16.73,20.6,1004,35.3,37.1,0,-127,"$GNGGA,204657.000,4900.5591,N,00824.7431,E,2,12,0.85,135.4,M,47.9,M,,*7E",,,,
2022-03-11T21:47:37+01:00,134,17.96,20.67,1003.98,43.8,56.4,0,-127,"$GNGGA,204732.000,4900.5651,N,00824.7075,E,1,9,0.91,141.0,M,47.9,M,,*4C",,,,
2022-03-11T21:54:15+01:00,135,17.01,20.87,1004.02,36.4,38.3,0,-127,"$GNGGA,205410.000,4900.5763,N,00824.3890,E,1,9,0.91,142.0,M,47.9,M,,*4A",,,,
2022-03-11T21:54:35+01:00,136,16.8,20.91,1004.04,35.6,37.4,0,-127,"$GNGGA,205430.000,4900.5785,N,00824.3720,E,1,9,0.91,135.0,M,47.9,M,,*44",,,,
2022-03-11T21:54:56+01:00,137,16.58,20.91,1004.05,35.7,37.5,0,-127,"$GNGGA,205451.000,4900.5823,N,00824.3547,E,1,9,0.91,129.7,M,47.9,M,,*49",,,,
2022-03-11T21:55:16+01:00,138,16.36,21.05,1004.06,35.1,36.9,0,-127,"$GNGGA,205511.000,4900.5799,N,00824.3349,E,1,9,0.91,126.2,M,47.9,M,,*40",,,,
2022-03-11T21:55:36+01:00,139,16.23,21.15,1004.06,36.5,38.4,0,-127,"$GNGGA,205531.000,4900.5750,N,00824.3170,E,1,9,0.91,124.6,M,47.9,M,,*49",,,,
2022-03-11T21:55:57+01:00,140,16.17,21.14,1004.08,36.4,38.3,0,-127,"$GNGGA,205552.000,4900.5780,N,00824.3017,E,1,9,0.91,129.7,M,47.9,M,,*4D",,,,
2022-03-11T21:56:17+01:00,141,16.18,21.14,1004.09,36.2,38.1,0,-127,"$GNGGA,205612.000,4900.5819,N,00824.2830,E,1,9,0.91,137.0,M,47.9,M,,*41",,,,
2022-03-11T21:56:38+01:00,142,16.23,21.05,1004.1,35.5,37.3,0,-127,"$GNGGA,205633.000,4900.5819,N,00824.2607,E,1,9,0.91,135.6,M,47.9,M,,*4C",,,,
2022-03-11T21:56:59+01:00,143,16.28,20.83,1004.1,37.8,39.7,0,-127,"$GNGGA,205654.000,4900.5692,N,00824.2475,E,1,9,0.91,134.5,M,47.9,M,,*45",,,,
