Initializing A9G...
?‘ˆBŒ‰J„
™ˆ¹f1ßå!Ÿ±)±±)€#¦¬¡¡Sÿ
SmartAQnet Scooter Sensors!
Initializing A9G...
Resp:

+CREG: 2

^STN: 37
+CIEV: "Complete the Charge",100%

+CTZV:22/01/11,17:20:41,+01

+CREG: 1

A9/A9G
V02.02.20190915R
Ai_Thinker_Co._Ltd.
READY
----
Init Ready Done!
Resp:

----
Resp:
AT

OK
----
key : Error_No_0 value: 29

Reading NVS done...
Resp:
AT+CPIN?

+CPIN:READY
----
Msg: SIM PIN is ready!
Resp:
AT+CREG=1

OK
----
Msg: Netwoek Set!
Resp:
AT+CREG?

+CREG: 1
----
Msg: Network Registered!
Resp:
AT+GPS=1

OK
----
Msg: GPS Set!
Resp:
AT+CGATT=1

+CGATT:1

OK
----
Msg: PS Attached!
Resp:
AT+CGDCONT?

OK
----
Msg: Context Set!
Resp:
AT+CGDCONT=1,"IP","pinternet.interkom.de"

OK
----
Msg: Context Changed!
Resp:
AT+CGACT=1,1

OK
----
Msg: Context Selected!
Resp:
AT+CGACT?

+CGACT: 1, 1
----
Msg: Context is Correct!
Resp:
AT+CIPSTATUS
+CIPSTATUS:
STATE:IP INITIAL
----
Msg: Status INITIAL!
Resp:
AT+CIPSTART="TCP","api.thingspeak.com",80
CONNECT OK
----
Msg: Connected!
Resp:
AT+GPSRD=5

OK
----
Msg: GPS Read Set!
Msg: Getting data from GPS using AT Cmd
Resp:
$GNGGA,172058.299,9000.0000,N,00000.0000,E,0,0,,137.0,M,13.0,M,,*58
$GPGSA,A,1,,,,,,,,,,,,,,,*1E
$BDGSA,A,1,,,,,,,,,,,,,,,*0F
$GPGSV,2,1,05,02,,,36,11,,,36,20,,,32,12,,,28*77
$GPGSV,2,2,05,25,,,30*78
$BDGSV,1,1,01,13,,,31*69
$GNRMC,172058.299,V,9000.0000,N,00000.0000,E,0.000,0.00,040122,,,N*5F
$GNVTG,0.00,T,,M,0.000,N,0.000,K,N*2C
---
Msg: Getting data from GPS using AT done
Resp:
AT+GPSRD=0

OK
----
Msg: GPS Read Off!
Msg: Getting data from Sensors
Resp:
AT+CIPSEND

>
----
Msg: Send Started!
Resp:
GET https://api.thingspeak.com/update?api_key=AYKVFH212TKGNW2B&field1=25.94&field2=34.66&field3=1019.45&field4=142.50&field5=149.70&field6=0&field7=0&field8=$GNGGA,172058.299,9000.0000,N,00000.0000,E,0,0,,137.0,M,13.0,M,,*58

----
Resp:

OK



+CIPRCV,1:1
CLOSED
----
Msg: Send Completed!
Resp:
AT+CIPSTATUS
+CIPSTATUS:
STATE:CLOSED
----
Resp:
AT+CIPSTART="TCP","api.thingspeak.com",80
CONNECT OK
----
Msg: Connected!
Resp:
AT+GPSRD=5

OK
----
Msg: GPS Read Set!
Msg: Getting data from GPS using AT Cmd
Resp:
$GNGGA,172119.000,4900.5259,N,00825.4698,E,1,5,3.41,141.9,M,47.9,M,,*41
$GPGSA,A,3,02,20,12,25,,,,,,,,,3.55,3.41,0.98*02
$BDGSA,A,3,13,,,,,,,,,,,,3.55,3.41,0.98*15
$GPGSV,3,1,11,29,78,211,17,25,71,085,32,31,51,294,20,02,34,057,35*7C
$GPGSV,3,2,11,12,33,094,28,33,29,210,,26,15,287,15,32,15,237,*7E
$GPGSV,3,3,11,18,08,179,,20,07,083,33,06,02,025,*4A
$BDGSV,1,1,02,13,36,070,33,08,,,29*59
$GNRMC,172119.000,A,4900.5259,N,00825.4698,E,0.444,55.48,110122,,,A*7E
$GNVTG,55.48,T,,M,0.444,N,0.822,K,A*13
---
Msg: Getting data from GPS using AT done
Resp:
AT+GPSRD=0

OK
----
Msg: GPS Read Off!
Msg: Getting data from Sensors
Resp:
AT+CIPSEND

>
----
Msg: Send Started!
Resp:
GET https://api.thingspeak.com/update?api_key=AYKVFH212TKGNW2B&field1=25.78&field2=34.77&field3=1019.48&field4=149.40&field5=156.90&field6=0&field7=0&field8=$GNGGA,172119.000,4900.5259,N,00825.4698,E,1,5,3.41,141.9,M,47.9,M,,*41

----
Resp:

OK



+CIPRCV,1:2
CLOSED
----
Msg: Send Completed!
Resp:
AT+CIPSTATUS
+CIPSTATUS:
STATE:CLOSED
----
Resp:
AT+CIPSTART="TCP","api.thingspeak.com",80
CONNECT OK
----
Msg: Connected!
Resp:
AT+GPSRD=5

OK
----
Msg: GPS Read Set!
Msg: Getting data from GPS using AT Cmd
Resp:
$GNGGA,172139.000,4900.5257,N,00825.4699,E,1,5,3.41,141.7,M,47.9,M,,*42
$GPGSA,A,3,02,20,12,25,,,,,,,,,3.54,3.41,0.98*03
$BDGSA,A,3,13,,,,,,,,,,,,3.54,3.41,0.98*14
$GPGSV,3,1,11,29,78,211,18,25,70,085,32,31,51,294,13,02,34,057,37*70
$GPGSV,3,2,11,12,33,094,30,26,15,287,19,32,14,237,,44,12,116,*77
$GPGSV,3,3,11,18,08,179,,20,07,083,34,06,02,025,*4D
$BDGSV,1,1,02,13,36,070,34,08,,,28*5F
$GNRMC,172139.000,A,4900.5257,N,00825.4699,E,0.918,84.57,110122,,,A*75
$GNVTG,84.57,T,,M,0.918,N,1.702,K,A*19
---
Msg: Getting data from GPS using AT done
Resp:
AT+GPSRD=0

OK
----
Msg: GPS Read Off!
Msg: Getting data from Sensors
Resp:
AT+CIPSEND

>
----
Msg: Send Started!
Resp:
GET https://api.thingspeak.com/update?api_key=AYKVFH212TKGNW2B&field1=25.71&field2=34.10&field3=1019.47&field4=145.50&field5=152.80&field6=0&field7=0&field8=$GNGGA,172139.000,4900.5257,N,00825.4699,E,1,5,3.41,141.7,M,47.9,M,,*42

----
Resp:

OK



+CIPRCV,1:3
CLOSED
----
Msg: Send Completed!
Resp:
AT+CIPSTATUS
+CIPSTATUS:
STATE:CLOSED
----
Resp:
AT+CIPSTART="TCP","api.thingspeak.com",80
CONNECT OK
----
Msg: Connected!
Resp:
AT+GPSRD=5

OK
----
Msg: GPS Read Set!
Msg: Getting data from GPS using AT Cmd
Resp:
$GNGGA,172159.000,4900.5263,N,00825.4772,E,1,6,3.50,147.1,M,47.9,M,,*44
$GPGSA,A,3,02,20,12,25,,,,,,,,,3.63,3.50,0.99*06
$BDGSA,A,3,08,13,,,,,,,,,,,3.63,3.50,0.99*19
$GPGSV,3,1,11,29,78,211,18,25,70,085,34,31,51,294,22,02,34,057,38*7B
$GPGSV,3,2,11,12,33,094,28,39,31,158,,26,15,287,18,32,14,237,*7E
$GPGSV,3,3,11,18,08,179,,20,07,083,34,06,02,025,*4D
$BDGSV,1,1,02,13,36,070,35,08,34,058,29*65
$GNRMC,172159.000,A,4900.5263,N,00825.4772,E,1.011,103.04,110122,,,A*49
$GNVTG,103.04,T,,M,1.011,N,1.874,K,A*2E
---
Msg: Getting data from GPS using AT done
Resp:
AT+GPSRD=0

OK
----
Msg: GPS Read Off!
Msg: Getting data from Sensors
Resp:
AT+CIPSEND

>
----
Msg: Send Started!
Resp:
GET https://api.thingspeak.com/update?api_key=AYKVFH212TKGNW2B&field1=25.69&field2=33.58&field3=1019.48&field4=144.00&field5=151.30&field6=0&field7=0&field8=$GNGGA,172159.000,4900.5263,N,00825.4772,E,1,6,3.50,147.1,M,47.9,M,,*44

----
Resp:

OK



+CIPRCV,1:4
CLOSED
----
Msg: Send Completed!
Resp:
AT+CIPSTATUS
+CIPSTATUS:
STATE:CLOSED
----
Resp:
AT+CIPSTART="TCP","api.thingspeak.com",80
CONNECT OK
----
Msg: Connected!
Resp:
AT+GPSRD=5

OK
----
Msg: GPS Read Set!
Msg: Getting data from GPS using AT Cmd
Resp:
$GNGGA,172220.000,4900.5245,N,00825.4814,E,1,6,3.14,152.7,M,47.9,M,,*40
$GPGSA,A,3,02,20,12,25,,,,,,,,,3.29,3.14,0.98*09
$BDGSA,A,3,08,13,,,,,,,,,,,3.29,3.14,0.98*16
$GPGSV,3,1,11,29,78,211,16,25,70,085,34,31,51,294,13,02,34,057,37*78
$GPGSV,3,2,11,12,33,094,31,26,15,287,19,32,14,237,,40,13,117,*72
$GPGSV,3,3,11,18,08,179,,20,07,083,34,06,02,025,*4D
$BDGSV,1,1,02,13,36,070,35,08,34,058,29*65
$GNRMC,172220.000,A,4900.5245,N,00825.4814,E,0.608,344.36,110122,,,A*40
$GNVTG,344.36,T,,M,0.608,N,1.127,K,A*2E
---
Msg: Getting data from GPS using AT done
Resp:
AT+GPSRD=0

OK
----
Msg: GPS Read Off!
Msg: Getting data from Sensors
Resp:
AT+CIPSEND

>
----
Msg: Send Started!
Resp:
GET https://api.thingspeak.com/update?api_key=AYKVFH212TKGNW2B&field1=25.72&field2=33.42&field3=1019.48&field4=137.30&field5=144.20&field6=0&field7=0&field8=$GNGGA,172220.000,4900.5245,N,00825.4814,E,1,6,3.14,152.7,M,47.9,M,,*40

----
Resp:

OK

+CIPRCV,1:5


CLOSED
----
Msg: Send Completed!
Resp:
AT+CIPSTATUS
+CIPSTATUS:
STATE:CLOSED
----
Resp:
AT+CIPSTART="TCP","api.thingspeak.com",80
CONNECT OK
----
Msg: Connected!
Resp:
AT+GPSRD=5

OK
----
Msg: GPS Read Set!
Msg: Getting data from GPS using AT Cmd
Resp:
$GNGGA,172240.000,4900.5263,N,00825.4793,E,1,6,3.13,154.5,M,47.9,M,,*41
$GPGSA,A,3,02,20,12,25,,,,,,,,,3.28,3.13,0.98*0F
$BDGSA,A,3,08,13,,,,,,,,,,,3.28,3.13,0.98*10
$GPGSV,3,1,11,29,78,211,16,25,70,085,30,31,51,294,20,02,34,056,35*7F
$GPGSV,3,2,11,12,32,094,27,26,15,287,17,32,14,237,,18,08,179,*75
$GPGSV,3,3,11,20,07,083,34,06,02,025,,34,,,*74
$BDGSV,1,1,02,13,36,070,33,08,34,058,27*6D
$GNRMC,172240.000,A,4900.5263,N,00825.4793,E,1.485,7.10,110122,,,A*44
$GNVTG,7.10,T,,M,1.485,N,2.752,K,A*2F
---
Msg: Getting data from GPS using AT done
Resp:
AT+GPSRD=0

OK
----
Msg: GPS Read Off!
Msg: Getting data from Sensors
Resp:
AT+CIPSEND

>
----
Msg: Send Started!
Resp:
GET https://api.thingspeak.com/update?api_key=AYKVFH212TKGNW2B&field1=25.77&field2=33.28&field3=1019.48&field4=140.00&field5=147.10&field6=0&field7=0&field8=$GNGGA,172240.000,4900.5263,N,00825.4793,E,1,6,3.13,154.5,M,47.9,M,,*41

----
Resp:

OK



+CIPRCV,1:6
CLOSED
----
Msg: Send Completed!
Resp:
AT+CIPSTATUS
+CIPSTATUS:
STATE:CLOSED
----
Resp:
AT+CIPSTART="TCP","api.thingspeak.com",80
CONNECT OK
----
Msg: Connected!
Resp:
AT+GPSRD=5

OK
----
Msg: GPS Read Set!
Msg: Getting data from GPS using AT Cmd
Resp:
$GNGGA,172300.000,4900.5249,N,00825.4853,E,1,6,3.13,159.2,M,47.9,M,,*45
$GPGSA,A,3,02,20,12,25,,,,,,,,,3.28,3.13,0.98*0F
$BDGSA,A,3,08,13,,,,,,,,,,,3.28,3.13,0.98*10
$GPGSV,3,1,11,29,79,211,17,25,70,086,32,31,51,293,22,02,34,056,37*79
$GPGSV,3,2,11,12,32,094,27,26,16,287,20,32,14,236,13,20,08,082,36*7A
$GPGSV,3,3,11,18,08,179,,06,02,025,,38,,,*7F
$BDGSV,1,1,02,13,36,070,35,08,34,058,28*64
$GNRMC,172300.000,A,4900.5249,N,00825.4853,E,1.628,50.61,110122,,,A*7B
$GNVTG,50.61,T,,M,1.628,N,3.016,K,A*18
---
Msg: Getting data from GPS using AT done
Resp:
AT+GPSRD=0

OK
----
Msg: GPS Read Off!
Msg: Getting data from Sensors
Resp:
AT+CIPSEND

>
----
Msg: Send Started!
Resp:
GET https://api.thingspeak.com/update?api_key=AYKVFH212TKGNW2B&field1=25.84&field2=33.07&field3=1019.49&field4=136.70&field5=143.60&field6=0&field7=0&field8=$GNGGA,172300.000,4900.5249,N,00825.4853,E,1,6,3.13,159.2,M,47.9,M,,*45

----
Resp:

OK



+CIPRCV,1:7
CLOSED
----
Msg: Send Completed!
Resp:
AT+CIPSTATUS
+CIPSTATUS:
STATE:CLOSED
----
Resp:
AT+CIPSTART="TCP","api.thingspeak.com",80
CONNECT OK
----
Msg: Connected!
Resp:
AT+GPSRD=5

OK
----
Msg: GPS Read Set!
Msg: Getting data from GPS using AT Cmd
Resp:
$GNGGA,172321.000,4900.5266,N,00825.4802,E,1,6,3.13,160.1,M,47.9,M,,*46
$GPGSA,A,3,02,20,12,25,,,,,,,,,3.28,3.13,0.98*0F
$BDGSA,A,3,08,13,,,,,,,,,,,3.28,3.13,0.98*10
$GPGSV,3,1,11,29,79,211,13,25,70,086,33,31,51,293,20,02,34,056,36*7F
$GPGSV,3,2,11,12,32,094,31,26,16,287,17,32,14,236,15,20,08,082,35*7C
$GPGSV,3,3,11,18,08,179,,06,02,025,,45,,,*75
$BDGSV,1,1,02,13,36,070,34,08,34,057,27*65
$GNRMC,172321.000,A,4900.5266,N,00825.4802,E,0.116,232.66,110122,,,A*4B
$GNVTG,232.66,T,,M,0.116,N,0.214,K,A*21
---
Msg: Getting data from GPS using AT done
Resp:
AT+GPSRD=0

OK
----
Msg: GPS Read Off!
Msg: Getting data from Sensors
Resp:
AT+CIPSEND

>
----
Msg: Send Started!
Resp:
GET https://api.thingspeak.com/update?api_key=AYKVFH212TKGNW2B&field1=25.93&field2=33.03&field3=1019.48&field4=130.70&field5=137.30&field6=0&field7=0&field8=$GNGGA,172321.000,4900.5266,N,00825.4802,E,1,6,3.13,160.1,M,47.9,M,,*46

----
Resp:

OK



+CIPRCV,1:8
CLOSED
----
Msg: Send Completed!
Resp:
AT+CIPSTATUS
+CIPSTATUS:
STATE:CLOSED
----
Resp:
AT+CIPSTART="TCP","api.thingspeak.com",80
CONNECT OK
----
Msg: Connected!
Resp:
AT+GPSRD=5

OK
----
Msg: GPS Read Set!
Msg: Getting data from GPS using AT Cmd
Resp:
$GNGGA,172341.000,4900.5304,N,00825.4864,E,1,6,3.13,161.1,M,47.9,M,,*44
$GPGSA,A,3,02,20,12,25,,,,,,,,,3.28,3.13,0.98*0F
$BDGSA,A,3,08,13,,,,,,,,,,,3.28,3.13,0.98*10
$GPGSV,3,1,11,29,79,211,15,25,70,086,35,31,51,293,,02,34,056,36*7D
$GPGSV,3,2,11,12,32,094,30,37,32,162,,26,16,287,20,32,14,236,16*7C
$GPGSV,3,3,11,20,08,082,37,18,08,179,,06,02,025,*40
$BDGSV,1,1,02,13,36,070,33,08,34,057,28*6D
$GNRMC,172341.000,A,4900.5304,N,00825.4864,E,1.238,84.15,110122,,,A*7D
$GNVTG,84.15,T,,M,1.238,N,2.295,K,A*1F
---
Msg: Getting data from GPS using AT done
Resp:
AT+GPSRD=0

OK
----
Msg: GPS Read Off!
Msg: Getting data from Sensors
Resp:
AT+CIPSEND

>
----
Msg: Send Started!
Resp:
GET https://api.thingspeak.com/update?api_key=AYKVFH212TKGNW2B&field1=26.02&field2=32.81&field3=1019.47&field4=128.30&field5=134.80&field6=0&field7=0&field8=$GNGGA,172341.000,4900.5304,N,00825.4864,E,1,6,3.13,161.1,M,47.9,M,,*44

----
Resp:

OK



+CIPRCV,1:9
CLOSED
----
Msg: Send Completed!
Resp:
AT+CIPSTATUS
+CIPSTATUS:
STATE:CLOSED
----
Resp:
AT+CIPSTART="TCP","api.thingspeak.com",80
CONNECT OK
----
Msg: Connected!
Resp:
AT+GPSRD=5

OK
----
Msg: GPS Read Set!
Msg: Getting data from GPS using AT Cmd
Resp:
$GNGGA,172401.000,4900.5305,N,00825.4799,E,1,6,3.13,155.1,M,47.9,M,,*4C
$GPGSA,A,3,02,20,12,25,,,,,,,,,3.28,3.13,0.98*0F
$BDGSA,A,3,08,13,,,,,,,,,,,3.28,3.13,0.98*10
$GPGSV,3,1,11,29,79,211,14,25,70,086,35,31,51,293,16,02,34,056,37*7A
$GPGSV,3,2,11,12,32,095,33,33,29,210,,26,16,287,17,32,14,236,14*70
$GPGSV,3,3,11,20,08,082,37,18,08,179,,06,01,025,*43
$BDGSV,1,1,02,13,36,070,33,08,34,057,28*6D
$GNRMC,172401.000,A,4900.5305,N,00825.4799,E,1.597,63.36,110122,,,A*78
$GNVTG,63.36,T,,M,1.597,N,2.958,K,A*1F
---
Msg: Getting data from GPS using AT done
Resp:
AT+GPSRD=0

OK
----
Msg: GPS Read Off!
Msg: Getting data from Sensors
Resp:
AT+CIPSEND

>
----
Msg: Send Started!
Resp:
GET https://api.thingspeak.com/update?api_key=AYKVFH212TKGNW2B&field1=26.11&field2=32.21&field3=1019.47&field4=127.50&field5=133.90&field6=0&field7=0&field8=$GNGGA,172401.000,4900.5305,N,00825.4799,E,1,6,3.13,155.1,M,47.9,M,,*4C

----
Resp:

OK



+CIPRCV,2:10
CLOSED
----
Msg: Send Completed!
Resp:
AT+CIPSTATUS
+CIPSTATUS:
STATE:CLOSED
----
Resp:
AT+CIPSTART="TCP","api.thingspeak.com",80
CONNECT OK
----
Msg: Connected!
Resp:
AT+GPSRD=5

OK
----
Msg: GPS Read Set!
Msg: Getting data from GPS using AT Cmd
Resp:
$GNGGA,172422.000,4900.5306,N,00825.4765,E,1,6,3.13,151.8,M,47.9,M,,*40
$GPGSA,A,3,02,20,12,25,,,,,,,,,3.28,3.13,0.98*0F
$BDGSA,A,3,08,13,,,,,,,,,,,3.28,3.13,0.98*10
$GPGSV,3,1,11,29,80,211,13,25,69,087,35,31,52,293,18,02,34,056,36*7E
$GPGSV,3,2,11,12,32,095,30,26,16,287,23,32,13,236,16,44,12,116,*7C
$GPGSV,3,3,11,18,09,179,15,20,08,082,35,06,01,025,*44
$BDGSV,1,1,02,13,36,070,34,08,34,057,28*6A
$GNRMC,172422.000,A,4900.5306,N,00825.4765,E,1.407,153.67,110122,,,A*47
$GNVTG,153.67,T,,M,1.407,N,2.607,K,A*24
---
Msg: Getting data from GPS using AT done
Resp:
AT+GPSRD=0

OK
----
Msg: GPS Read Off!
Msg: Getting data from Sensors
Resp:
AT+CIPSEND

>
----
Msg: Send Started!
Resp:
GET https://api.thingspeak.com/update?api_key=AYKVFH212TKGNW2B&field1=26.21&field2=31.94&field3=1019.48&field4=127.80&field5=134.20&field6=0&field7=0&field8=$GNGGA,172422.000,4900.5306,N,00825.4765,E,1,6,3.13,151.8,M,47.9,M,,*40

----
Resp:

OK

+CIPRCV,2:11


CLOSED
----
Msg: Send Completed!
Resp:
AT+CIPSTATUS
+CIPSTATUS:
STATE:CLOSED
----
Resp:
AT+CIPSTART="TCP","api.thingspeak.com",80
CONNECT OK
----
Msg: Connected!
Resp:
AT+GPSRD=5

OK
----
Msg: GPS Read Set!
Msg: Getting data from GPS using AT Cmd
Resp:
$GNGGA,172442.000,4900.5280,N,00825.4860,E,1,6,3.13,153.9,M,47.9,M,,*40
$GPGSA,A,3,02,20,12,25,,,,,,,,,3.28,3.13,0.98*0F
$BDGSA,A,3,08,13,,,,,,,,,,,3.28,3.13,0.98*10
$GPGSV,3,1,11,29,80,211,15,25,69,087,35,31,52,293,15,02,34,056,36*75
$GPGSV,3,2,11,12,32,095,24,26,16,287,15,32,13,236,23,18,09,179,15*74
$GPGSV,3,3,11,20,08,082,34,06,01,025,,36,,,*7B
$BDGSV,1,1,02,13,36,070,34,08,34,057,29*6B
$GNRMC,172442.000,A,4900.5280,N,00825.4860,E,0.704,32.59,110122,,,A*7E
$GNVTG,32.59,T,,M,0.704,N,1.305,K,A*1A
---
Msg: Getting data from GPS using AT done
Resp:
AT+GPSRD=0

OK
----
Msg: GPS Read Off!
Msg: Getting data from Sensors
Resp:
AT+CIPSEND

>
----
Msg: Send Started!
Resp:
GET https://api.thingspeak.com/update?api_key=AYKVFH212TKGNW2B&field1=26.30&field2=31.38&field3=1019.48&field4=126.40&field5=132.80&field6=0&field7=0&field8=$GNGGA,172442.000,4900.5280,N,00825.4860,E,1,6,3.13,153.9,M,47.9,M,,*40

----
Resp:

OK



+CIPRCV,2:12
CLOSED
----
Msg: Send Completed!
Resp:
AT+CIPSTATUS
+CIPSTATUS:
STATE:CLOSED
----
Resp:
AT+CIPSTART="TCP","api.thingspeak.com",80
CONNECT OK
----
Msg: Connected!
Resp:
AT+GPSRD=5

OK
----
Msg: GPS Read Set!
Msg: Getting data from GPS using AT Cmd
Resp:
$GNGGA,172502.000,4900.5292,N,00825.4910,E,1,6,3.13,157.9,M,47.9,M,,*44
$GPGSA,A,3,02,20,12,25,,,,,,,,,3.28,3.13,0.98*0F
$BDGSA,A,3,08,13,,,,,,,,,,,3.28,3.13,0.98*10
$GPGSV,3,1,11,29,80,211,13,25,69,087,32,31,52,293,19,02,34,056,35*7B
$GPGSV,3,2,11,12,32,095,30,26,16,287,17,32,13,236,16,18,09,179,14*74
$GPGSV,3,3,11,20,08,082,34,06,01,025,,43,,,*79
$BDGSV,1,1,04,13,36,070,34,26,35,304,,08,34,057,29,02,01,101,*6B
$GNRMC,172502.000,A,4900.5292,N,00825.4910,E,0.861,47.38,110122,,,A*77
$GNVTG,47.38,T,,M,0.861,N,1.596,K,A*1F
---
Msg: Getting data from GPS using AT done
Resp:
AT+GPSRD=0

OK
----
Msg: GPS Read Off!
Msg: Getting data from Sensors
Resp:
AT+CIPSEND

>
----
Msg: Send Started!
Resp:
GET https://api.thingspeak.com/update?api_key=AYKVFH212TKGNW2B&field1=26.40&field2=31.41&field3=1019.48&field4=124.90&field5=131.20&field6=0&field7=0&field8=$GNGGA,172502.000,4900.5292,N,00825.4910,E,1,6,3.13,157.9,M,47.9,M,,*44

----
Resp:

OK



+CIPRCV,2:13
CLOSED
----
Msg: Send Completed!
Resp:
AT+CIPSTATUS
+CIPSTATUS:
STATE:CLOSED
----
Resp:
AT+CIPSTART="TCP","api.thingspeak.com",80
CONNECT OK
----
Msg: Connected!
Resp:
AT+GPSRD=5

OK
----
Msg: GPS Read Set!
Msg: Getting data from GPS using AT Cmd
Resp:
$GNGGA,172523.000,4900.5285,N,00825.4830,E,1,6,3.13,153.9,M,47.9,M,,*46
$GPGSA,A,3,02,20,12,25,,,,,,,,,3.28,3.13,0.98*0F
$BDGSA,A,3,08,13,,,,,,,,,,,3.28,3.13,0.98*10
$GPGSV,3,1,11,29,80,211,17,25,69,087,33,31,52,293,18,02,34,055,35*7C
$GPGSV,3,2,11,12,31,095,28,26,16,287,16,32,13,236,14,18,09,179,15*7C
$GPGSV,3,3,11,20,08,082,34,06,01,025,,49,,,*73
$BDGSV,1,1,04,13,36,070,34,26,35,304,19,08,34,057,29,02,01,101,*63
$GNRMC,172523.000,A,4900.5285,N,00825.4830,E,0.467,131.82,110122,,,A*4A
$GNVTG,131.82,T,,M,0.467,N,0.865,K,A*24
---
Msg: Getting data from GPS using AT done
Resp:
AT+GPSRD=0

OK
----
Msg: GPS Read Off!
Msg: Getting data from Sensors
Resp:
AT+CIPSEND

>
----
Msg: Send Started!
Resp:
GET https://api.thingspeak.com/update?api_key=AYKVFH212TKGNW2B&field1=26.50&field2=30.70&field3=1019.48&field4=123.20&field5=129.40&field6=0&field7=0&field8=$GNGGA,172523.000,4900.5285,N,00825.4830,E,1,6,3.13,153.9,M,47.9,M,,*46

----
Resp:

OK



+CIPRCV,2:14
CLOSED
----
Msg: Send Completed!
Resp:
AT+CIPSTATUS
+CIPSTATUS:
STATE:CLOSED
----
Resp:
AT+CIPSTART="TCP","api.thingspeak.com",80
CONNECT OK
----
Msg: Connected!
Resp:
AT+GPSRD=5

OK
----
Msg: GPS Read Set!
Msg: Getting data from GPS using AT Cmd
Resp:
$GNGGA,172543.000,4900.5262,N,00825.4882,E,1,6,3.42,157.0,M,47.9,M,,*49
$GPGSA,A,3,02,20,12,25,,,,,,,,,3.56,3.42,0.99*03
$BDGSA,A,3,08,13,,,,,,,,,,,3.56,3.42,0.99*1C
$GPGSV,3,1,11,29,80,210,12,25,69,088,34,31,52,292,24,02,34,055,35*7E
$GPGSV,3,2,11,12,31,095,29,26,17,288,20,32,13,236,20,18,09,178,15*70
$GPGSV,3,3,11,20,08,081,34,06,01,025,,50,,,*78
$BDGSV,1,1,04,13,36,070,36,26,35,304,17,08,34,057,29,02,01,101,*6F
$GNRMC,172543.000,A,4900.5262,N,00825.4882,E,0.242,108.84,110122,,,A*41
$GNVTG,108.84,T,,M,0.242,N,0.448,K,A*2A
---
Msg: Getting data from GPS using AT done
Resp:
AT+GPSRD=0

OK
----
Msg: GPS Read Off!
Msg: Getting data from Sensors
Resp:
AT+CIPSEND

>
----
Msg: Send Started!
Resp:
GET https://api.thingspeak.com/update?api_key=AYKVFH212TKGNW2B&field1=26.59&field2=30.29&field3=1019.48&field4=124.90&field5=131.20&field6=0&field7=0&field8=$GNGGA,172543.000,4900.5262,N,00825.4882,E,1,6,3.42,157.0,M,47.9,M,,*49

----
Resp:

OK



+CIPRCV,2:15
CLOSED
----
Msg: Send Completed!
Resp:
AT+CIPSTATUS
+CIPSTATUS:
STATE:CLOSED
----
Resp:
AT+CIPSTART="TCP","api.thingspeak.com",80
CONNECT OK
----
Msg: Connected!
Resp:
AT+GPSRD=5

OK
----
Msg: GPS Read Set!
Msg: Getting data from GPS using AT Cmd
Resp:
$GNGGA,172603.000,4900.5349,N,00825.4680,E,1,6,3.13,148.6,M,47.9,M,,*46
$GPGSA,A,3,02,20,12,25,,,,,,,,,3.28,3.13,0.98*0F
$BDGSA,A,3,08,13,,,,,,,,,,,3.28,3.13,0.98*10
$GPGSV,3,1,11,29,80,210,18,25,69,088,31,31,52,292,21,02,34,055,34*75
$GPGSV,3,2,11,37,32,162,,12,31,095,34,26,17,288,14,32,13,236,15*77
$GPGSV,3,3,11,18,09,178,14,20,08,081,32,06,01,025,*40
$BDGSV,1,1,04,13,36,069,34,26,35,304,18,08,34,057,28,02,01,101,*6B
$GNRMC,172603.000,A,4900.5349,N,00825.4680,E,0.957,45.34,110122,,,A*7E
$GNVTG,45.34,T,,M,0.957,N,1.773,K,A*1C
---
Msg: Getting data from GPS using AT done
Resp:
AT+GPSRD=0

OK
----
Msg: GPS Read Off!
Msg: Getting data from Sensors
Resp:
AT+CIPSEND

>
----
Msg: Send Started!
Resp:
GET https://api.thingspeak.com/update?api_key=AYKVFH212TKGNW2B&field1=26.68&field2=30.34&field3=1019.48&field4=125.40&field5=131.70&field6=0&field7=0&field8=$GNGGA,172603.000,4900.5349,N,00825.4680,E,1,6,3.13,148.6,M,47.9,M,,*46

----
Resp:

OK



+CIPRCV,2:16
CLOSED
----
Msg: Send Completed!
Resp:
AT+CIPSTATUS
+CIPSTATUS:
STATE:CLOSED
----
Resp:
AT+CIPSTART="TCP","api.thingspeak.com",80
CONNECT OK
----
Msg: Connected!
Resp:
AT+GPSRD=5

OK
----
Msg: GPS Read Set!
Msg: Getting data from GPS using AT Cmd
Resp:
$GNGGA,172624.000,4900.5356,N,00825.4694,E,1,6,3.13,144.8,M,47.9,M,,*4A
$GPGSA,A,3,02,20,12,25,,,,,,,,,3.28,3.13,0.98*0F
$BDGSA,A,3,08,13,,,,,,,,,,,3.28,3.13,0.98*10
$GPGSV,3,1,11,29,80,210,18,25,69,088,30,31,52,292,25,02,34,055,35*71
$GPGSV,3,2,11,12,31,095,31,26,17,288,14,32,13,236,17,40,13,117,*71
$GPGSV,3,3,11,18,09,178,14,20,08,081,34,06,01,025,*46
$BDGSV,2,1,05,13,36,069,34,26,35,304,14,08,34,057,28,05,16,122,*65
$BDGSV,2,2,05,02,01,101,*5E
$GNRMC,172624.000,A,4900.5356,N,00825.4694,E,0.493,50.35,110122,,,A*70
$GNVTG,50.35,T,,M,0.493,N,0.913,K,A*15
---
Msg: Getting data from GPS using AT done
Resp:
AT+GPSRD=0

OK
----
Msg: GPS Read Off!
Msg: Getting data from Sensors
Resp:
AT+CIPSEND

>
----
Msg: Send Started!
Resp:
GET https://api.thingspeak.com/update?api_key=AYKVFH212TKGNW2B&field1=26.78&field2=30.49&field3=1019.49&field4=125.40&field5=131.70&field6=0&field7=0&field8=$GNGGA,172624.000,4900.5356,N,00825.4694,E,1,6,3.13,144.8,M,47.9,M,,*4A

----
Resp:

OK



+CIPRCV,2:17
CLOSED
----
Msg: Send Completed!
Resp:
AT+CIPSTATUS
+CIPSTATUS:
STATE:CLOSED
----
Resp:
AT+CIPSTART="TCP","api.thingspeak.com",80
CONNECT OK
----
Msg: Connected!
Resp:
AT+GPSRD=5

OK
----
Msg: GPS Read Set!
Msg: Getting data from GPS using AT Cmd
Resp:
$GNGGA,172644.000,4900.5277,N,00825.4667,E,1,6,7.19,143.5,M,47.9,M,,*46
$GPGSA,A,3,02,20,12,25,,,,,,,,,9.19,7.19,5.73*09
$BDGSA,A,3,08,13,,,,,,,,,,,9.19,7.19,5.73*16
$GPGSV,3,1,10,29,80,210,13,25,69,088,31,31,52,292,19,02,33,055,36*71
$GPGSV,3,2,10,37,32,162,,12,31,095,28,26,17,288,,32,13,236,17*7C
$GPGSV,3,3,10,18,09,178,13,20,08,081,36*72
$BDGSV,2,1,06,29,74,149,24,13,36,069,35,26,35,304,13,08,34,057,29*60
$BDGSV,2,2,06,05,16,122,,02,01,101,*6E
$GNRMC,172644.000,A,4900.5277,N,00825.4667,E,1.020,52.66,110122,,,A*71
$GNVTG,52.66,T,,M,1.020,N,1.891,K,A*16
---
Msg: Getting data from GPS using AT done
Resp:
AT+GPSRD=0

OK
----
Msg: GPS Read Off!
Msg: Getting data from Sensors
Resp:
AT+CIPSEND

>
----
Msg: Send Started!
Resp:
GET https://api.thingspeak.com/update?api_key=AYKVFH212TKGNW2B&field1=26.87&field2=30.25&field3=1019.50&field4=119.70&field5=125.70&field6=0&field7=0&field8=$GNGGA,172644.000,4900.5277,N,00825.4667,E,1,6,7.19,143.5,M,47.9,M,,*46

----
Resp:

OK



+CIPRCV,2:18
CLOSED
----
Msg: Send Completed!
Resp:
AT+CIPSTATUS
+CIPSTATUS:
STATE:CLOSED
----
Resp:
AT+CIPSTART="TCP","api.thingspeak.com",80
CONNECT OK
----
Msg: Connected!
Resp:
AT+GPSRD=5

OK
----
Msg: GPS Read Set!
Msg: Getting data from GPS using AT Cmd
Resp:
$GNGGA,172705.000,4900.5264,N,00825.4685,E,1,6,3.13,145.7,M,47.9,M,,*46
$GPGSA,A,3,02,20,12,25,,,,,,,,,3.28,3.13,0.99*0E
$BDGSA,A,3,08,13,,,,,,,,,,,3.28,3.13,0.99*11
$GPGSV,3,1,10,29,81,210,17,25,68,089,31,31,52,292,14,02,33,055,36*79
$GPGSV,3,2,10,12,31,095,30,33,29,210,,26,17,288,,32,13,236,18*72
$GPGSV,3,3,10,18,10,178,,20,09,081,36*79
$BDGSV,2,1,07,29,74,149,22,13,36,069,35,26,35,304,18,30,35,053,33*69
$BDGSV,2,2,07,08,34,057,30,05,16,122,,02,01,101,*51
$GNRMC,172705.000,A,4900.5264,N,00825.4685,E,1.282,42.71,110122,,,A*76
$GNVTG,42.71,T,,M,1.282,N,2.375,K,A*19
---
Msg: Getting data from GPS using AT done
Resp:
AT+GPSRD=0

OK
----
Msg: GPS Read Off!
Msg: Getting data from Sensors
Resp:
AT+CIPSEND

>
----
Msg: Send Started!
Resp:
GET https://api.thingspeak.com/update?api_key=AYKVFH212TKGNW2B&field1=26.96&field2=28.75&field3=1019.50&field4=113.70&field5=119.40&field6=0&field7=0&field8=$GNGGA,172705.000,4900.5264,N,00825.4685,E,1,6,3.13,145.7,M,47.9,M,,*46

----
Resp:

OK



+CIPRCV,2:19
CLOSED
----
Msg: Send Completed!
Resp:
AT+CIPSTATUS
+CIPSTATUS:
STATE:CLOSED
----
Resp:
AT+CIPSTART="TCP","api.thingspeak.com",80
CONNECT OK
----
Msg: Connected!
Resp:
AT+GPSRD=5

OK
----
Msg: GPS Read Set!
Msg: Getting data from GPS using AT Cmd
Resp:
$GNGGA,172726.000,4900.5233,N,00825.4719,E,1,6,3.13,147.9,M,47.9,M,,*4D
$GPGSA,A,3,02,20,12,25,,,,,,,,,3.28,3.13,0.99*0E
$BDGSA,A,3,08,13,,,,,,,,,,,3.28,3.13,0.99*11
$GPGSV,3,1,10,29,81,210,14,25,68,089,31,31,52,291,,02,33,055,35*7F
$GPGSV,3,2,10,12,31,095,29,26,17,288,17,32,12,235,16,44,12,116,*7D
$GPGSV,3,3,10,18,10,178,,20,09,081,34*7B
$BDGSV,2,1,07,29,74,149,19,13,36,069,33,08,35,057,29,26,35,304,15*6E
$BDGSV,2,2,07,30,35,053,32,05,16,122,,02,01,101,*5D
$GNRMC,172726.000,A,4900.5233,N,00825.4719,E,1.621,35.39,110122,,,A*70
$GNVTG,35.39,T,,M,1.621,N,3.004,K,A*1C
---
Msg: Getting data from GPS using AT done
Resp:
AT+GPSRD=0

OK
----
Msg: GPS Read Off!
Msg: Getting data from Sensors
Resp:
AT+CIPSEND

>
----
Msg: Send Started!
Resp:
GET https://api.thingspeak.com/update?api_key=AYKVFH212TKGNW2B&field1=27.05&field2=28.04&field3=1019.50&field4=111.00&field5=116.60&field6=0&field7=0&field8=$GNGGA,172726.000,4900.5233,N,00825.4719,E,1,6,3.13,147.9,M,47.9,M,,*4D

----
Resp:

OK

+CIPRCV,2:20


CLOSED
----
Msg: Send Completed!
Resp:
AT+CIPSTATUS
+CIPSTATUS:
STATE:CLOSED
----
Resp:
AT+CIPSTART="TCP","api.thingspeak.com",80
CONNECT OK
----
Msg: Connected!
Resp:
AT+GPSRD=5

OK
----
Msg: GPS Read Set!
Msg: Getting data from GPS using AT Cmd
Resp:
$GNGGA,172746.000,4900.5246,N,00825.4681,E,1,7,3.00,146.8,M,47.9,M,,*4A
$GPGSA,A,3,02,20,12,25,,,,,,,,,3.16,3.00,0.99*01
$BDGSA,A,3,08,13,30,,,,,,,,,,3.16,3.00,0.99*1D
$GPGSV,3,1,10,29,81,210,16,25,68,089,32,31,52,291,,02,33,055,36*7D
$GPGSV,3,2,10,12,31,095,28,26,17,288,19,32,12,235,16,18,10,178,*71
$GPGSV,3,3,10,20,09,081,37,36,,,*4B
$BDGSV,2,1,07,29,75,148,17,13,36,069,33,26,36,304,15,08,35,057,29*63
$BDGSV,2,2,07,30,35,053,34,05,16,122,,02,01,101,*5B
$GNRMC,172746.000,A,4900.5246,N,00825.4681,E,1.921,39.28,110122,,,A*77
$GNVTG,39.28,T,,M,1.921,N,3.560,K,A*18
---
Msg: Getting data from GPS using AT done
Resp:
AT+GPSRD=0

OK
----
Msg: GPS Read Off!
Msg: Getting data from Sensors
Resp:
AT+CIPSEND

>
----
Msg: Send Started!
Resp:
GET https://api.thingspeak.com/update?api_key=AYKVFH212TKGNW2B&field1=27.13&field2=28.11&field3=1019.50&field4=116.00&field5=121.90&field6=0&field7=0&field8=$GNGGA,172746.000,4900.5246,N,00825.4681,E,1,7,3.00,146.8,M,47.9,M,,*4A

----
Resp:

OK



+CIPRCV,2:21
CLOSED
----
Msg: Send Completed!
Resp:
AT+CIPSTATUS
+CIPSTATUS:
STATE:CLOSED
----
Resp:
AT+CIPSTART="TCP","api.thingspeak.com",80
CONNECT OK
----
Msg: Connected!
Resp:
AT+GPSRD=5

OK
----
Msg: GPS Read Set!
Msg: Getting data from GPS using AT Cmd
Resp:
$GNGGA,172807.000,4900.5267,N,00825.4739,E,1,7,3.01,147.9,M,47.9,M,,*40
$GPGSA,A,3,02,20,12,25,,,,,,,,,3.16,3.01,0.99*00
$BDGSA,A,3,08,13,30,,,,,,,,,,3.16,3.01,0.99*1C
$GPGSV,3,1,10,29,81,210,16,25,68,089,33,31,52,291,20,02,33,054,35*7C
$GPGSV,3,2,10,12,30,096,28,26,17,288,14,32,12,235,14,18,10,178,*7C
$GPGSV,3,3,10,20,09,081,36,43,,,*48
$BDGSV,2,1,07,29,75,148,17,13,36,069,33,26,36,304,17,08,35,057,30*69
$BDGSV,2,2,07,30,35,053,34,05,16,122,,02,01,101,*5B
$GNRMC,172807.000,A,4900.5267,N,00825.4739,E,0.772,84.24,110122,,,A*7F
$GNVTG,84.24,T,,M,0.772,N,1.431,K,A*1C
---
Msg: Getting data from GPS using AT done
Resp:
AT+GPSRD=0

OK
----
Msg: GPS Read Off!
Msg: Getting data from Sensors
Resp:
AT+CIPSEND

>
----
Msg: Send Started!
Resp:
GET https://api.thingspeak.com/update?api_key=AYKVFH212TKGNW2B&field1=27.22&field2=28.46&field3=1019.50&field4=117.80&field5=123.70&field6=0&field7=0&field8=$GNGGA,172807.000,4900.5267,N,00825.4739,E,1,7,3.01,147.9,M,47.9,M,,*40

----
Resp:

OK



+CIPRCV,2:22
CLOSED
----
Msg: Send Completed!
Resp:
AT+CIPSTATUS
+CIPSTATUS:
STATE:CLOSED
----
Resp:
AT+CIPSTART="TCP","api.thingspeak.com",80
CONNECT OK
----
Msg: Connected!
Resp:
AT+GPSRD=5

OK
----
Msg: GPS Read Set!
Msg: Getting data from GPS using AT Cmd
Resp:
$GNGGA,172828.000,4900.5272,N,00825.4788,E,1,7,3.01,151.0,M,47.9,M,,*4D
$GPGSA,A,3,02,20,12,25,,,,,,,,,3.16,3.01,0.99*00
$BDGSA,A,3,08,13,30,,,,,,,,,,3.16,3.01,0.99*1C
$GPGSV,3,1,10,29,82,210,21,25,68,090,35,31,53,290,18,02,33,054,34*7F
$GPGSV,3,2,10,12,30,096,32,26,18,288,19,32,12,235,15,18,11,178,17*73
$GPGSV,3,3,10,20,09,080,36,49,,,*43
$BDGSV,2,1,07,29,75,148,16,13,36,069,33,26,36,304,20,08,35,057,30*6C
$BDGSV,2,2,07,30,35,053,35,05,16,122,,02,01,101,*5A
$GNRMC,172828.000,A,4900.5272,N,00825.4788,E,0.912,78.59,110122,,,A*7D
$GNVTG,78.59,T,,M,0.912,N,1.690,K,A*14
---
Msg: Getting data from GPS using AT done
Resp:
AT+GPSRD=0

OK
----
Msg: GPS Read Off!
Msg: Getting data from Sensors
Resp:
AT+CIPSEND

>
----
Msg: Send Started!
Resp:
GET https://api.thingspeak.com/update?api_key=AYKVFH212TKGNW2B&field1=27.31&field2=28.41&field3=1019.50&field4=118.00&field5=124.00&field6=0&field7=0&field8=$GNGGA,172828.000,4900.5272,N,00825.4788,E,1,7,3.01,151.0,M,47.9,M,,*4D

----
Resp:

OK

+CIPRCV,2:23


CLOSED
----
Msg: Send Completed!
Resp:
AT+CIPSTATUS
+CIPSTATUS:
STATE:CLOSED
----
Resp:
AT+CIPSTART="TCP","api.thingspeak.com",80
CONNECT OK
----
Msg: Connected!
Resp:
AT+GPSRD=5

OK
----
Msg: GPS Read Set!
Msg: Getting data from GPS using AT Cmd
Resp:
$GNGGA,172848.000,4900.5303,N,00825.4826,E,1,7,3.01,150.7,M,47.9,M,,*41
$GPGSA,A,3,02,20,12,25,,,,,,,,,3.17,3.01,0.99*01
$BDGSA,A,3,08,13,30,,,,,,,,,,3.17,3.01,0.99*1D
$GPGSV,3,1,10,29,82,210,12,25,68,090,35,31,53,290,22,02,33,054,34*76
$GPGSV,3,2,10,39,31,158,,12,30,096,30,26,18,288,19,32,12,235,15*74
$GPGSV,3,3,10,18,11,178,18,20,09,080,35*73
$BDGSV,2,1,07,29,75,148,17,13,36,069,34,26,36,304,16,08,35,056,30*6E
$BDGSV,2,2,07,30,35,053,35,05,16,122,,02,01,101,*5A
$GNRMC,172848.000,A,4900.5303,N,00825.4826,E,2.037,118.80,110122,,,A*48
$GNVTG,118.80,T,,M,2.037,N,3.775,K,A*23
---
Msg: Getting data from GPS using AT done
Resp:
AT+GPSRD=0

OK
----
Msg: GPS Read Off!
Msg: Getting data from Sensors
Resp:
AT+CIPSEND

>
----
Msg: Send Started!
Resp:
GET https://api.thingspeak.com/update?api_key=AYKVFH212TKGNW2B&field1=27.40&field2=28.24&field3=1019.51&field4=114.70&field5=120.50&field6=0&field7=0&field8=$GNGGA,172848.000,4900.5303,N,00825.4826,E,1,7,3.01,150.7,M,47.9,M,,*41

----
Resp:

OK



+CIPRCV,2:24
CLOSED
----
Msg: Send Completed!
Resp:
AT+CIPSTATUS
+CIPSTATUS:
STATE:CLOSED
----
Resp:
AT+CIPSTART="TCP","api.thingspeak.com",80
CONNECT OK
----
Msg: Connected!
Resp:
AT+GPSRD=5

OK
----
Msg: GPS Read Set!
Msg: Getting data from GPS using AT Cmd
Resp:
$GNGGA,172909.000,4900.5300,N,00825.4682,E,1,7,3.01,144.9,M,47.9,M,,*4D
$GPGSA,A,3,02,20,12,25,,,,,,,,,3.17,3.01,0.99*01
$BDGSA,A,3,08,13,30,,,,,,,,,,3.17,3.01,0.99*1D
$GPGSV,3,1,10,29,82,210,15,25,68,090,33,31,53,290,18,02,33,054,36*7C
$GPGSV,3,2,10,12,30,096,36,26,18,288,16,40,13,117,,32,12,235,16*7B
$GPGSV,3,3,10,18,11,178,18,20,09,080,35*73
$BDGSV,2,1,07,29,75,146,16,13,36,069,33,26,36,304,17,08,35,056,30*67
$BDGSV,2,2,07,30,34,053,35,05,16,122,,02,01,101,*5B
$GNRMC,172909.000,A,4900.5300,N,00825.4682,E,0.437,71.94,110122,,,A*72
$GNVTG,71.94,T,,M,0.437,N,0.809,K,A*19
---
Msg: Getting data from GPS using AT done
Resp:
AT+GPSRD=0

OK
----
Msg: GPS Read Off!
Msg: Getting data from Sensors
Resp:
AT+CIPSEND

>
----
Msg: Send Started!
Resp:
GET https://api.thingspeak.com/update?api_key=AYKVFH212TKGNW2B&field1=27.49&field2=28.06&field3=1019.52&field4=115.30&field5=121.10&field6=0&field7=0&field8=$GNGGA,172909.000,4900.5300,N,00825.4682,E,1,7,3.01,144.9,M,47.9,M,,*4D

----
Resp:

OK

+CIPRCV,2:25


CLOSED
----
Msg: Send Completed!
Resp:
AT+CIPSTATUS
+CIPSTATUS:
STATE:CLOSED
----
Resp:
AT+CIPSTART="TCP","api.thingspeak.com",80
CONNECT OK
----
Msg: Connected!
Resp:
AT+GPSRD=5

OK
----
Msg: GPS Read Set!
Msg: Getting data from GPS using AT Cmd
Resp:
$GNGGA,172930.000,4900.5270,N,00825.4615,E,1,7,3.02,139.8,M,47.9,M,,*47
$GPGSA,A,3,02,20,12,25,,,,,,,,,3.17,3.02,0.99*02
$BDGSA,A,3,08,30,13,,,,,,,,,,3.17,3.02,0.99*1E
$GPGSV,3,1,10,29,82,210,14,25,68,090,31,31,53,290,17,02,33,054,37*71
$GPGSV,3,2,10,12,30,096,33,26,18,288,16,32,12,235,17,18,11,178,13*7B
$GPGSV,3,3,10,20,09,080,36,35,,,*48
$BDGSV,2,1,07,29,75,146,19,13,36,069,31,26,36,304,,08,35,056,29*64
$BDGSV,2,2,07,30,34,053,37,05,16,122,,02,01,101,*59
$GNRMC,172930.000,A,4900.5270,N,00825.4615,E,0.108,111.58,110122,,,A*4E
$GNVTG,111.58,T,,M,0.108,N,0.199,K,A*27
---
Msg: Getting data from GPS using AT done
Resp:
AT+GPSRD=0

OK
----
Msg: GPS Read Off!
Msg: Getting data from Sensors
Resp:
AT+CIPSEND

>
----
Msg: Send Started!
Resp:
GET https://api.thingspeak.com/update?api_key=AYKVFH212TKGNW2B&field1=27.58&field2=27.18&field3=1019.53&field4=115.50&field5=121.30&field6=0&field7=0&field8=$GNGGA,172930.000,4900.5270,N,00825.4615,E,1,7,3.02,139.8,M,47.9,M,,*47

----
Resp:

OK

+CIPRCV,2:26


CLOSED
----
Msg: Send Completed!
Resp:
AT+CIPSTATUS
+CIPSTATUS:
STATE:CLOSED
----
Resp:
AT+CIPSTART="TCP","api.thingspeak.com",80
CONNECT OK
----
Msg: Connected!
Resp:
AT+GPSRD=5

OK
----
Msg: GPS Read Set!
Msg: Getting data from GPS using AT Cmd
Resp:
$GNGGA,172950.000,4900.5250,N,00825.4560,E,1,7,3.37,136.4,M,47.9,M,,*47
$GPGSA,A,3,02,20,12,25,,,,,,,,,3.51,3.37,0.99*06
$BDGSA,A,3,08,30,13,,,,,,,,,,3.51,3.37,0.99*1A
$GPGSV,3,1,10,29,82,209,17,25,67,091,32,31,53,290,16,02,33,054,37*76
$GPGSV,3,2,10,12,30,096,30,26,18,289,16,32,12,235,19,18,11,178,14*70
$GPGSV,3,3,10,20,09,080,35,41,,,*48
$BDGSV,2,1,07,29,75,146,18,13,36,069,32,26,36,304,,08,35,056,30*6E
$BDGSV,2,2,07,30,34,053,36,05,16,122,,02,01,101,*58
$GNRMC,172950.000,A,4900.5250,N,00825.4560,E,1.096,185.60,110122,,,A*4A
$GNVTG,185.60,T,,M,1.096,N,2.032,K,A*24
---
Msg: Getting data from GPS using AT done
Resp:
AT+GPSRD=0

OK
----
Msg: GPS Read Off!
Msg: Getting data from Sensors
Resp:
AT+CIPSEND

>
----
Msg: Send Started!
Resp:
GET https://api.thingspeak.com/update?api_key=AYKVFH212TKGNW2B&field1=27.66&field2=26.01&field3=1019.54&field4=114.90&field5=120.70&field6=0&field7=0&field8=$GNGGA,172950.000,4900.5250,N,00825.4560,E,1,7,3.37,136.4,M,47.9,M,,*47

----
Resp:

OK

+CIPRCV,2:27


CLOSED
----
Msg: Send Completed!
Resp:
AT+CIPSTATUS
+CIPSTATUS:
STATE:CLOSED
----
Resp:
AT+CIPSTART="TCP","api.thingspeak.com",80
CONNECT OK
----
Msg: Connected!
Resp:
AT+GPSRD=5

OK
----
Msg: GPS Read Set!
Msg: Getting data from GPS using AT Cmd
Resp:
$GNGGA,173010.000,4900.5257,N,00825.4595,E,1,7,3.02,136.2,M,47.9,M,,*46
$GPGSA,A,3,02,20,12,25,,,,,,,,,3.18,3.02,0.99*0D
$BDGSA,A,3,08,30,13,,,,,,,,,,3.18,3.02,0.99*11
$GPGSV,3,1,10,29,82,209,14,25,67,091,34,31,53,290,15,02,33,054,37*70
$GPGSV,3,2,10,12,30,096,35,26,18,289,19,32,12,235,21,18,11,178,17*72
$GPGSV,3,3,10,20,09,080,36,46,,,*4C
$BDGSV,2,1,07,29,75,146,20,13,37,069,33,26,36,304,,08,35,056,29*6D
$BDGSV,2,2,07,30,34,053,35,05,16,122,,02,01,101,*5B
$GNRMC,173010.000,A,4900.5257,N,00825.4595,E,1.401,82.72,110122,,,A*74
$GNVTG,82.72,T,,M,1.401,N,2.596,K,A*10
---
Msg: Getting data from GPS using AT done
Resp:
AT+GPSRD=0

OK
----
Msg: GPS Read Off!
Msg: Getting data from Sensors
Resp:
AT+CIPSEND

>
----
Msg: Send Started!
Resp:
GET https://api.thingspeak.com/update?api_key=AYKVFH212TKGNW2B&field1=27.73&field2=26.52&field3=1019.56&field4=113.60&field5=119.30&field6=0&field7=0&field8=$GNGGA,173010.000,4900.5257,N,00825.4595,E,1,7,3.02,136.2,M,47.9,M,,*46

----
Resp:

OK



+CIPRCV,2:28
CLOSED
----
Msg: Send Completed!
Resp:
AT+CIPSTATUS
+CIPSTATUS:
STATE:CLOSED
----
Resp:
AT+CIPSTART="TCP","api.thingspeak.com",80
CONNECT OK
----
Msg: Connected!
Resp:
AT+GPSRD=5

OK
----
Msg: GPS Read Set!
Msg: Getting data from GPS using AT Cmd
Resp:
$GNGGA,173031.000,4900.5269,N,00825.4655,E,1,7,3.03,136.4,M,47.9,M,,*40
$GPGSA,A,3,02,20,12,25,,,,,,,,,3.18,3.03,0.99*0C
$BDGSA,A,3,08,30,13,,,,,,,,,,3.18,3.03,0.99*10
$GPGSV,3,1,10,29,82,209,14,25,67,091,37,31,53,290,20,02,33,054,37*75
$GPGSV,3,2,10,12,30,096,32,26,18,289,15,32,12,235,17,18,11,178,16*7D
$GPGSV,3,3,10,20,09,080,35,51,,,*49
$BDGSV,2,1,07,29,76,144,20,13,37,069,35,26,36,304,,08,35,056,31*63
$BDGSV,2,2,07,30,34,053,35,05,16,122,,02,01,101,*5B
$GNRMC,173031.000,A,4900.5269,N,00825.4655,E,0.939,87.62,110122,,,A*76
$GNVTG,87.62,T,,M,0.939,N,1.740,K,A*19
---
Msg: Getting data from GPS using AT done
Resp:
AT+GPSRD=0

OK
----
Msg: GPS Read Off!
Msg: Getting data from Sensors
Resp:
AT+CIPSEND

>
----
Msg: Send Started!
Resp:
GET https://api.thingspeak.com/update?api_key=AYKVFH212TKGNW2B&field1=27.81&field2=26.88&field3=1019.57&field4=110.30&field5=115.90&field6=0&field7=0&field8=$GNGGA,173031.000,4900.5269,N,00825.4655,E,1,7,3.03,136.4,M,47.9,M,,*40

----
Resp:

OK

+CIPRCV,2:29


CLOSED
----
Msg: Send Completed!
Resp:
AT+CIPSTATUS
+CIPSTATUS:
STATE:CLOSED
----
Resp:
AT+CIPSTART="TCP","api.thingspeak.com",80
CONNECT OK
----
Msg: Connected!
Resp:
AT+GPSRD=5

OK
----
Msg: GPS Read Set!
Msg: Getting data from GPS using AT Cmd
Resp:
$GNGGA,173051.000,4900.5264,N,00825.4679,E,1,7,3.03,137.1,M,47.9,M,,*41
$GPGSA,A,3,02,20,12,25,,,,,,,,,3.18,3.03,0.99*0C
$BDGSA,A,3,08,30,13,,,,,,,,,,3.18,3.03,0.99*10
$GPGSV,3,1,10,29,82,209,16,25,67,091,35,31,53,290,16,02,32,053,38*79
$GPGSV,3,2,10,12,29,097,31,26,18,289,19,18,12,178,16,32,12,235,19*76
$GPGSV,3,3,10,20,09,079,36,48,,,*44
$BDGSV,2,1,07,29,76,144,19,13,37,069,33,26,36,304,,08,35,056,31*6F
$BDGSV,2,2,07,30,34,053,35,05,16,122,,02,01,101,*5B
$GNRMC,173051.000,A,4900.5264,N,00825.4679,E,2.435,108.89,110122,,,A*43
$GNVTG,108.89,T,,M,2.435,N,4.512,K,A*29
---
Msg: Getting data from GPS using AT done
Resp:
AT+GPSRD=0

OK
----
Msg: GPS Read Off!
Msg: Getting data from Sensors
Resp:
AT+CIPSEND

>
----
Msg: Send Started!
Resp:
GET https://api.thingspeak.com/update?api_key=AYKVFH212TKGNW2B&field1=27.88&field2=26.33&field3=1019.56&field4=109.40&field5=114.90&field6=0&field7=0&field8=$GNGGA,173051.000,4900.5264,N,00825.4679,E,1,7,3.03,137.1,M,47.9,M,,*41

----
Resp:

OK



+CIPRCV,2:30
CLOSED
----
Msg: Send Completed!
Resp:
AT+CIPSTATUS
+CIPSTATUS:
STATE:CLOSED
----
Resp:
AT+CIPSTART="TCP","api.thingspeak.com",80
CONNECT OK
----
Msg: Connected!
Resp:
AT+GPSRD=5

OK
----
Msg: GPS Read Set!
Msg: Getting data from GPS using AT Cmd
Resp:
$GNGGA,173111.000,4900.5275,N,00825.4688,E,1,7,3.03,140.8,M,47.9,M,,*43
$GPGSA,A,3,02,20,12,25,,,,,,,,,3.19,3.03,0.99*0D
$BDGSA,A,3,08,30,13,,,,,,,,,,3.19,3.03,0.99*11
$GPGSV,3,1,10,29,83,209,13,25,67,092,34,31,54,289,14,02,32,053,37*7D
$GPGSV,3,2,10,39,31,158,,12,29,097,34,26,19,289,16,18,12,178,16*77
$GPGSV,3,3,10,32,11,234,22,20,09,079,36*7C
$BDGSV,2,1,07,29,76,144,17,13,37,069,33,26,36,304,,08,35,056,30*60
$BDGSV,2,2,07,30,34,053,35,05,16,122,,02,01,101,*5B
$GNRMC,173111.000,A,4900.5275,N,00825.4688,E,0.226,88.31,110122,,,A*74
$GNVTG,88.31,T,,M,0.226,N,0.418,K,A*1A
---
Msg: Getting data from GPS using AT done
Resp:
AT+GPSRD=0

OK
----
Msg: GPS Read Off!
Msg: Getting data from Sensors
Resp:
AT+CIPSEND

>
----
Msg: Send Started!
Resp:
GET https://api.thingspeak.com/update?api_key=AYKVFH212TKGNW2B&field1=27.96&field2=26.13&field3=1019.57&field4=109.20&field5=114.70&field6=0&field7=0&field8=$GNGGA,173111.000,4900.5275,N,00825.4688,E,1,7,3.03,140.8,M,47.9,M,,*43

----
Resp:

OK



+CIPRCV,2:31
CLOSED
----
Msg: Send Completed!
Resp:
AT+CIPSTATUS
+CIPSTATUS:
STATE:CLOSED
----
Resp:
AT+CIPSTART="TCP","api.thingspeak.com",80
CONNECT OK
----
Msg: Connected!
Resp:
AT+GPSRD=5

OK
----
Msg: GPS Read Set!
Msg: Getting data from GPS using AT Cmd
Resp:
$GNGGA,173132.000,4900.5277,N,00825.4690,E,1,7,3.04,141.2,M,47.9,M,,*45
$GPGSA,A,3,02,20,12,25,,,,,,,,,3.19,3.04,0.99*0A
$BDGSA,A,3,08,30,13,,,,,,,,,,3.19,3.04,0.99*16
$GPGSV,3,1,10,29,83,209,17,25,67,092,34,31,54,289,18,02,32,053,36*74
$GPGSV,3,2,10,12,29,097,36,26,19,289,16,18,12,178,15,44,12,116,*77
$GPGSV,3,3,10,32,11,234,24,20,09,079,36*7A
$BDGSV,2,1,07,29,76,144,16,13,37,068,33,26,36,304,,08,35,056,30*60
$BDGSV,2,2,07,30,34,053,35,05,16,122,,02,01,101,*5B
$GNRMC,173132.000,A,4900.5277,N,00825.4690,E,0.115,73.75,110122,,,A*79
$GNVTG,73.75,T,,M,0.115,N,0.214,K,A*17
---
Msg: Getting data from GPS using AT done
Resp:
AT+GPSRD=0

OK
----
Msg: GPS Read Off!
Msg: Getting data from Sensors
Resp:
AT+CIPSEND

>
----
Msg: Send Started!
Resp:
GET https://api.thingspeak.com/update?api_key=AYKVFH212TKGNW2B&field1=28.02&field2=26.34&field3=1019.58&field4=109.40&field5=114.90&field6=0&field7=0&field8=$GNGGA,173132.000,4900.5277,N,00825.4690,E,1,7,3.04,141.2,M,47.9,M,,*45

----
Resp:

OK



+CIPRCV,2:32
CLOSED
----
Msg: Send Completed!
Resp:
AT+CIPSTATUS
+CIPSTATUS:
STATE:CLOSED
----
Resp:
AT+CIPSTART="TCP","api.thingspeak.com",80
CONNECT OK
----
Msg: Connected!
Resp:
AT+GPSRD=5

OK
----
Msg: GPS Read Set!
Msg: Getting data from GPS using AT Cmd
Resp:
$GNGGA,173152.000,4900.5279,N,00825.4707,E,1,7,3.04,141.1,M,47.9,M,,*41
$GPGSA,A,3,02,20,12,25,,,,,,,,,3.20,3.04,0.99*00
$BDGSA,A,3,08,30,13,,,,,,,,,,3.20,3.04,0.99*1C
$GPGSV,3,1,10,29,83,209,16,25,67,092,34,31,54,289,22,02,32,053,35*7F
$GPGSV,3,2,10,39,31,158,,12,29,097,31,26,19,289,20,18,12,178,16*77
$GPGSV,3,3,10,32,11,234,20,20,09,079,35*7D
$BDGSV,2,1,07,29,76,142,18,13,37,068,33,26,37,304,,08,35,056,30*69
$BDGSV,2,2,07,30,33,052,32,05,16,122,,02,01,101,*5A
$GNRMC,173152.000,A,4900.5279,N,00825.4707,E,2.788,81.94,110122,,,A*7C
$GNVTG,81.94,T,,M,2.788,N,5.165,K,A*15
---
Msg: Getting data from GPS using AT done
Resp:
AT+GPSRD=0

OK
----
Msg: GPS Read Off!
Msg: Getting data from Sensors
Resp:
AT+CIPSEND

>
----
Msg: Send Started!
Resp:
GET https://api.thingspeak.com/update?api_key=AYKVFH212TKGNW2B&field1=28.09&field2=26.31&field3=1019.58&field4=107.20&field5=112.60&field6=0&field7=0&field8=$GNGGA,173152.000,4900.5279,N,00825.4707,E,1,7,3.04,141.1,M,47.9,M,,*41

----
Resp:

OK



+CIPRCV,2:33
CLOSED
----
Msg: Send Completed!
Resp:
AT+CIPSTATUS
+CIPSTATUS:
STATE:CLOSED
----
Resp:
AT+CIPSTART="TCP","api.thingspeak.com",80
CONNECT OK
----
Msg: Connected!
Resp:
AT+GPSRD=5

OK
----
Msg: GPS Read Set!
Msg: Getting data from GPS using AT Cmd
Resp:
$GNGGA,173213.000,4900.5268,N,00825.4695,E,1,7,3.04,143.8,M,47.9,M,,*46
$GPGSA,A,3,02,20,12,25,,,,,,,,,3.20,3.04,0.99*00
$BDGSA,A,3,08,30,13,,,,,,,,,,3.20,3.04,0.99*1C
$GPGSV,3,1,11,29,83,209,18,25,67,092,33,31,54,289,23,02,32,053,35*76
$GPGSV,3,2,11,12,29,097,32,26,19,289,17,40,13,117,,18,12,178,14*76
$GPGSV,3,3,11,32,11,234,20,20,10,079,36,04,01,345,*40
$BDGSV,2,1,07,29,76,142,18,13,37,068,33,26,37,304,,08,35,056,29*61
$BDGSV,2,2,07,30,33,052,34,05,16,122,,02,01,101,*5C
$GNRMC,173213.000,A,4900.5268,N,00825.4695,E,1.102,53.54,110122,,,A*74
$GNVTG,53.54,T,,M,1.102,N,2.043,K,A*13
---
Msg: Getting data from GPS using AT done
Resp:
AT+GPSRD=0

OK
----
Msg: GPS Read Off!
Msg: Getting data from Sensors
Resp:
AT+CIPSEND

>
----
Msg: Send Started!
Resp:
GET https://api.thingspeak.com/update?api_key=AYKVFH212TKGNW2B&field1=28.16&field2=26.35&field3=1019.58&field4=110.10&field5=115.70&field6=0&field7=0&field8=$GNGGA,173213.000,4900.5268,N,00825.4695,E,1,7,3.04,143.8,M,47.9,M,,*46

----
Resp:

OK



+CIPRCV,2:34
CLOSED
----
Msg: Send Completed!
Resp:
AT+CIPSTATUS
+CIPSTATUS:
STATE:CLOSED
----
Resp:
AT+CIPSTART="TCP","api.thingspeak.com",80
CONNECT OK
----
Msg: Connected!
Resp:
AT+GPSRD=5

OK
----
Msg: GPS Read Set!
Msg: Getting data from GPS using AT Cmd
Resp:
$GNGGA,173233.000,4900.5276,N,00825.4678,E,1,7,3.05,144.6,M,47.9,M,,*40
$GPGSA,A,3,02,20,12,25,,,,,,,,,3.20,3.05,0.99*01
$BDGSA,A,3,08,30,13,,,,,,,,,,3.20,3.05,0.99*1D
$GPGSV,3,1,11,29,84,208,14,25,66,092,34,31,54,288,15,02,32,053,35*7E
$GPGSV,3,2,11,12,29,097,35,26,19,289,16,18,12,178,,32,11,234,19*78
$GPGSV,3,3,11,20,10,079,35,04,01,345,,34,,,*72
$BDGSV,2,1,07,29,76,142,20,13,37,068,33,26,37,304,,08,35,056,29*6A
$BDGSV,2,2,07,30,33,052,34,05,16,122,,02,01,101,*5C
$GNRMC,173233.000,A,4900.5276,N,00825.4678,E,0.181,77.79,110122,,,A*79
$GNVTG,77.79,T,,M,0.181,N,0.335,K,A*10
---
Msg: Getting data from GPS using AT done
Resp:
AT+GPSRD=0

OK
----
Msg: GPS Read Off!
Msg: Getting data from Sensors
Resp:
AT+CIPSEND

>
----
Msg: Send Started!
Resp:
GET https://api.thingspeak.com/update?api_key=AYKVFH212TKGNW2B&field1=28.22&field2=26.18&field3=1019.58&field4=113.50&field5=119.20&field6=0&field7=0&field8=$GNGGA,173233.000,4900.5276,N,00825.4678,E,1,7,3.05,144.6,M,47.9,M,,*40

----
Resp:

OK



+CIPRCV,2:35
CLOSED
----
Msg: Send Completed!
Resp:
AT+CIPSTATUS
+CIPSTATUS:
STATE:CLOSED
----
Resp:
AT+CIPSTART="TCP","api.thingspeak.com",80
CONNECT OK
----
Msg: Connected!
Resp:
AT+GPSRD=5

OK
----
Msg: GPS Read Set!
Msg: Getting data from GPS using AT Cmd
Resp:
$GNGGA,173253.000,4900.5265,N,00825.4689,E,1,7,3.05,144.3,M,47.9,M,,*4F
$GPGSA,A,3,02,20,12,25,,,,,,,,,3.21,3.05,0.99*00
$BDGSA,A,3,08,30,13,,,,,,,,,,3.21,3.05,0.99*1C
$GPGSV,3,1,11,29,84,208,19,25,66,092,30,31,54,288,22,02,32,053,34*72
$GPGSV,3,2,11,12,29,097,27,26,19,289,16,18,12,178,,32,11,234,16*74
$GPGSV,3,3,11,20,10,079,35,04,01,345,,38,,,*7E
$BDGSV,2,1,07,29,76,142,19,13,37,068,30,26,37,304,,08,35,056,29*63
$BDGSV,2,2,07,30,33,052,34,05,16,122,,02,01,101,*5C
$GNRMC,173253.000,A,4900.5265,N,00825.4689,E,1.120,80.13,110122,,,A*7D
$GNVTG,80.13,T,,M,1.120,N,2.075,K,A*1B
---
Msg: Getting data from GPS using AT done
Resp:
AT+GPSRD=0

OK
----
Msg: GPS Read Off!
Msg: Getting data from Sensors
Resp:
AT+CIPSEND

>
----
Msg: Send Started!
Resp:
GET https://api.thingspeak.com/update?api_key=AYKVFH212TKGNW2B&field1=28.29&field2=25.97&field3=1019.57&field4=117.80&field5=123.70&field6=0&field7=0&field8=$GNGGA,173253.000,4900.5265,N,00825.4689,E,1,7,3.05,144.3,M,47.9,M,,*4F

----
Resp:

OK



+CIPRCV,2:36
CLOSED
----
Msg: Send Completed!
Resp:
AT+CIPSTATUS
+CIPSTATUS:
STATE:CLOSED
----
Resp:
AT+CIPSTART="TCP","api.thingspeak.com",80
CONNECT OK
----
Msg: Connected!
Resp:
AT+GPSRD=5

OK
----
Msg: GPS Read Set!
Msg: Getting data from GPS using AT Cmd
Resp:
$GNGGA,173314.000,4900.5278,N,00825.4623,E,1,7,3.06,144.6,M,47.9,M,,*47
$GPGSA,A,3,02,20,12,25,,,,,,,,,3.21,3.06,0.99*03
$BDGSA,A,3,08,30,13,,,,,,,,,,3.21,3.06,0.99*1F
$GPGSV,3,1,11,29,84,208,21,25,66,092,32,31,54,288,15,02,32,052,37*7D
$GPGSV,3,2,11,12,29,097,34,26,19,289,14,18,12,178,,32,11,234,18*7A
$GPGSV,3,3,11,20,10,079,35,04,01,345,,46,,,*77
$BDGSV,2,1,07,29,76,140,19,13,37,068,31,26,37,304,,08,35,056,30*68
$BDGSV,2,2,07,30,33,052,34,05,16,122,,02,01,101,*5C
$GNRMC,173314.000,A,4900.5278,N,00825.4623,E,1.693,85.75,110122,,,A*79
$GNVTG,85.75,T,,M,1.693,N,3.137,K,A*17
---
Msg: Getting data from GPS using AT done
Resp:
AT+GPSRD=0

OK
----
Msg: GPS Read Off!
Msg: Getting data from Sensors
Resp:
AT+CIPSEND

>
----
Msg: Send Started!
Resp:
GET https://api.thingspeak.com/update?api_key=AYKVFH212TKGNW2B&field1=28.35&field2=26.07&field3=1019.57&field4=118.10&field5=124.10&field6=0&field7=0&field8=$GNGGA,173314.000,4900.5278,N,00825.4623,E,1,7,3.06,144.6,M,47.9,M,,*47

----
Resp:

OK



+CIPRCV,2:37
CLOSED
----
Msg: Send Completed!
Resp:
AT+CIPSTATUS
+CIPSTATUS:
STATE:CLOSED
----
Resp:
AT+CIPSTART="TCP","api.thingspeak.com",80
CONNECT OK
----
Msg: Connected!
Resp:
AT+GPSRD=5

OK
----
Msg: GPS Read Set!
Msg: Getting data from GPS using AT Cmd
Resp:
$GNGGA,173334.000,4900.5309,N,00825.4805,E,1,8,1.79,151.0,M,47.9,M,,*4F
$GPGSA,A,3,02,31,20,12,25,,,,,,,,2.01,1.79,0.92*03
$BDGSA,A,3,08,30,13,,,,,,,,,,2.01,1.79,0.92*1D
$GPGSV,3,1,11,29,84,208,22,25,66,092,34,31,54,288,20,02,32,052,37*7E
$GPGSV,3,2,11,37,32,162,,12,28,097,30,26,19,289,15,18,13,178,16*75
$GPGSV,3,3,11,32,11,234,15,20,10,078,37,04,01,345,*46
$BDGSV,2,1,07,29,76,140,19,13,37,068,31,26,37,304,,08,35,056,30*68
$BDGSV,2,2,07,30,33,052,34,05,16,122,,02,01,101,*5C
$GNRMC,173334.000,A,4900.5309,N,00825.4805,E,0.237,5.56,110122,,,A*44
$GNVTG,5.56,T,,M,0.237,N,0.438,K,A*2C
---
Msg: Getting data from GPS using AT done
Resp:
AT+GPSRD=0

OK
----
Msg: GPS Read Off!
Msg: Getting data from Sensors
Resp:
AT+CIPSEND

>
----
Msg: Send Started!
Resp:
GET https://api.thingspeak.com/update?api_key=AYKVFH212TKGNW2B&field1=28.42&field2=25.93&field3=1019.56&field4=117.60&field5=123.50&field6=0&field7=0&field8=$GNGGA,173334.000,4900.5309,N,00825.4805,E,1,8,1.79,151.0,M,47.9,M,,*4F

----
Resp:

OK



+CIPRCV,2:38
CLOSED
----
Msg: Send Completed!
Resp:
AT+CIPSTATUS
+CIPSTATUS:
STATE:CLOSED
----
Resp:
AT+CIPSTART="TCP","api.thingspeak.com",80
CONNECT OK
----
Msg: Connected!
Resp:
AT+GPSRD=5

OK
----
Msg: GPS Read Set!
Msg: Getting data from GPS using AT Cmd
Resp:
$GNGGA,173354.000,4900.5291,N,00825.4931,E,1,8,1.78,157.4,M,47.9,M,,*4C
$GPGSA,A,3,02,31,20,12,25,,,,,,,,2.01,1.78,0.92*02
$BDGSA,A,3,08,30,13,,,,,,,,,,2.01,1.78,0.92*1C
$GPGSV,3,1,11,29,84,207,16,25,65,093,35,31,54,287,21,02,32,052,36*7A
$GPGSV,3,2,11,33,29,210,,12,28,097,30,26,20,289,16,18,13,178,16*74
$GPGSV,3,3,11,20,10,078,34,32,10,233,17,04,01,345,*41
$BDGSV,2,1,07,29,76,140,18,13,37,068,29,26,37,304,,08,35,055,30*63
$BDGSV,2,2,07,30,33,052,34,05,16,122,,02,01,101,*5C
$GNRMC,173354.000,A,4900.5291,N,00825.4931,E,0.856,70.59,110122,,,A*74
$GNVTG,70.59,T,,M,0.856,N,1.586,K,A*19
---
Msg: Getting data from GPS using AT done
Resp:
AT+GPSRD=0

OK
----
Msg: GPS Read Off!
Msg: Getting data from Sensors
Resp:
AT+CIPSEND

>
----
Msg: Send Started!
Resp:
GET https://api.thingspeak.com/update?api_key=AYKVFH212TKGNW2B&field1=28.48&field2=25.85&field3=1019.57&field4=111.80&field5=117.40&field6=0&field7=0&field8=$GNGGA,173354.000,4900.5291,N,00825.4931,E,1,8,1.78,157.4,M,47.9,M,,*4C

----
Resp:

OK



+CIPRCV,2:39
CLOSED
----
Msg: Send Completed!
Resp:
AT+CIPSTATUS
+CIPSTATUS:
STATE:CLOSED
----
Resp:
AT+CIPSTART="TCP","api.thingspeak.com",80
CONNECT OK
----
Msg: Connected!
Resp:
AT+GPSRD=5

OK
----
Msg: GPS Read Set!
Msg: Getting data from GPS using AT Cmd
Resp:
$GNGGA,173415.000,4900.5321,N,00825.4924,E,1,8,1.78,160.0,M,47.9,M,,*40
$GPGSA,A,3,02,31,20,12,25,,,,,,,,2.00,1.78,0.92*03
$BDGSA,A,3,08,30,13,,,,,,,,,,2.00,1.78,0.92*1D
$GPGSV,3,1,11,29,84,207,14,25,65,093,35,31,54,287,17,02,32,052,36*7D
$GPGSV,3,2,11,12,28,097,33,26,20,289,22,18,13,178,13,44,12,116,*78
$GPGSV,3,3,11,20,10,078,35,32,10,233,13,04,01,345,*44
$BDGSV,2,1,07,29,76,138,17,26,38,304,,13,37,068,31,08,35,055,31*64
$BDGSV,2,2,07,30,33,052,34,05,16,122,,02,01,101,*5C
$GNRMC,173415.000,A,4900.5321,N,00825.4924,E,0.934,218.82,110122,,,A*47
$GNVTG,218.82,T,,M,0.934,N,1.731,K,A*28
---
Msg: Getting data from GPS using AT done
Resp:
AT+GPSRD=0

OK
----
Msg: GPS Read Off!
Msg: Getting data from Sensors
Resp:
AT+CIPSEND

>
----
Msg: Send Started!
Resp:
GET https://api.thingspeak.com/update?api_key=AYKVFH212TKGNW2B&field1=28.54&field2=25.92&field3=1019.56&field4=107.40&field5=112.80&field6=0&field7=0&field8=$GNGGA,173415.000,4900.5321,N,00825.4924,E,1,8,1.78,160.0,M,47.9,M,,*40

----
Resp:

OK



+CIPRCV,2:40
CLOSED
----
Msg: Send Completed!
Resp:
AT+CIPSTATUS
+CIPSTATUS:
STATE:CLOSED
----
Resp:
AT+CIPSTART="TCP","api.thingspeak.com",80
CONNECT OK
----
Msg: Connected!
Resp:
AT+GPSRD=5

OK
----
Msg: GPS Read Set!
Msg: Getting data from GPS using AT Cmd
Resp:
$GNGGA,173435.000,4900.5351,N,00825.5098,E,1,7,3.07,173.1,M,47.9,M,,*4C
$GPGSA,A,3,02,20,12,25,,,,,,,,,3.23,3.07,0.99*00
$BDGSA,A,3,08,30,13,,,,,,,,,,3.23,3.07,0.99*1C
$GPGSV,3,1,12,29,84,207,20,25,65,093,35,31,54,287,14,02,31,052,37*78
$GPGSV,3,2,12,12,28,097,34,26,20,289,15,18,13,178,13,20,10,078,34*76
$GPGSV,3,3,12,32,10,233,17,05,01,104,,04,01,345,,36,,,*4D
$BDGSV,2,1,07,29,76,138,18,26,38,304,,13,37,068,32,08,35,055,31*68
$BDGSV,2,2,07,30,33,052,34,05,16,122,,02,01,101,*5C
$GNRMC,173435.000,A,4900.5351,N,00825.5098,E,0.252,76.57,110122,,,A*74
$GNVTG,76.57,T,,M,0.252,N,0.468,K,A*1F
---
Msg: Getting data from GPS using AT done
Resp:
AT+GPSRD=0

OK
----
Msg: GPS Read Off!
Msg: Getting data from Sensors
Resp:
AT+CIPSEND

>
----
Msg: Send Started!
Resp:
GET https://api.thingspeak.com/update?api_key=AYKVFH212TKGNW2B&field1=28.60&field2=25.81&field3=1019.57&field4=105.30&field5=110.60&field6=0&field7=0&field8=$GNGGA,173435.000,4900.5351,N,00825.5098,E,1,7,3.07,173.1,M,47.9,M,,*4C

----
Resp:

OK



+CIPRCV,2:41
CLOSED
----
Msg: Send Completed!
Resp:
AT+CIPSTATUS
+CIPSTATUS:
STATE:CLOSED
----
Resp:
AT+CIPSTART="TCP","api.thingspeak.com",80
CONNECT OK
----
Msg: Connected!
Resp:
AT+GPSRD=5

OK
----
Msg: GPS Read Set!
Msg: Getting data from GPS using AT Cmd
Resp:
$GNGGA,173455.000,4900.5340,N,00825.5170,E,1,7,3.08,180.7,M,47.9,M,,*48
$GPGSA,A,3,02,20,12,25,,,,,,,,,3.23,3.08,0.99*0F
$BDGSA,A,3,08,30,13,,,,,,,,,,3.23,3.08,0.99*13
$GPGSV,3,1,12,29,84,207,19,25,65,094,34,31,54,287,11,02,31,052,37*71
$GPGSV,3,2,12,12,28,098,34,26,20,289,21,18,13,178,13,20,10,078,33*79
$GPGSV,3,3,12,32,10,233,15,05,01,104,,04,01,345,,41,,,*4F
$BDGSV,2,1,07,29,76,138,16,26,38,304,,13,37,068,32,08,35,055,31*66
$BDGSV,2,2,07,30,33,052,35,05,16,122,,02,01,101,*5D
$GNRMC,173455.000,A,4900.5340,N,00825.5170,E,2.235,79.45,110122,,,A*7A
$GNVTG,79.45,T,,M,2.235,N,4.142,K,A*19
---
Msg: Getting data from GPS using AT done
Resp:
AT+GPSRD=0

OK
----
Msg: GPS Read Off!
Msg: Getting data from Sensors
Resp:
AT+CIPSEND

>
----
Msg: Send Started!
Resp:
GET https://api.thingspeak.com/update?api_key=AYKVFH212TKGNW2B&field1=28.65&field2=25.82&field3=1019.57&field4=107.10&field5=112.50&field6=0&field7=0&field8=$GNGGA,173455.000,4900.5340,N,00825.5170,E,1,7,3.08,180.7,M,47.9,M,,*48

----
Resp:

OK



+CIPRCV,2:42
CLOSED
----
Msg: Send Completed!
Resp:
AT+CIPSTATUS
+CIPSTATUS:
STATE:CLOSED
----
Resp:
AT+CIPSTART="TCP","api.thingspeak.com",80
CONNECT OK
----
Msg: Connected!
Resp:
AT+GPSRD=5

OK
----
Msg: GPS Read Set!
Msg: Getting data from GPS using AT Cmd
Resp:
$GNGGA,173516.000,4900.5327,N,00825.5128,E,1,8,1.76,181.4,M,47.9,M,,*44
$GPGSA,A,3,02,31,20,12,25,,,,,,,,1.99,1.76,0.92*0E
$BDGSA,A,3,08,30,13,,,,,,,,,,1.99,1.76,0.92*10
$GPGSV,3,1,12,29,85,206,19,25,65,094,33,31,55,286,15,02,31,052,38*7D
$GPGSV,3,2,12,12,28,098,25,26,20,289,18,18,13,178,15,20,10,078,34*72
$GPGSV,3,3,12,32,10,233,13,05,01,104,,04,01,345,,46,,,*4E
$BDGSV,2,1,07,29,76,138,16,26,38,304,,13,37,068,32,08,35,055,31*66
$BDGSV,2,2,07,30,33,052,35,05,16,122,,02,01,101,*5D
$GNRMC,173516.000,A,4900.5327,N,00825.5128,E,1.642,62.36,110122,,,A*79
$GNVTG,62.36,T,,M,1.642,N,3.042,K,A*16
---
Msg: Getting data from GPS using AT done
Resp:
AT+GPSRD=0

OK
----
Msg: GPS Read Off!
Msg: Getting data from Sensors
Resp:
AT+CIPSEND

>
----
Msg: Send Started!
Resp:
GET https://api.thingspeak.com/update?api_key=AYKVFH212TKGNW2B&field1=28.69&field2=25.92&field3=1019.56&field4=108.30&field5=113.80&field6=0&field7=0&field8=$GNGGA,173516.000,4900.5327,N,00825.5128,E,1,8,1.76,181.4,M,47.9,M,,*44

----
Resp:

OK



+CIPRCV,2:43
CLOSED
----
Msg: Send Completed!
Resp:
AT+CIPSTATUS
+CIPSTATUS:
STATE:CLOSED
----
Resp:
AT+CIPSTART="TCP","api.thingspeak.com",80
CONNECT OK
----
Msg: Connected!
Resp:
AT+GPSRD=5

OK
----
Msg: GPS Read Set!
Msg: Getting data from GPS using AT Cmd
Resp:
$GNGGA,173536.000,4900.5290,N,00825.5096,E,1,8,1.75,181.5,M,47.9,M,,*4D
$GPGSA,A,3,02,31,20,12,25,,,,,,,,1.98,1.75,0.92*0C
$BDGSA,A,3,08,30,13,,,,,,,,,,1.98,1.75,0.92*12
$GPGSV,3,1,12,29,85,206,21,25,65,094,32,31,55,286,19,02,31,052,38*7B
$GPGSV,3,2,12,12,28,098,33,26,20,289,18,18,13,178,12,20,10,078,33*75
$GPGSV,3,3,12,32,10,233,,05,01,104,,04,01,345,,51,,,*4A
$BDGSV,2,1,07,29,77,135,18,26,38,304,,13,37,068,33,08,35,055,30*64
$BDGSV,2,2,07,30,32,052,35,05,16,122,,02,01,101,*5C
$GNRMC,173536.000,A,4900.5290,N,00825.5096,E,2.689,67.41,110122,,,A*73
$GNVTG,67.41,T,,M,2.689,N,4.983,K,A*14
---
Msg: Getting data from GPS using AT done
Resp:
AT+GPSRD=0

OK
----
Msg: GPS Read Off!
Msg: Getting data from Sensors
Resp:
AT+CIPSEND

>
----
Msg: Send Started!
Resp:
GET https://api.thingspeak.com/update?api_key=AYKVFH212TKGNW2B&field1=28.73&field2=25.67&field3=1019.56&field4=113.50&field5=119.20&field6=0&field7=0&field8=$GNGGA,173536.000,4900.5290,N,00825.5096,E,1,8,1.75,181.5,M,47.9,M,,*4D

----
Resp:

OK



+CIPRCV,2:44
CLOSED
----
Msg: Send Completed!
Resp:
AT+CIPSTATUS
+CIPSTATUS:
STATE:CLOSED
----
Resp:
AT+CIPSTART="TCP","api.thingspeak.com",80
CONNECT OK
----
Msg: Connected!
Resp:
AT+GPSRD=5

OK
----
Msg: GPS Read Set!
Msg: Getting data from GPS using AT Cmd
Resp:
$GNGGA,173556.000,4900.5284,N,00825.4957,E,1,7,3.09,181.4,M,47.9,M,,*4C
$GPGSA,A,3,02,20,12,25,,,,,,,,,3.25,3.09,0.99*08
$BDGSA,A,3,08,30,13,,,,,,,,,,3.25,3.09,0.99*14
$GPGSV,3,1,12,29,85,206,17,25,65,094,31,31,55,286,14,37,32,162,*7C
$GPGSV,3,2,12,02,31,051,37,12,27,098,31,26,20,289,15,18,13,178,16*7D
$GPGSV,3,3,12,20,10,078,35,32,10,233,,04,02,344,,05,01,103,*71
$BDGSV,2,1,07,29,77,135,15,26,38,304,,13,37,068,31,08,35,055,30*6B
$BDGSV,2,2,07,30,32,052,35,05,16,122,,02,01,101,*5C
$GNRMC,173556.000,A,4900.5284,N,00825.4957,E,0.885,255.92,110122,,,A*48
$GNVTG,255.92,T,,M,0.885,N,1.639,K,A*22
---
Msg: Getting data from GPS using AT done
Resp:
AT+GPSRD=0

OK
----
Msg: GPS Read Off!
Msg: Getting data from Sensors
Resp:
AT+CIPSEND

>
----
Msg: Send Started!
Resp:
GET https://api.thingspeak.com/update?api_key=AYKVFH212TKGNW2B&field1=28.77&field2=25.66&field3=1019.55&field4=114.70&field5=120.50&field6=0&field7=0&field8=$GNGGA,173556.000,4900.5284,N,00825.4957,E,1,7,3.09,181.4,M,47.9,M,,*4C

----
Resp:

OK



+CIPRCV,2:45
CLOSED
----
Msg: Send Completed!
Resp:
AT+CIPSTATUS
+CIPSTATUS:
STATE:CLOSED
----
Resp:
AT+CIPSTART="TCP","api.thingspeak.com",80
CONNECT OK
----
Msg: Connected!
Resp:
AT+GPSRD=5

OK
----
Msg: GPS Read Set!
Msg: Getting data from GPS using AT Cmd
Resp:
$GNGGA,173617.000,4900.5308,N,00825.4996,E,1,7,3.10,181.3,M,47.9,M,,*4D
$GPGSA,A,3,02,20,12,25,,,,,,,,,3.25,3.10,0.99*00
$BDGSA,A,3,08,30,13,,,,,,,,,,3.25,3.10,0.99*1C
$GPGSV,3,1,12,29,85,204,19,25,64,095,33,31,55,286,15,02,31,051,36*72
$GPGSV,3,2,12,33,29,210,,12,27,098,34,26,21,290,23,18,14,178,15*78
$GPGSV,3,3,12,20,10,077,35,32,09,233,,04,02,344,,05,01,103,24*70
$BDGSV,2,1,07,29,77,135,15,26,38,304,,13,37,068,32,08,35,055,29*60
$BDGSV,2,2,07,30,32,052,35,05,16,122,,02,01,101,*5C
$GNRMC,173617.000,A,4900.5308,N,00825.4996,E,0.195,165.54,110122,,,A*44
$GNVTG,165.54,T,,M,0.195,N,0.361,K,A*29
---
Msg: Getting data from GPS using AT done
Resp:
AT+GPSRD=0

OK
----
Msg: GPS Read Off!
Msg: Getting data from Sensors
Resp:
AT+CIPSEND

>
----
Msg: Send Started!
Resp:
GET https://api.thingspeak.com/update?api_key=AYKVFH212TKGNW2B&field1=28.82&field2=25.71&field3=1019.55&field4=115.80&field5=121.60&field6=0&field7=0&field8=$GNGGA,173617.000,4900.5308,N,00825.4996,E,1,7,3.10,181.3,M,47.9,M,,*4D

----
Resp:

OK



+CIPRCV,2:46
CLOSED
----
Msg: Send Completed!
Resp:
AT+CIPSTATUS
+CIPSTATUS:
STATE:CLOSED
----
Resp:
AT+CIPSTART="TCP","api.thingspeak.com",80
CONNECT OK
----
Msg: Connected!
Resp:
AT+GPSRD=5

OK
----
Msg: GPS Read Set!
Msg: Getting data from GPS using AT Cmd
Resp:
$GNGGA,173637.000,4900.5365,N,00825.5024,E,1,9,1.65,180.7,M,47.9,M,,*4E
$GPGSA,A,3,02,31,20,12,25,29,,,,,,,1.89,1.65,0.92*06
$BDGSA,A,3,08,30,13,,,,,,,,,,1.89,1.65,0.92*13
$GPGSV,3,1,12,29,85,204,19,25,64,095,34,31,55,286,17,02,31,051,36*77
$GPGSV,3,2,12,12,27,098,36,26,21,290,22,18,14,178,10,44,12,116,*73
$GPGSV,3,3,12,20,10,077,34,32,09,233,,04,02,344,,05,01,103,25*70
$BDGSV,2,1,07,29,77,135,14,26,38,304,,13,37,067,33,08,35,055,30*67
$BDGSV,2,2,07,30,32,052,35,05,16,122,,02,01,101,*5C
$GNRMC,173637.000,A,4900.5365,N,00825.5024,E,0.499,84.03,110122,,,A*79
$GNVTG,84.03,T,,M,0.499,N,0.924,K,A*17
---
Msg: Getting data from GPS using AT done
Resp:
AT+GPSRD=0

OK
----
Msg: GPS Read Off!
Msg: Getting data from Sensors
Resp:
AT+CIPSEND

>
----
Msg: Send Started!
Resp:
GET https://api.thingspeak.com/update?api_key=AYKVFH212TKGNW2B&field1=28.86&field2=25.69&field3=1019.56&field4=112.30&field5=118.00&field6=0&field7=0&field8=$GNGGA,173637.000,4900.5365,N,00825.5024,E,1,9,1.65,180.7,M,47.9,M,,*4E

----
Resp:

OK



+CIPRCV,2:47
CLOSED
----
Msg: Send Completed!
Resp:
AT+CIPSTATUS
+CIPSTATUS:
STATE:CLOSED
----
Resp:
AT+CIPSTART="TCP","api.thingspeak.com",80
CONNECT OK
----
Msg: Connected!
Resp:
AT+GPSRD=5

OK
----
Msg: GPS Read Set!
Msg: Getting data from GPS using AT Cmd
Resp:
$GNGGA,173657.000,4900.5328,N,00825.5034,E,1,9,1.64,177.5,M,47.9,M,,*4B
$GPGSA,A,3,02,31,20,12,25,29,,,,,,,1.88,1.64,0.92*06
$BDGSA,A,3,08,30,13,,,,,,,,,,1.88,1.64,0.92*13
$GPGSV,3,1,12,29,85,204,21,25,64,095,33,31,55,286,17,02,31,051,35*78
$GPGSV,3,2,12,39,31,158,,12,27,098,32,26,21,290,16,18,14,178,*70
$GPGSV,3,3,12,20,10,077,33,32,09,233,,04,02,344,,05,01,103,25*77
$BDGSV,2,1,07,29,77,133,17,26,39,304,,13,37,067,32,08,35,055,30*62
$BDGSV,2,2,07,30,32,052,36,05,16,122,,02,01,101,*5F
$GNRMC,173657.000,A,4900.5328,N,00825.5034,E,0.443,45.90,110122,,,A*77
$GNVTG,45.90,T,,M,0.443,N,0.822,K,A*10
---
Msg: Getting data from GPS using AT done
Resp:
AT+GPSRD=0

OK
----
Msg: GPS Read Off!
