created_at,entry_id,field1,field2,field3,field4,field5,field6,field7,field8,latitude,longitude,elevation,status
2022-03-30T17:03:37+02:00,1,24.20,39.68,986.54,246.30,258.70,0,-127.00,"$GNGGA,150333.095,4900.7310,N,00825.4077,E,0,0,,105.6,M,47.9,M,,*5D",,,,
2022-03-30T17:03:58+02:00,2,24.42,38.76,986.54,225.40,236.70,0,-127.00,"$GNGGA,150354.087,4900.7310,N,00825.4077,E,0,0,,105.6,M,47.9,M,,*5F",,,,
2022-03-30T17:04:18+02:00,3,24.90,36.93,986.56,203.60,213.80,0,-127.00,"$GNGGA,150414.087,4900.7310,N,00825.4077,E,0,0,,105.6,M,47.9,M,,*5C",,,,
2022-03-30T17:04:38+02:00,4,25.52,35.30,986.58,195.80,205.60,0,-127.00,"$GNGGA,150434.086,4900.7310,N,00825.4077,E,0,0,,105.6,M,47.9,M,,*5F",,,,
2022-03-30T17:04:59+02:00,5,26.20,33.93,986.59,194.40,204.20,0,-127.00,"$GNGGA,150455.085,4900.7310,N,00825.4077,E,0,0,,105.6,M,47.9,M,,*5B",,,,
2022-03-30T17:05:19+02:00,6,26.89,32.93,986.61,193.20,202.90,0,-127.00,"$GNGGA,150515.085,4900.7310,N,00825.4077,E,0,0,,105.6,M,47.9,M,,*5E",,,,
2022-03-30T17:05:39+02:00,7,27.57,32.05,986.61,194.90,204.70,0,-127.00,"$GNGGA,150535.085,4900.7310,N,00825.4077,E,0,0,,105.6,M,47.9,M,,*5C",,,,
2022-03-30T17:06:00+02:00,8,28.23,31.34,986.63,194.30,204.10,0,-127.00,"$GNGGA,150556.085,4900.7310,N,00825.4077,E,0,0,,105.6,M,47.9,M,,*59",,,,
2022-03-30T17:06:22+02:00,9,28.85,30.72,986.63,193.40,203.10,0,-127.00,"$GNGGA,150617.085,4900.7310,N,00825.4077,E,0,0,,105.6,M,47.9,M,,*5F",,,,
2022-03-30T17:06:42+02:00,10,29.44,30.19,986.63,191.90,201.50,0,-127.00,"$GNGGA,150638.085,4900.7310,N,00825.4077,E,0,0,,105.6,M,47.9,M,,*52",,,,
2022-03-30T17:07:04+02:00,11,29.99,29.74,986.63,189.70,199.20,0,-127.00,"$GNGGA,150659.085,4900.7310,N,00825.4077,E,0,0,,105.6,M,47.9,M,,*55",,,,
2022-03-30T17:07:23+02:00,12,30.50,29.35,986.63,193.70,203.40,0,-127.00,"$GNGGA,150719.085,4900.7310,N,00825.4077,E,0,0,,105.6,M,47.9,M,,*50",,,,
2022-03-30T17:07:43+02:00,13,30.98,28.98,986.63,191.00,200.60,0,-127.00,"$GNGGA,150739.085,4900.7310,N,00825.4077,E,0,0,,105.6,M,47.9,M,,*52",,,,
2022-03-30T17:08:06+02:00,14,31.43,28.61,986.63,189.00,198.50,0,-127.00,"$GNGGA,150759.306,9000.0000,N,00000.0000,E,0,0,,137.0,M,13.0,M,,*59",,,,
2022-03-30T17:08:26+02:00,15,31.87,28.24,986.63,183.50,192.70,0,-127.00,"$GNGGA,150822.093,9000.0000,N,00000.0000,E,0,0,,137.0,M,13.0,M,,*55",,,,
2022-03-30T17:08:47+02:00,16,32.27,27.92,986.63,186.00,195.40,0,-127.00,"$GNGGA,150842.086,9000.0000,N,00000.0000,E,0,0,,137.0,M,13.0,M,,*57",,,,
2022-03-30T17:09:07+02:00,17,32.66,27.60,986.64,187.50,196.90,0,-127.00,"$GNGGA,150903.292,9000.0000,N,00000.0000,E,0,0,,137.0,M,13.0,M,,*54",,,,
2022-03-30T17:09:27+02:00,18,33.01,27.31,986.65,184.20,193.50,0,-127.00,"$GNGGA,150923.095,9000.0000,N,00000.0000,E,0,0,,137.0,M,13.0,M,,*53",,,,
2022-03-30T17:09:47+02:00,19,33.35,27.04,986.64,185.30,194.60,0,-127.00,"$GNGGA,150943.095,9000.0000,N,00000.0000,E,0,0,,137.0,M,13.0,M,,*55",,,,
2022-03-30T17:10:09+02:00,20,33.67,26.75,986.64,183.10,192.30,0,-127.00,"$GNGGA,151005.089,9000.0000,N,00000.0000,E,0,0,,137.0,M,13.0,M,,*52",,,,
2022-03-30T17:10:29+02:00,21,33.99,26.52,986.63,187.60,197.00,0,-127.00,"$GNGGA,151025.089,9000.0000,N,00000.0000,E,0,0,,137.0,M,13.0,M,,*50",,,,
2022-03-30T17:10:50+02:00,22,34.29,26.24,986.64,184.40,193.70,0,-127.00,"$GNGGA,151045.306,9000.0000,N,00000.0000,E,0,0,,137.0,M,13.0,M,,*52",,,,
2022-03-30T17:11:11+02:00,23,34.58,25.87,986.64,188.70,198.20,0,-127.00,"$GNGGA,151107.091,9000.0000,N,00000.0000,E,0,0,,137.0,M,13.0,M,,*58",,,,
2022-03-30T17:11:31+02:00,24,34.87,25.57,986.64,190.30,199.90,0,-127.00,"$GNGGA,151127.091,9000.0000,N,00000.0000,E,0,0,,137.0,M,13.0,M,,*5A",,,,
2022-03-30T17:11:51+02:00,25,35.13,25.53,986.65,191.40,201.00,0,-127.00,"$GNGGA,151147.091,9000.0000,N,00000.0000,E,0,0,,137.0,M,13.0,M,,*5C",,,,
2022-03-30T17:12:13+02:00,26,35.37,25.46,986.65,186.30,195.70,0,-127.00,"$GNGGA,151208.087,9000.0000,N,00000.0000,E,0,0,,137.0,M,13.0,M,,*53",,,,
2022-03-30T17:12:33+02:00,27,35.60,25.33,986.66,184.10,193.40,0,-127.00,"$GNGGA,151228.092,9000.0000,N,00000.0000,E,0,0,,137.0,M,13.0,M,,*55",,,,
2022-03-30T17:12:53+02:00,28,35.83,25.13,986.66,184.70,194.00,0,-127.00,"$GNGGA,151249.096,9000.0000,N,00000.0000,E,0,0,,137.0,M,13.0,M,,*56",,,,
2022-03-30T17:13:14+02:00,29,36.05,24.92,986.66,188.40,197.90,0,-127.00,"$GNGGA,151309.306,9000.0000,N,00000.0000,E,0,0,,137.0,M,13.0,M,,*59",,,,
2022-03-30T17:13:33+02:00,30,36.26,24.74,986.65,194.10,203.90,0,-127.00,"$GNGGA,151329.089,9000.0000,N,00000.0000,E,0,0,,137.0,M,13.0,M,,*5F",,,,
2022-03-30T17:13:53+02:00,31,36.46,24.57,986.65,200.50,210.60,0,-127.00,"$GNGGA,151349.089,9000.0000,N,00000.0000,E,0,0,,137.0,M,13.0,M,,*59",,,,
2022-03-30T17:14:13+02:00,32,36.65,24.40,986.65,206.60,217.00,0,-127.00,"$GNGGA,151409.089,9000.0000,N,00000.0000,E,0,0,,137.0,M,13.0,M,,*5A",,,,
2022-03-30T17:14:33+02:00,33,36.84,24.18,986.65,203.20,213.40,0,-127.00,"$GNGGA,151429.089,9000.0000,N,00000.0000,E,0,0,,137.0,M,13.0,M,,*58",,,,
2022-03-30T17:14:53+02:00,34,37.02,24.02,986.65,203.30,213.50,0,-127.00,"$GNGGA,151449.088,9000.0000,N,00000.0000,E,0,0,,137.0,M,13.0,M,,*5F",,,,
2022-03-30T17:15:14+02:00,35,37.18,23.89,986.65,196.70,206.60,0,-127.00,"$GNGGA,151510.088,9000.0000,N,00000.0000,E,0,0,,137.0,M,13.0,M,,*52",,,,
2022-03-30T17:15:35+02:00,36,37.34,23.75,986.66,193.00,202.70,0,-127.00,"$GNGGA,151530.087,9000.0000,N,00000.0000,E,0,0,,137.0,M,13.0,M,,*5F",,,,
2022-03-30T17:15:54+02:00,37,37.50,23.59,986.65,195.00,204.80,0,-127.00,"$GNGGA,151550.090,9000.0000,N,00000.0000,E,0,0,,137.0,M,13.0,M,,*5F",,,,
2022-03-30T17:16:14+02:00,38,37.66,23.42,986.65,199.40,209.40,0,-127.00,"$GNGGA,151610.105,9000.0000,N,00000.0000,E,0,0,,137.0,M,13.0,M,,*55",,,,
2022-03-30T17:16:34+02:00,39,37.81,23.27,986.65,203.50,213.70,0,-127.00,"$GNGGA,151630.103,9000.0000,N,00000.0000,E,0,0,,137.0,M,13.0,M,,*51",,,,
2022-03-30T17:16:55+02:00,40,37.96,23.14,986.65,196.00,205.90,0,-127.00,"$GNGGA,151650.088,9000.0000,N,00000.0000,E,0,0,,137.0,M,13.0,M,,*55",,,,
2022-03-30T17:17:15+02:00,41,38.10,23.02,986.63,188.50,198.00,0,-127.00,"$GNGGA,151711.106,9000.0000,N,00000.0000,E,0,0,,137.0,M,13.0,M,,*56",,,,
2022-03-30T17:17:35+02:00,42,38.24,22.89,986.62,183.60,192.80,0,-127.00,"$GNGGA,151731.089,9000.0000,N,00000.0000,E,0,0,,137.0,M,13.0,M,,*52",,,,
2022-03-30T17:17:55+02:00,43,38.38,22.75,986.61,186.50,195.90,0,-127.00,"$GNGGA,151751.089,9000.0000,N,00000.0000,E,0,0,,137.0,M,13.0,M,,*54",,,,
2022-03-30T17:18:16+02:00,44,38.51,22.59,986.61,192.80,202.50,0,-127.00,"$GNGGA,151811.304,9000.0000,N,00000.0000,E,0,0,,137.0,M,13.0,M,,*59",,,,
2022-03-30T17:18:35+02:00,45,38.64,22.49,986.60,204.90,215.20,0,-127.00,"$GNGGA,151831.090,9000.0000,N,00000.0000,E,0,0,,137.0,M,13.0,M,,*55",,,,
2022-03-30T17:18:56+02:00,46,38.77,22.36,986.59,202.00,212.20,0,-127.00,"$GNGGA,151851.304,9000.0000,N,00000.0000,E,0,0,,137.0,M,13.0,M,,*5D",,,,
2022-03-30T17:19:17+02:00,47,38.89,22.25,986.57,194.20,204.00,0,-127.00,"$GNGGA,151912.000,4900.5138,N,00825.4494,E,1,3,3.74,101.8,M,47.9,M,,*4C",,,,
2022-03-30T17:19:39+02:00,48,39.00,22.17,986.57,184.20,193.50,0,-127.00,"$GNGGA,151934.000,4900.5193,N,00825.4505,E,1,3,3.75,101.9,M,47.9,M,,*40",,,,
2022-03-30T17:20:01+02:00,49,39.12,22.06,986.56,185.80,195.10,0,-127.00,"$GNGGA,151956.000,4900.5075,N,00825.4180,E,1,3,3.77,102.4,M,47.9,M,,*48",,,,
2022-03-30T17:20:22+02:00,50,39.24,21.92,986.55,188.50,198.00,0,-127.00,"$GNGGA,152017.000,4900.5048,N,00825.4092,E,1,3,3.79,102.5,M,47.9,M,,*44",,,,
2022-03-30T17:20:43+02:00,51,39.35,21.78,986.54,190.10,199.70,0,-127.00,"$GNGGA,152038.000,4900.5197,N,00825.4452,E,1,3,3.80,101.9,M,47.9,M,,*4B",,,,
2022-03-30T17:21:04+02:00,52,39.47,21.65,986.53,196.50,206.40,0,-127.00,"$GNGGA,152059.000,4900.5249,N,00825.4614,E,1,3,3.82,102.6,M,47.9,M,,*42",,,,
2022-03-30T17:21:25+02:00,53,39.58,21.56,986.53,197.00,206.90,0,-127.00,"$GNGGA,152120.000,4900.5193,N,00825.4467,E,1,3,3.84,102.9,M,47.9,M,,*46",,,,
2022-03-30T17:21:46+02:00,54,39.70,21.46,986.53,194.90,204.70,0,-127.00,"$GNGGA,152141.000,4900.5213,N,00825.4471,E,1,3,3.86,102.6,M,47.9,M,,*40",,,,
2022-03-30T17:22:08+02:00,55,39.80,21.35,986.53,192.50,202.20,0,-127.00,"$GNGGA,152203.000,4900.5202,N,00825.4446,E,1,3,3.88,102.6,M,47.9,M,,*4F",,,,
2022-03-30T17:22:29+02:00,56,39.90,21.32,986.53,201.00,211.10,0,-127.00,"$GNGGA,152224.000,4900.5193,N,00825.4430,E,1,3,3.90,102.7,M,47.9,M,,*48",,,,
2022-03-30T17:22:51+02:00,57,40.00,21.17,986.52,201.70,211.80,0,-127.00,"$GNGGA,152246.000,4900.5171,N,00825.4360,E,1,3,3.92,102.7,M,47.9,M,,*40",,,,
2022-03-30T17:23:13+02:00,58,40.10,21.06,986.51,200.20,210.30,0,-127.00,"$GNGGA,152308.000,4900.5125,N,00825.4297,E,1,3,3.94,102.6,M,47.9,M,,*44",,,,
2022-03-30T17:23:35+02:00,59,40.19,20.96,986.51,201.80,211.90,0,-127.00,"$GNGGA,152330.000,4900.5062,N,00825.4115,E,1,3,3.97,102.7,M,47.9,M,,*46",,,,
2022-03-30T17:23:55+02:00,60,40.29,20.87,986.51,201.40,211.50,0,-127.00,"$GNGGA,152350.000,4900.5096,N,00825.4174,E,1,3,3.99,102.5,M,47.9,M,,*40",,,,
2022-03-30T17:24:16+02:00,61,40.39,20.75,986.51,197.10,207.00,0,-127.00,"$GNGGA,152411.000,4900.5144,N,00825.4390,E,1,3,4.01,102.7,M,47.9,M,,*40",,,,
2022-03-30T17:24:35+02:00,62,40.47,20.61,986.50,187.40,196.80,0,-127.00,"$GNGGA,152430.220,4900.5150,N,00825.4347,E,1,3,4.03,103.3,M,47.9,M,,*4B",,,,
2022-03-30T17:24:56+02:00,63,40.56,20.53,986.50,189.00,198.50,0,-127.00,"$GNGGA,152451.000,4900.5152,N,00825.4398,E,1,3,4.05,103.1,M,47.9,M,,*48",,,,
2022-03-30T17:25:17+02:00,64,40.65,20.46,986.49,189.90,199.40,0,-127.00,"$GNGGA,152512.000,4900.5170,N,00825.4376,E,1,3,4.07,102.8,M,47.9,M,,*44",,,,
2022-03-30T17:25:37+02:00,65,40.73,20.37,986.49,188.90,198.40,0,-127.00,"$GNGGA,152532.000,4900.5341,N,00825.4785,E,1,4,2.95,144.7,M,47.9,M,,*49",,,,
2022-03-30T17:25:58+02:00,66,40.81,20.30,986.48,190.00,199.60,0,-127.00,"$GNGGA,152553.000,4900.5300,N,00825.4749,E,1,4,2.96,136.1,M,47.9,M,,*4B",,,,
2022-03-30T17:26:19+02:00,67,40.89,20.23,986.48,194.80,204.60,0,-127.00,"$GNGGA,152614.000,4900.5310,N,00825.4734,E,1,4,2.97,133.2,M,47.9,M,,*47",,,,
2022-03-30T17:26:39+02:00,68,40.96,20.17,986.47,199.70,209.70,0,-127.00,"$GNGGA,152634.000,4900.5326,N,00825.4752,E,1,4,2.97,133.7,M,47.9,M,,*45",,,,
2022-03-30T17:26:59+02:00,69,41.04,20.09,986.47,200.00,210.10,0,-127.00,"$GNGGA,152654.000,4900.5312,N,00825.4685,E,1,4,2.98,134.0,M,47.9,M,,*40",,,,
2022-03-30T17:27:20+02:00,70,41.11,19.99,986.46,197.10,207.00,0,-127.00,"$GNGGA,152715.000,4900.5300,N,00825.4689,E,1,4,2.98,131.3,M,47.9,M,,*4D",,,,
2022-03-30T17:27:40+02:00,71,41.18,19.94,986.45,194.00,203.80,0,-127.00,"$GNGGA,152735.000,4900.5295,N,00825.4715,E,1,4,2.98,127.9,M,47.9,M,,*4B",,,,
2022-03-30T17:28:00+02:00,72,41.25,19.88,986.44,189.30,198.80,0,-127.00,"$GNGGA,152755.000,4900.5345,N,00825.4745,E,1,4,2.99,129.7,M,47.9,M,,*45",,,,
2022-03-30T17:28:21+02:00,73,41.32,19.81,986.43,185.60,194.90,0,-127.00,"$GNGGA,152816.000,4900.5336,N,00825.4725,E,1,4,2.99,130.8,M,47.9,M,,*48",,,,
2022-03-30T17:28:42+02:00,74,41.39,19.68,986.42,189.20,198.70,0,-127.00,"$GNGGA,152837.000,4900.5298,N,00825.4680,E,1,4,3.00,128.2,M,47.9,M,,*42",,,,
2022-03-30T17:29:03+02:00,75,41.46,19.63,986.42,191.40,201.00,0,-127.00,"$GNGGA,152858.000,4900.5295,N,00825.4681,E,1,4,3.01,126.0,M,47.9,M,,*4A",,,,
2022-03-30T17:29:24+02:00,76,41.53,19.56,986.41,188.20,197.70,0,-127.00,"$GNGGA,152919.000,4900.5298,N,00825.4652,E,1,4,3.01,123.3,M,47.9,M,,*4B",,,,
2022-03-30T17:29:44+02:00,77,41.59,19.50,986.40,189.40,198.90,0,-127.00,"$GNGGA,152939.000,4900.5270,N,00825.4587,E,1,4,3.02,121.6,M,47.9,M,,*40",,,,
2022-03-30T17:30:04+02:00,78,41.65,19.45,986.39,198.20,208.20,0,-127.00,"$GNGGA,152959.000,4900.5264,N,00825.4521,E,1,4,3.02,122.7,M,47.9,M,,*4D",,,,
2022-03-30T17:30:25+02:00,79,41.71,19.36,986.39,203.10,213.30,0,-127.00,"$GNGGA,153020.000,4900.5286,N,00825.4592,E,1,4,3.03,124.3,M,47.9,M,,*4C",,,,
2022-03-30T17:30:45+02:00,80,41.77,19.33,986.38,198.90,208.90,0,-127.00,"$GNGGA,153040.000,4900.5292,N,00825.4626,E,1,4,3.03,122.1,M,47.9,M,,*47",,,,
2022-03-30T17:31:06+02:00,81,41.83,19.24,986.38,192.60,202.30,0,-127.00,"$GNGGA,153101.000,4900.5201,N,00825.4515,E,1,4,3.04,120.8,M,47.9,M,,*46",,,,
2022-03-30T17:31:27+02:00,82,41.89,19.19,986.37,196.20,206.10,0,-127.00,"$GNGGA,153122.000,4900.5169,N,00825.4400,E,1,4,3.05,121.0,M,47.9,M,,*47",,,,
2022-03-30T17:31:47+02:00,83,41.94,19.13,986.36,197.20,207.10,0,-127.00,"$GNGGA,153142.000,4900.5252,N,00825.4593,E,1,4,3.05,123.5,M,47.9,M,,*46",,,,
2022-03-30T17:32:08+02:00,84,42.00,19.05,986.35,195.20,205.00,0,-127.00,"$GNGGA,153203.000,4900.5318,N,00825.4720,E,1,4,3.06,124.3,M,47.9,M,,*47",,,,
2022-03-30T17:32:28+02:00,85,42.06,18.98,986.35,193.60,203.30,0,-127.00,"$GNGGA,153223.000,4900.5263,N,00825.4599,E,1,4,3.07,124.2,M,47.9,M,,*48",,,,
2022-03-30T17:32:48+02:00,86,42.12,18.92,986.34,202.10,212.30,0,-127.00,"$GNGGA,153243.000,4900.5188,N,00825.4413,E,1,4,3.07,125.8,M,47.9,M,,*40",,,,
2022-03-30T17:33:09+02:00,87,42.17,18.75,986.34,209.60,220.10,0,-127.00,"$GNGGA,153304.000,4900.5283,N,00825.4612,E,1,4,3.08,129.4,M,47.9,M,,*46",,,,
2022-03-30T17:33:29+02:00,88,42.22,18.76,986.34,205.10,215.40,0,-127.00,"$GNGGA,153324.000,4900.5280,N,00825.4669,E,1,4,4.11,132.1,M,47.9,M,,*4B",,,,
2022-03-30T17:33:49+02:00,89,42.27,18.64,986.34,201.30,211.40,0,-127.00,"$GNGGA,153344.000,4900.5349,N,00825.4756,E,1,4,3.09,135.0,M,47.9,M,,*4C",,,,
2022-03-30T17:34:10+02:00,90,42.31,18.61,986.34,198.90,208.90,0,-127.00,"$GNGGA,153405.000,4900.5353,N,00825.4750,E,1,4,3.10,136.4,M,47.9,M,,*4C",,,,
2022-03-30T17:34:30+02:00,91,42.35,18.57,986.34,204.50,214.80,0,-127.00,"$GNGGA,153425.000,4900.5383,N,00825.4847,E,1,4,3.10,139.0,M,47.9,M,,*41",,,,
2022-03-30T17:34:50+02:00,92,42.39,18.47,986.34,199.90,209.90,0,-127.00,"$GNGGA,153445.000,4900.5392,N,00825.4845,E,1,4,3.11,141.0,M,47.9,M,,*4B",,,,
2022-03-30T17:35:11+02:00,93,42.44,18.42,986.33,198.20,208.20,0,-127.00,"$GNGGA,153506.000,4900.5437,N,00825.4960,E,1,4,3.12,143.8,M,47.9,M,,*4A",,,,
2022-03-30T17:35:31+02:00,94,42.47,18.41,986.32,193.90,203.60,0,-127.00,"$GNGGA,153526.000,4900.5352,N,00825.4795,E,1,4,3.12,145.8,M,47.9,M,,*4E",,,,
2022-03-30T17:35:52+02:00,95,42.52,18.39,986.31,192.70,202.40,0,-127.00,"$GNGGA,153547.000,4900.5367,N,00825.4812,E,1,4,3.13,145.8,M,47.9,M,,*4E",,,,
2022-03-30T17:36:13+02:00,96,42.56,18.32,986.31,193.50,203.20,0,-127.00,"$GNGGA,153608.000,4900.5418,N,00825.4975,E,1,4,3.14,147.8,M,47.9,M,,*4C",,,,
2022-03-30T17:36:33+02:00,97,42.59,18.34,986.30,196.00,205.90,0,-127.00,"$GNGGA,153628.000,4900.5411,N,00825.4960,E,1,4,3.15,148.2,M,47.9,M,,*47",,,,
2022-03-30T17:36:53+02:00,98,42.63,18.24,986.29,196.00,205.90,0,-127.00,"$GNGGA,153648.000,4900.5384,N,00825.4789,E,1,4,3.15,148.7,M,47.9,M,,*46",,,,
2022-03-30T17:37:14+02:00,99,42.67,18.21,986.29,195.30,205.10,0,-127.00,"$GNGGA,153709.000,4900.5400,N,00825.4880,E,1,4,4.30,147.5,M,47.9,M,,*42",,,,
2022-03-30T17:37:34+02:00,100,42.71,18.21,986.29,193.60,203.30,0,-127.00,"$GNGGA,153729.000,4900.5448,N,00825.4990,E,1,4,3.16,148.1,M,47.9,M,,*44",,,,
2022-03-30T17:37:54+02:00,101,42.75,18.16,986.28,195.80,205.60,0,-127.00,"$GNGGA,153749.000,4900.5415,N,00825.4926,E,1,4,3.18,146.7,M,47.9,M,,*41",,,,
2022-03-30T17:38:15+02:00,102,42.79,18.12,986.27,198.50,208.50,0,-127.00,"$GNGGA,153810.000,4900.5374,N,00825.4848,E,1,4,3.18,143.2,M,47.9,M,,*4B",,,,
2022-03-30T17:38:35+02:00,103,42.83,18.05,986.28,195.40,205.20,0,-127.00,"$GNGGA,153830.000,4900.5358,N,00825.4772,E,1,5,2.61,140.7,M,47.9,M,,*49",,,,
2022-03-30T17:38:55+02:00,104,42.87,18.01,986.28,192.10,201.80,0,-127.00,"$GNGGA,153850.000,4900.5361,N,00825.4829,E,1,5,2.61,137.2,M,47.9,M,,*41",,,,
2022-03-30T17:39:16+02:00,105,42.91,17.98,986.27,192.50,202.20,0,-127.00,"$GNGGA,153911.000,4900.5335,N,00825.4780,E,1,5,2.62,130.5,M,47.9,M,,*4B",,,,
2022-03-30T17:39:36+02:00,106,42.94,17.96,986.27,195.30,205.10,0,-127.00,"$GNGGA,153931.000,4900.5307,N,00825.4717,E,1,5,2.62,126.8,M,47.9,M,,*4C",,,,
2022-03-30T17:39:57+02:00,107,42.98,17.89,986.26,188.60,198.10,0,-127.00,"$GNGGA,153952.000,4900.5297,N,00825.4641,E,1,5,2.63,124.0,M,47.9,M,,*48",,,,
2022-03-30T17:40:18+02:00,108,43.01,17.83,986.26,187.50,196.90,0,-127.00,"$GNGGA,154013.000,4900.5309,N,00825.4716,E,1,5,2.63,122.6,M,47.9,M,,*46",,,,
2022-03-30T17:40:38+02:00,109,43.04,17.81,986.25,193.50,203.20,0,-127.00,"$GNGGA,154033.000,4900.5354,N,00825.4778,E,1,4,4.46,120.5,M,47.9,M,,*45",,,,
2022-03-30T17:40:58+02:00,110,43.08,17.70,986.24,203.80,214.00,0,-127.00,"$GNGGA,154053.000,4900.5334,N,00825.4663,E,1,5,2.64,120.6,M,47.9,M,,*4A",,,,
2022-03-30T17:41:19+02:00,111,43.11,17.65,986.24,201.50,211.60,0,-127.00,"$GNGGA,154114.000,4900.5314,N,00825.4580,E,1,5,2.64,120.0,M,47.9,M,,*42",,,,
2022-03-30T17:41:39+02:00,112,43.14,17.62,986.23,199.50,209.50,0,-127.00,"$GNGGA,154134.000,4900.5309,N,00825.4634,E,1,5,2.65,120.2,M,47.9,M,,*43",,,,
2022-03-30T17:42:00+02:00,113,43.18,17.59,986.22,202.40,212.60,0,-127.00,"$GNGGA,154155.000,4900.5349,N,00825.4740,E,1,4,4.53,118.0,M,47.9,M,,*49",,,,
2022-03-30T17:42:21+02:00,114,43.21,17.63,986.22,204.30,214.60,0,-127.00,"$GNGGA,154216.000,4900.5382,N,00825.4751,E,1,4,4.55,117.8,M,47.9,M,,*4B",,,,
2022-03-30T17:42:41+02:00,115,43.23,17.56,986.21,203.60,213.80,0,-127.00,"$GNGGA,154236.000,4900.5307,N,00825.4610,E,1,5,2.66,117.1,M,47.9,M,,*4E",,,,
2022-03-30T17:43:01+02:00,116,43.26,17.52,986.21,198.50,208.50,0,-127.00,"$GNGGA,154256.000,4900.5294,N,00825.4602,E,1,5,2.67,117.5,M,47.9,M,,*45",,,,
2022-03-30T17:43:22+02:00,117,43.29,17.39,986.20,193.60,203.30,0,-127.00,"$GNGGA,154317.000,4900.5323,N,00825.4746,E,1,5,2.67,116.2,M,47.9,M,,*4B",,,,
2022-03-30T17:43:42+02:00,118,43.32,17.40,986.19,190.90,200.50,0,-127.00,"$GNGGA,154337.000,4900.5346,N,00825.4760,E,1,5,2.68,115.8,M,47.9,M,,*48",,,,
2022-03-30T17:44:02+02:00,119,43.36,17.35,986.19,191.80,201.40,0,-127.00,"$GNGGA,154357.000,4900.5377,N,00825.4650,E,1,5,2.68,118.6,M,47.9,M,,*4D",,,,
2022-03-30T17:44:23+02:00,120,43.39,17.31,986.19,199.30,209.30,0,-127.00,"$GNGGA,154418.000,4900.5396,N,00825.4656,E,1,5,2.68,123.0,M,47.9,M,,*46",,,,
2022-03-30T17:44:44+02:00,121,43.41,17.18,986.19,200.70,210.80,0,-127.00,"$GNGGA,154439.000,4900.5396,N,00825.4806,E,1,5,2.69,126.8,M,47.9,M,,*42",,,,
2022-03-30T17:45:04+02:00,122,43.45,17.17,986.19,205.20,215.50,0,-127.00,"$GNGGA,154459.000,4900.5349,N,00825.4724,E,1,5,2.69,127.2,M,47.9,M,,*42",,,,
2022-03-30T17:45:25+02:00,123,43.48,17.14,986.18,205.10,215.40,0,-127.00,"$GNGGA,154520.000,4900.5346,N,00825.4524,E,1,5,2.70,127.3,M,47.9,M,,*49",,,,
2022-03-30T17:45:45+02:00,124,43.50,17.09,986.18,208.00,218.50,0,-127.00,"$GNGGA,154540.000,4900.5336,N,00825.4648,E,1,4,16.81,126.2,M,47.9,M,,*7B",,,,
2022-03-30T17:46:05+02:00,125,43.53,17.09,986.17,204.90,215.20,0,-127.00,"$GNGGA,154600.000,4900.5293,N,00825.4739,E,1,4,3.36,126.9,M,47.9,M,,*46",,,,
2022-03-30T17:46:26+02:00,126,43.56,17.01,986.16,194.10,203.90,0,-127.00,"$GNGGA,154621.000,4900.5328,N,00825.4670,E,1,4,3.37,126.8,M,47.9,M,,*48",,,,
2022-03-30T17:46:46+02:00,127,43.58,17.04,986.15,189.30,198.80,0,-127.00,"$GNGGA,154641.000,4900.5377,N,00825.4539,E,1,4,3.37,127.7,M,47.9,M,,*44",,,,
2022-03-30T17:47:06+02:00,128,43.61,16.98,986.13,187.90,197.30,0,-127.00,"$GNGGA,154701.000,4900.5343,N,00825.4684,E,1,4,3.38,127.8,M,47.9,M,,*43",,,,
2022-03-30T17:47:27+02:00,129,43.63,16.98,986.13,191.70,201.30,0,-127.00,"$GNGGA,154722.000,4900.5266,N,00825.4682,E,1,4,3.39,127.3,M,47.9,M,,*48",,,,
2022-03-30T17:47:47+02:00,130,43.65,16.97,986.12,189.50,199.00,0,-127.00,"$GNGGA,154742.000,4900.5279,N,00825.4581,E,1,4,19.12,126.0,M,47.9,M,,*70",,,,
2022-03-30T17:48:07+02:00,131,43.67,16.94,986.10,189.70,199.20,0,-127.00,"$GNGGA,154802.000,4900.5285,N,00825.4381,E,1,4,3.40,124.9,M,47.9,M,,*49",,,,
2022-03-30T17:48:28+02:00,132,43.69,16.89,986.10,190.20,199.80,0,-127.00,"$GNGGA,154823.000,4900.5219,N,00825.4603,E,1,4,3.41,122.8,M,47.9,M,,*46",,,,
2022-03-30T17:48:48+02:00,133,43.71,16.87,986.09,191.40,201.00,0,-127.00,"$GNGGA,154843.000,4900.5246,N,00825.4617,E,1,4,3.42,120.4,M,47.9,M,,*42",,,,
2022-03-30T17:49:08+02:00,134,43.74,16.81,986.09,192.30,202.00,0,-127.00,"$GNGGA,154903.000,4900.5251,N,00825.4600,E,1,4,20.91,117.6,M,47.9,M,,*7E",,,,
2022-03-30T17:49:29+02:00,135,43.75,16.78,986.08,196.10,206.00,0,-127.00,"$GNGGA,154924.000,4900.5278,N,00825.4392,E,1,3,5.54,118.2,M,47.9,M,,*4C",,,,
2022-03-30T17:49:49+02:00,136,43.77,16.79,986.07,195.40,205.20,0,-127.00,"$GNGGA,154944.000,4900.5247,N,00825.4632,E,1,3,5.53,118.6,M,47.9,M,,*4A",,,,
2022-03-30T17:50:09+02:00,137,43.79,16.78,986.07,197.40,207.30,0,-127.00,"$GNGGA,155004.000,4900.5166,N,00825.4554,E,1,3,5.52,119.1,M,47.9,M,,*42",,,,
2022-03-30T17:50:30+02:00,138,43.81,16.79,986.07,200.20,210.30,0,-127.00,"$GNGGA,155025.000,4900.5287,N,00825.4693,E,1,4,3.46,120.4,M,47.9,M,,*4E",,,,
2022-03-30T17:50:50+02:00,139,43.83,16.78,986.06,202.70,212.90,0,-127.00,"$GNGGA,155045.000,4900.5275,N,00825.4621,E,1,4,3.46,120.9,M,47.9,M,,*41",,,,
2022-03-30T17:51:10+02:00,140,43.85,16.65,986.07,203.50,213.70,0,-127.00,"$GNGGA,155105.000,4900.5343,N,00825.4710,E,1,4,3.47,121.8,M,47.9,M,,*42",,,,
2022-03-30T17:51:31+02:00,141,43.87,16.64,986.06,200.60,210.70,0,-127.00,"$GNGGA,155126.000,4900.5304,N,00825.4741,E,1,5,3.07,121.9,M,47.9,M,,*40",,,,
2022-03-30T17:51:51+02:00,142,43.89,16.64,986.06,201.80,211.90,0,-127.00,"$GNGGA,155146.000,4900.5324,N,00825.4785,E,1,5,3.49,122.6,M,47.9,M,,*4A",,,,
2022-03-30T17:52:12+02:00,143,43.92,16.54,986.05,201.90,212.00,0,-127.00,"$GNGGA,155207.000,4900.5374,N,00825.4765,E,1,5,3.49,125.7,M,47.9,M,,*41",,,,
2022-03-30T17:52:33+02:00,144,43.94,16.50,986.05,201.40,211.50,0,-127.00,"$GNGGA,155228.000,4900.5307,N,00825.4736,E,1,5,3.50,127.3,M,47.9,M,,*40",,,,
2022-03-30T17:52:54+02:00,145,43.97,16.49,986.04,198.60,208.60,0,-127.00,"$GNGGA,155249.000,4900.5318,N,00825.4847,E,1,5,3.51,129.1,M,47.9,M,,*4D",,,,
2022-03-30T17:53:15+02:00,146,43.99,16.42,986.03,195.00,204.80,0,-127.00,"$GNGGA,155310.000,4900.5365,N,00825.4728,E,1,5,3.52,131.9,M,47.9,M,,*4E",,,,
2022-03-30T17:53:36+02:00,147,44.01,16.42,986.04,188.20,197.70,0,-127.00,"$GNGGA,155331.000,4900.5311,N,00825.4821,E,1,5,3.53,133.3,M,47.9,M,,*41",,,,
2022-03-30T17:53:57+02:00,148,44.03,16.40,986.04,187.90,197.30,0,-127.00,"$GNGGA,155352.000,4900.5285,N,00825.4916,E,1,5,3.54,134.0,M,47.9,M,,*4E",,,,
2022-03-30T17:54:18+02:00,149,44.05,16.37,986.04,190.10,199.70,0,-127.00,"$GNGGA,155413.000,4900.5236,N,00825.5142,E,1,6,2.87,140.9,M,47.9,M,,*4A",,,,
2022-03-30T17:54:39+02:00,150,44.06,16.33,986.03,194.00,203.80,0,-127.00,"$GNGGA,155434.000,4900.5288,N,00825.4862,E,1,6,3.55,142.3,M,47.9,M,,*46",,,,
2022-03-30T17:55:00+02:00,151,44.08,16.29,986.02,191.50,201.10,0,-127.00,"$GNGGA,155455.000,4900.5351,N,00825.4762,E,1,6,2.88,141.1,M,47.9,M,,*4B",,,,
2022-03-30T17:55:21+02:00,152,44.08,16.23,986.01,192.20,201.90,0,-127.00,"$GNGGA,155516.000,4900.5312,N,00825.4883,E,1,6,3.58,144.3,M,47.9,M,,*41",,,,
2022-03-30T17:55:41+02:00,153,44.09,16.24,986.01,189.50,199.00,0,-127.00,"$GNGGA,155536.000,4900.5268,N,00825.4971,E,1,5,3.07,148.1,M,47.9,M,,*44",,,,
2022-03-30T17:56:02+02:00,154,44.10,16.25,986.01,188.20,197.70,0,-127.00,"$GNGGA,155557.000,4900.5265,N,00825.5100,E,1,6,3.59,154.4,M,47.9,M,,*41",,,,
2022-03-30T17:56:23+02:00,155,44.10,16.21,986.01,183.60,192.80,0,-127.00,"$GNGGA,155618.000,4900.5305,N,00825.5148,E,1,6,36.21,153.3,M,47.9,M,,*7B",,,,
2022-03-30T17:56:44+02:00,156,44.11,16.14,986.01,184.10,193.40,0,-127.00,"$GNGGA,155639.000,4900.5290,N,00825.5004,E,1,6,3.61,154.2,M,47.9,M,,*48",,,,
2022-03-30T17:57:04+02:00,157,44.12,16.07,986.00,183.30,192.50,0,-127.00,"$GNGGA,155659.000,4900.5339,N,00825.5347,E,1,6,3.62,154.2,M,47.9,M,,*4B",,,,
2022-03-30T17:57:25+02:00,158,44.12,16.04,985.99,187.60,197.00,0,-127.00,"$GNGGA,155720.000,4900.5251,N,00825.5307,E,1,6,3.63,153.1,M,47.9,M,,*4A",,,,
2022-03-30T17:57:45+02:00,159,44.13,16.04,985.99,186.90,196.30,0,-127.00,"$GNGGA,155740.000,4900.5275,N,00825.5252,E,1,6,3.64,152.1,M,47.9,M,,*4D",,,,
2022-03-30T17:58:06+02:00,160,44.14,16.00,985.99,187.70,197.10,0,-127.00,"$GNGGA,155800.000,4900.5370,N,00825.4962,E,1,6,3.65,151.1,M,47.9,M,,*49",,,,
2022-03-30T17:58:28+02:00,161,44.15,16.01,985.97,182.60,191.80,0,-127.00,"$GNGGA,155823.000,4900.5289,N,00825.4882,E,1,6,3.66,148.8,M,47.9,M,,*42",,,,
2022-03-30T17:58:49+02:00,162,44.16,15.95,985.97,178.70,187.70,0,-127.00,"$GNGGA,155844.000,4900.5290,N,00825.5019,E,1,6,3.67,146.2,M,47.9,M,,*45",,,,
2022-03-30T17:59:13+02:00,163,44.17,16.00,985.97,177.60,186.50,0,-127.00,"$GNGGA,155905.000,4900.5313,N,00825.5126,E,1,6,3.68,148.9,M,47.9,M,,*4C",,,,
2022-03-30T17:59:34+02:00,164,44.17,15.91,985.97,179.10,188.10,0,-127.00,"$GNGGA,155929.000,4900.5254,N,00825.5214,E,1,5,3.22,153.2,M,47.9,M,,*4E",,,,
2022-03-30T17:59:54+02:00,165,44.17,15.90,985.96,180.70,189.80,0,-127.00,"$GNGGA,155949.000,4900.5503,N,00825.5436,E,1,6,48.06,169.2,M,47.9,M,,*78",,,,
2022-03-30T18:00:15+02:00,166,44.18,15.92,985.94,181.20,190.30,0,-127.00,"$GNGGA,160010.000,4900.5333,N,00825.5558,E,1,6,3.71,170.5,M,47.9,M,,*47",,,,
2022-03-30T18:00:36+02:00,167,44.19,15.94,985.94,180.30,189.40,0,-127.00,"$GNGGA,160031.000,4900.5343,N,00825.5564,E,1,6,3.72,171.4,M,47.9,M,,*4F",,,,
2022-03-30T18:00:56+02:00,168,44.19,15.89,985.93,178.90,187.90,0,-127.00,"$GNGGA,160051.000,4900.5276,N,00825.5367,E,1,4,5.62,170.4,M,47.9,M,,*4F",,,,
2022-03-30T18:01:17+02:00,169,44.20,15.88,985.94,183.50,192.70,0,-127.00,"$GNGGA,160112.000,4900.5291,N,00825.5441,E,1,5,5.29,166.5,M,47.9,M,,*4B",,,,
2022-03-30T18:01:38+02:00,170,44.21,15.89,985.93,184.10,193.40,0,-127.00,"$GNGGA,160133.000,4900.5289,N,00825.5393,E,1,5,5.33,160.9,M,47.9,M,,*48",,,,
2022-03-30T18:02:00+02:00,171,44.21,15.84,985.93,186.00,195.40,0,-127.00,"$GNGGA,160154.000,4900.5396,N,00825.5222,E,1,5,5.38,157.2,M,47.9,M,,*49",,,,
2022-03-30T18:02:23+02:00,172,44.23,15.84,985.93,181.50,190.60,0,-127.00,"$GNGGA,160218.000,4900.5343,N,00825.4947,E,1,5,5.42,151.6,M,47.9,M,,*4C",,,,
2022-03-30T18:02:44+02:00,173,44.25,15.71,985.93,184.60,193.90,0,-127.00,"$GNGGA,160239.000,4900.5192,N,00825.4994,E,1,5,5.47,148.2,M,47.9,M,,*46",,,,
2022-03-30T18:03:04+02:00,174,44.26,15.75,985.94,183.70,192.90,0,-127.00,"$GNGGA,160259.000,4900.5393,N,00825.5006,E,1,5,3.30,147.0,M,47.9,M,,*4B",,,,
2022-03-30T18:03:25+02:00,175,44.28,15.74,985.93,184.10,193.40,0,-127.00,"$GNGGA,160320.000,4900.5631,N,00825.4876,E,1,5,5.56,149.6,M,47.9,M,,*49",,,,
2022-03-30T18:03:45+02:00,176,44.28,15.71,985.92,183.70,192.90,0,-127.00,"$GNGGA,160340.000,4900.5553,N,00825.4911,E,1,5,5.60,146.1,M,47.9,M,,*45",,,,
2022-03-30T18:04:05+02:00,177,44.30,15.67,985.93,180.40,189.50,0,-127.00,"$GNGGA,160400.000,4900.5512,N,00825.4823,E,1,5,5.65,145.0,M,47.9,M,,*44",,,,
2022-03-30T18:04:26+02:00,178,44.30,15.65,985.93,178.50,187.50,0,-127.00,"$GNGGA,160421.000,4900.5522,N,00825.4718,E,1,5,5.70,142.6,M,47.9,M,,*46",,,,
2022-03-30T18:04:46+02:00,179,44.31,15.68,985.92,179.50,188.50,0,-127.00,"$GNGGA,160441.000,4900.5435,N,00825.4730,E,1,5,5.75,140.2,M,47.9,M,,*4E",,,,
2022-03-30T18:05:07+02:00,180,44.32,15.67,985.93,182.00,191.20,0,-127.00,"$GNGGA,160502.000,4900.5338,N,00825.4887,E,1,5,5.80,137.5,M,47.9,M,,*4C",,,,
2022-03-30T18:05:28+02:00,181,44.32,15.68,985.93,180.60,189.70,0,-127.00,"$GNGGA,160523.000,4900.5384,N,00825.4807,E,1,5,4.71,135.7,M,47.9,M,,*4F",,,,
2022-03-30T18:05:49+02:00,182,44.32,15.68,985.93,181.40,190.50,0,-127.00,"$GNGGA,160544.000,4900.5414,N,00825.4745,E,1,6,5.91,135.5,M,47.9,M,,*47",,,,
2022-03-30T18:06:10+02:00,183,44.33,15.66,985.92,182.50,191.70,0,-127.00,"$GNGGA,160605.000,4900.5305,N,00825.4812,E,1,6,5.97,134.6,M,47.9,M,,*4F",,,,
2022-03-30T18:06:31+02:00,184,44.33,15.63,985.91,184.10,193.40,0,-127.00,"$GNGGA,160626.000,4900.5385,N,00825.4792,E,1,6,3.28,133.1,M,47.9,M,,*43",,,,
2022-03-30T18:06:52+02:00,185,44.34,15.57,985.91,187.30,196.70,0,-127.00,"$GNGGA,160647.000,4900.5466,N,00825.4638,E,1,6,3.29,134.7,M,47.9,M,,*4F",,,,
2022-03-30T18:07:13+02:00,186,44.34,15.61,985.92,187.40,196.80,0,-127.00,"$GNGGA,160708.000,4900.5283,N,00825.4746,E,1,6,6.14,132.9,M,47.9,M,,*43",,,,
2022-03-30T18:07:34+02:00,187,44.34,15.57,985.92,188.60,198.10,0,-127.00,"$GNGGA,160729.000,4900.5313,N,00825.4816,E,1,6,6.21,131.2,M,47.9,M,,*4C",,,,
2022-03-30T18:07:54+02:00,188,44.34,15.55,985.92,193.30,203.00,0,-127.00,"$GNGGA,160749.000,4900.5347,N,00825.4668,E,1,6,3.32,128.4,M,47.9,M,,*45",,,,
2022-03-30T18:08:15+02:00,189,44.34,15.56,985.92,198.60,208.60,0,-127.00,"$GNGGA,160810.000,4900.5378,N,00825.4724,E,1,6,3.33,125.6,M,47.9,M,,*4D",,,,
2022-03-30T18:08:35+02:00,190,44.35,15.54,985.92,198.00,208.00,0,-127.00,"$GNGGA,160830.000,4900.5357,N,00825.4629,E,1,6,3.34,125.1,M,47.9,M,,*4E",,,,
2022-03-30T18:08:56+02:00,191,44.35,15.51,985.91,191.30,200.90,0,-127.00,"$GNGGA,160851.000,4900.5369,N,00825.4589,E,1,6,3.35,124.7,M,47.9,M,,*4B",,,,
2022-03-30T18:09:17+02:00,192,44.34,15.51,985.91,191.40,201.00,0,-127.00,"$GNGGA,160912.000,4900.5332,N,00825.4701,E,1,6,3.36,127.8,M,47.9,M,,*4E",,,,
2022-03-30T18:09:38+02:00,193,44.34,15.46,985.91,193.10,202.80,0,-127.00,"$GNGGA,160933.000,4900.5395,N,00825.5096,E,1,6,3.37,135.9,M,47.9,M,,*4B",,,,
2022-03-30T18:09:59+02:00,194,44.35,15.44,985.91,189.00,198.50,0,-127.00,"$GNGGA,160954.000,4900.5431,N,00825.5106,E,1,6,3.38,135.6,M,47.9,M,,*4B",,,,
2022-03-30T18:10:19+02:00,195,44.35,15.46,985.91,183.20,192.40,0,-127.00,"$GNGGA,161014.000,4900.5453,N,00825.5062,E,1,7,3.31,135.5,M,47.9,M,,*4B",,,,
2022-03-30T18:10:40+02:00,196,44.36,15.43,985.91,183.80,193.00,0,-127.00,"$GNGGA,161035.000,4900.5429,N,00825.5032,E,1,7,3.32,138.4,M,47.9,M,,*4F",,,,
2022-03-30T18:11:01+02:00,197,44.36,15.43,985.92,185.70,195.00,0,-127.00,"$GNGGA,161056.000,4900.5471,N,00825.5053,E,1,7,3.34,140.5,M,47.9,M,,*48",,,,
2022-03-30T18:11:22+02:00,198,44.35,15.44,985.92,179.50,188.50,0,-127.00,"$GNGGA,161117.000,4900.5372,N,00825.4911,E,1,7,3.34,140.1,M,47.9,M,,*42",,,,
2022-03-30T18:11:43+02:00,199,44.36,15.43,985.92,173.10,181.80,0,-127.00,"$GNGGA,161138.000,4900.5323,N,00825.4816,E,1,7,3.36,141.6,M,47.9,M,,*49",,,,
2022-03-30T18:12:04+02:00,200,44.35,15.40,985.92,176.10,185.00,0,-127.00,"$GNGGA,161159.000,4900.5416,N,00825.4693,E,1,7,3.36,136.1,M,47.9,M,,*4B",,,,
2022-03-30T18:12:25+02:00,201,44.35,15.39,985.92,185.20,194.50,0,-127.00,"$GNGGA,161220.000,4900.5452,N,00825.4524,E,1,7,3.38,129.6,M,47.9,M,,*4E",,,,
2022-03-30T18:12:46+02:00,202,44.35,15.37,985.93,183.30,192.50,0,-127.00,"$GNGGA,161241.000,4900.5429,N,00825.4528,E,1,7,3.39,124.6,M,47.9,M,,*45",,,,
2022-03-30T18:13:07+02:00,203,44.35,15.27,985.92,181.40,190.50,0,-127.00,"$GNGGA,161302.000,4900.5321,N,00825.4694,E,1,7,3.40,133.8,M,47.9,M,,*4E",,,,
2022-03-30T18:13:28+02:00,204,44.36,15.31,985.92,176.00,184.90,0,-127.00,"$GNGGA,161323.000,4900.5312,N,00825.4990,E,1,7,3.41,147.6,M,47.9,M,,*4A",,,,
2022-03-30T18:13:49+02:00,205,44.36,15.31,985.92,173.70,182.40,0,-127.00,"$GNGGA,161344.000,4900.5550,N,00825.5188,E,1,7,6.47,153.7,M,47.9,M,,*4C",,,,
2022-03-30T18:14:10+02:00,206,44.35,15.27,985.93,167.50,175.90,0,-127.00,"$GNGGA,161405.000,4900.5623,N,00825.5394,E,1,7,3.43,168.1,M,47.9,M,,*49",,,,
2022-03-30T18:14:31+02:00,207,44.35,15.22,985.92,170.40,179.00,0,-127.00,"$GNGGA,161426.000,4900.5539,N,00825.5685,E,1,7,3.44,185.6,M,47.9,M,,*46",,,,
2022-03-30T18:14:52+02:00,208,44.35,15.21,985.92,175.20,184.00,0,-127.00,"$GNGGA,161447.000,4900.5479,N,00825.5767,E,1,7,3.45,192.0,M,47.9,M,,*48",,,,
2022-03-30T18:15:13+02:00,209,44.35,15.27,985.92,174.50,183.30,0,-127.00,"$GNGGA,161508.000,4900.5397,N,00825.5834,E,1,7,3.46,198.3,M,47.9,M,,*46",,,,
2022-03-30T18:15:34+02:00,210,44.35,15.25,985.92,173.20,181.90,0,-127.00,"$GNGGA,161529.000,4900.5629,N,00825.5673,E,1,7,3.47,196.5,M,47.9,M,,*41",,,,
2022-03-30T18:15:54+02:00,211,44.35,15.23,985.92,171.80,180.40,0,-127.00,"$GNGGA,161549.000,4900.5696,N,00825.5870,E,1,7,3.49,193.1,M,47.9,M,,*41",,,,
2022-03-30T18:16:15+02:00,212,44.35,15.19,985.93,171.20,179.80,0,-127.00,"$GNGGA,161610.000,4900.5679,N,00825.5841,E,1,7,3.49,193.1,M,47.9,M,,*4D",,,,
2022-03-30T18:16:36+02:00,213,44.35,15.20,985.92,171.80,180.40,0,-127.00,"$GNGGA,161631.000,4900.5673,N,00825.5686,E,1,7,3.51,181.7,M,47.9,M,,*4D",,,,
2022-03-30T18:16:57+02:00,214,44.34,15.18,985.92,179.40,188.40,0,-127.00,"$GNGGA,161652.000,4900.5669,N,00825.5530,E,1,7,3.52,168.5,M,47.9,M,,*4B",,,,
2022-03-30T18:17:18+02:00,215,44.34,15.22,985.93,181.70,190.80,0,-127.00,"$GNGGA,161713.000,4900.5376,N,00825.4918,E,1,8,2.66,148.0,M,47.9,M,,*4D",,,,
2022-03-30T18:17:39+02:00,216,44.34,15.21,985.92,177.80,186.70,0,-127.00,"$GNGGA,161734.000,4900.5305,N,00825.4780,E,1,7,2.72,138.3,M,47.9,M,,*4D",,,,
2022-03-30T18:18:00+02:00,217,44.33,15.14,985.93,174.10,182.90,0,-127.00,"$GNGGA,161755.000,4900.5331,N,00825.4806,E,1,7,2.73,129.0,M,47.9,M,,*4E",,,,
2022-03-30T18:18:21+02:00,218,44.33,15.13,985.93,181.00,190.10,0,-127.00,"$GNGGA,161816.000,4900.5300,N,00825.4780,E,1,8,2.68,118.0,M,47.9,M,,*42",,,,
2022-03-30T18:18:42+02:00,219,44.32,15.14,985.93,184.80,194.10,0,-127.00,"$GNGGA,161837.000,4900.5307,N,00825.4675,E,1,8,2.69,110.2,M,47.9,M,,*46",,,,
2022-03-30T18:19:03+02:00,220,44.32,15.10,985.92,183.90,193.10,0,-127.00,"$GNGGA,161858.000,4900.5325,N,00825.4416,E,1,8,2.69,95.5,M,47.9,M,,*73",,,,
2022-03-30T18:19:24+02:00,221,44.32,15.02,985.93,178.70,187.70,0,-127.00,"$GNGGA,161919.000,4900.5339,N,00825.4197,E,1,8,2.70,89.5,M,47.9,M,,*73",,,,
2022-03-30T18:19:45+02:00,222,44.31,15.04,985.92,178.90,187.90,0,-127.00,"$GNGGA,161940.000,4900.5316,N,00825.4386,E,1,8,2.71,92.9,M,47.9,M,,*77",,,,
2022-03-30T18:20:06+02:00,223,44.31,15.05,985.91,177.10,186.00,0,-127.00,"$GNGGA,162001.000,4900.5305,N,00825.4456,E,1,8,2.72,95.1,M,47.9,M,,*7C",,,,
2022-03-30T18:20:27+02:00,224,44.31,15.01,985.91,176.00,184.90,0,-127.00,"$GNGGA,162022.000,4900.5311,N,00825.4442,E,1,8,2.72,98.3,M,47.9,M,,*72",,,,
2022-03-30T18:20:48+02:00,225,44.30,14.99,985.91,177.50,186.40,0,-127.00,"$GNGGA,162043.000,4900.5318,N,00825.4539,E,1,8,2.73,99.3,M,47.9,M,,*71",,,,
2022-03-30T18:21:09+02:00,226,44.30,14.99,985.91,177.10,186.00,0,-127.00,"$GNGGA,162104.000,4900.5312,N,00825.4543,E,1,8,2.74,99.6,M,47.9,M,,*76",,,,
2022-03-30T18:21:30+02:00,227,44.29,14.98,985.92,176.00,184.90,0,-127.00,"$GNGGA,162125.000,4900.5301,N,00825.4601,E,1,8,2.74,98.3,M,47.9,M,,*76",,,,
2022-03-30T18:21:51+02:00,228,44.28,14.97,985.91,172.70,181.40,0,-127.00,"$GNGGA,162146.000,4900.5307,N,00825.4434,E,1,7,2.96,92.4,M,47.9,M,,*7F",,,,
2022-03-30T18:22:12+02:00,229,44.28,14.93,985.91,173.60,182.30,0,-127.00,"$GNGGA,162207.000,4900.5310,N,00825.4445,E,1,8,2.76,91.5,M,47.9,M,,*7A",,,,
2022-03-30T18:22:33+02:00,230,44.27,14.93,985.91,175.10,183.90,0,-127.00,"$GNGGA,162228.000,4900.5310,N,00825.4430,E,1,8,2.76,87.6,M,47.9,M,,*71",,,,
2022-03-30T18:22:54+02:00,231,44.27,14.97,985.90,179.20,188.20,0,-127.00,"$GNGGA,162249.000,4900.5291,N,00825.4430,E,1,8,2.77,89.7,M,47.9,M,,*70",,,,
2022-03-30T18:23:15+02:00,232,44.27,14.95,985.89,180.00,189.10,0,-127.00,"$GNGGA,162310.000,4900.5304,N,00825.4540,E,1,8,2.78,96.3,M,47.9,M,,*73",,,,
2022-03-30T18:23:36+02:00,233,44.26,14.94,985.89,180.30,189.40,0,-127.00,"$GNGGA,162331.000,4900.5277,N,00825.4611,E,1,8,2.78,99.2,M,47.9,M,,*7C",,,,
2022-03-30T18:23:57+02:00,234,44.27,14.91,985.89,182.00,191.20,0,-127.00,"$GNGGA,162352.000,4900.5241,N,00825.4498,E,1,8,2.79,102.4,M,47.9,M,,*4B",,,,
2022-03-30T18:24:18+02:00,235,44.27,14.90,985.89,180.90,190.00,0,-127.00,"$GNGGA,162413.000,4900.5270,N,00825.4595,E,1,8,2.80,103.7,M,47.9,M,,*43",,,,
2022-03-30T18:24:39+02:00,236,44.26,14.91,985.90,176.10,185.00,0,-127.00,"$GNGGA,162434.000,4900.5291,N,00825.4647,E,1,8,2.81,105.4,M,47.9,M,,*41",,,,
2022-03-30T18:25:00+02:00,237,44.26,14.87,985.90,170.00,178.60,0,-127.00,"$GNGGA,162455.000,4900.5298,N,00825.4548,E,1,7,4.33,104.6,M,47.9,M,,*40",,,,
2022-03-30T18:25:21+02:00,238,44.25,14.88,985.89,168.70,177.20,0,-127.00,"$GNGGA,162516.000,4900.5349,N,00825.4403,E,1,7,4.36,100.7,M,47.9,M,,*45",,,,
2022-03-30T18:25:42+02:00,239,44.24,14.90,985.89,167.80,176.20,0,-127.00,"$GNGGA,162537.000,4900.5329,N,00825.4518,E,1,7,4.40,98.0,M,47.9,M,,*7D",,,,
2022-03-30T18:26:03+02:00,240,44.23,14.85,985.89,171.20,179.80,0,-127.00,"$GNGGA,162558.000,4900.5325,N,00825.4863,E,1,6,6.70,96.2,M,47.9,M,,*75",,,,
2022-03-30T18:26:24+02:00,241,44.23,14.84,985.89,168.80,177.30,0,-127.00,"$GNGGA,162619.000,4900.5321,N,00825.4425,E,1,6,6.77,96.8,M,47.9,M,,*74",,,,
2022-03-30T18:26:45+02:00,242,44.22,14.80,985.90,168.70,177.20,0,-127.00,"$GNGGA,162640.000,4900.5391,N,00825.3356,E,1,7,4.49,89.0,M,47.9,M,,*7F",,,,
2022-03-30T18:27:06+02:00,243,44.22,14.82,985.89,165.90,174.20,0,-127.00,"$GNGGA,162701.000,4900.5423,N,00825.3031,E,1,7,4.53,81.3,M,47.9,M,,*77",,,,
2022-03-30T18:27:27+02:00,244,44.21,14.84,985.88,167.00,175.40,0,-127.00,"$GNGGA,162722.000,4900.5406,N,00825.3242,E,1,7,4.56,80.9,M,47.9,M,,*79",,,,
2022-03-30T18:27:48+02:00,245,44.21,14.82,985.88,172.20,180.90,0,-127.00,"$GNGGA,162743.000,4900.5386,N,00825.3467,E,1,7,4.59,81.6,M,47.9,M,,*71",,,,
2022-03-30T18:28:09+02:00,246,44.20,14.82,985.88,176.40,185.30,0,-127.00,"$GNGGA,162804.000,4900.5359,N,00825.3606,E,1,7,4.63,83.3,M,47.9,M,,*74",,,,
2022-03-30T18:28:30+02:00,247,44.20,14.80,985.87,181.30,190.40,0,-127.00,"$GNGGA,162825.000,4900.5367,N,00825.3596,E,1,7,4.66,86.4,M,47.9,M,,*77",,,,
2022-03-30T18:28:51+02:00,248,44.19,14.80,985.87,182.30,191.50,0,-127.00,"$GNGGA,162846.000,4900.5387,N,00825.3884,E,1,7,4.69,87.8,M,47.9,M,,*70",,,,
2022-03-30T18:29:12+02:00,249,44.19,14.81,985.87,183.00,192.20,0,-127.00,"$GNGGA,162907.000,4900.5406,N,00825.3908,E,1,6,4.95,88.9,M,47.9,M,,*73",,,,
2022-03-30T18:29:33+02:00,250,44.18,14.80,985.87,181.00,190.10,0,-127.00,"$GNGGA,162928.000,4900.5429,N,00825.3914,E,1,6,5.00,88.8,M,47.9,M,,*72",,,,
2022-03-30T18:29:54+02:00,251,44.18,14.78,985.87,181.10,190.20,0,-127.00,"$GNGGA,162949.000,4900.5329,N,00825.3958,E,1,7,4.80,88.5,M,47.9,M,,*7F",,,,
2022-03-30T18:30:15+02:00,252,44.17,14.78,985.87,182.10,191.30,0,-127.00,"$GNGGA,163010.000,4900.5341,N,00825.4063,E,1,7,4.84,86.7,M,47.9,M,,*7B",,,,
2022-03-30T18:30:36+02:00,253,44.17,14.76,985.87,184.80,194.10,0,-127.00,"$GNGGA,163031.000,4900.5359,N,00825.4031,E,1,7,4.87,86.8,M,47.9,M,,*7A",,,,
2022-03-30T18:30:57+02:00,254,44.16,14.68,985.87,183.40,192.60,0,-127.00,"$GNGGA,163052.000,4900.5264,N,00825.4276,E,1,7,5.22,89.4,M,47.9,M,,*7C",,,,
2022-03-30T18:31:18+02:00,255,44.16,14.72,985.88,177.40,186.30,0,-127.00,"$GNGGA,163113.000,4900.5088,N,00825.4703,E,1,7,4.59,92.7,M,47.9,M,,*7B",,,,
2022-03-30T18:31:39+02:00,256,44.16,14.72,985.87,175.30,184.10,0,-127.00,"$GNGGA,163134.000,4900.5013,N,00825.4848,E,1,6,5.04,94.3,M,47.9,M,,*76",,,,
2022-03-30T18:32:00+02:00,257,44.15,14.67,985.87,176.40,185.30,0,-127.00,"$GNGGA,163155.000,4900.5041,N,00825.4973,E,1,7,4.76,97.2,M,47.9,M,,*78",,,,
2022-03-30T18:32:21+02:00,258,44.15,14.68,985.87,175.80,184.60,0,-127.00,"$GNGGA,163216.000,4900.5220,N,00825.4518,E,1,7,4.81,103.1,M,47.9,M,,*4F",,,,
2022-03-30T18:32:44+02:00,259,44.14,14.74,985.85,176.90,185.80,0,-127.00,"$GNGGA,163239.000,4900.5283,N,00825.4021,E,1,7,4.86,106.9,M,47.9,M,,*4E",,,,
2022-03-30T18:33:05+02:00,260,44.13,14.73,985.84,176.50,185.40,0,-127.00,"$GNGGA,163300.000,4900.5286,N,00825.3727,E,1,7,4.91,106.5,M,47.9,M,,*4C",,,,
2022-03-30T18:33:26+02:00,261,44.12,14.67,985.84,184.00,193.30,0,-127.00,"$GNGGA,163321.000,4900.5306,N,00825.3576,E,1,7,4.95,108.8,M,47.9,M,,*47",,,,
2022-03-30T18:33:47+02:00,262,44.12,14.71,985.82,187.70,197.10,0,-127.00,"$GNGGA,163342.000,4900.5392,N,00825.3745,E,1,7,5.00,106.4,M,47.9,M,,*42",,,,
2022-03-30T18:34:08+02:00,263,44.10,14.67,985.82,189.70,199.20,0,-127.00,"$GNGGA,163403.000,4900.5356,N,00825.4143,E,1,7,5.05,105.4,M,47.9,M,,*49",,,,
2022-03-30T18:34:29+02:00,264,44.10,14.66,985.82,187.60,197.00,0,-127.00,"$GNGGA,163424.000,4900.5401,N,00825.3651,E,1,6,5.29,101.4,M,47.9,M,,*41",,,,
2022-03-30T18:34:49+02:00,265,44.09,14.68,985.81,182.40,191.60,0,-127.00,"$GNGGA,163444.000,4900.5442,N,00825.3089,E,1,7,5.14,103.1,M,47.9,M,,*4B",,,,
2022-03-30T18:35:10+02:00,266,44.08,14.61,985.82,180.80,189.90,0,-127.00,"$GNGGA,163505.000,4900.5487,N,00825.2998,E,1,7,5.19,98.6,M,47.9,M,,*77",,,,
2022-03-30T18:35:31+02:00,267,44.08,14.61,985.82,182.80,192.00,0,-127.00,"$GNGGA,163526.000,4900.5513,N,00825.2950,E,1,7,5.24,96.3,M,47.9,M,,*7B",,,,
2022-03-30T18:35:52+02:00,268,44.07,14.65,985.82,185.60,194.90,0,-127.00,"$GNGGA,163547.000,4900.5524,N,00825.2831,E,1,7,5.29,94.7,M,47.9,M,,*75",,,,
2022-03-30T18:36:13+02:00,269,44.06,14.62,985.81,186.00,195.40,0,-127.00,"$GNGGA,163608.000,4900.5494,N,00825.2829,E,1,7,5.34,93.6,M,47.9,M,,*74",,,,
2022-03-30T18:36:34+02:00,270,44.05,14.63,985.81,186.00,195.40,0,-127.00,"$GNGGA,163629.000,4900.5492,N,00825.2847,E,1,7,5.38,92.4,M,47.9,M,,*76",,,,
2022-03-30T18:36:55+02:00,271,44.04,14.63,985.81,187.80,197.20,0,-127.00,"$GNGGA,163650.000,4900.5509,N,00825.2659,E,1,7,5.43,92.4,M,47.9,M,,*76",,,,
2022-03-30T18:37:16+02:00,272,44.04,14.66,985.81,185.50,194.80,0,-127.00,"$GNGGA,163711.000,4900.5525,N,00825.2580,E,1,6,5.77,96.0,M,47.9,M,,*7D",,,,
2022-03-30T18:37:37+02:00,273,44.03,14.59,985.80,184.50,193.80,0,-127.00,"$GNGGA,163732.000,4900.5402,N,00825.3323,E,1,6,5.83,99.8,M,47.9,M,,*7A",,,,
2022-03-30T18:37:58+02:00,274,44.02,14.65,985.81,186.70,196.10,0,-127.00,"$GNGGA,163753.000,4900.5390,N,00825.3900,E,1,6,5.90,102.1,M,47.9,M,,*42",,,,
2022-03-30T18:38:19+02:00,275,44.01,14.68,985.81,190.90,200.50,0,-127.00,"$GNGGA,163814.000,4900.5291,N,00825.4266,E,1,7,5.63,104.8,M,47.9,M,,*40",,,,
2022-03-30T18:38:40+02:00,276,44.00,14.69,985.81,191.00,200.60,0,-127.00,"$GNGGA,163835.000,4900.5240,N,00825.4492,E,1,7,5.67,110.6,M,47.9,M,,*4D",,,,
2022-03-30T18:39:01+02:00,277,43.99,14.67,985.81,189.60,199.10,0,-127.00,"$GNGGA,163856.000,4900.5246,N,00825.4306,E,1,7,5.72,114.6,M,47.9,M,,*44",,,,
2022-03-30T18:39:22+02:00,278,43.98,14.64,985.81,187.70,197.10,0,-127.00,"$GNGGA,163917.000,4900.5270,N,00825.4204,E,1,7,5.77,116.6,M,47.9,M,,*41",,,,
2022-03-30T18:39:43+02:00,279,43.96,14.60,985.81,188.40,197.90,0,-127.00,"$GNGGA,163938.000,4900.5227,N,00825.4073,E,1,7,5.83,112.0,M,47.9,M,,*45",,,,
2022-03-30T18:40:04+02:00,280,43.95,14.59,985.80,189.50,199.00,0,-127.00,"$GNGGA,163959.000,4900.5177,N,00825.4402,E,1,7,5.86,107.9,M,47.9,M,,*4E",,,,
2022-03-30T18:40:25+02:00,281,43.94,14.53,985.80,198.10,208.10,0,-127.00,"$GNGGA,164020.000,4900.5258,N,00825.3811,E,1,7,5.90,109.1,M,47.9,M,,*48",,,,
2022-03-30T18:40:45+02:00,282,43.92,14.58,985.81,198.90,208.90,0,-127.00,"$GNGGA,164040.000,4900.5352,N,00825.3539,E,1,7,5.94,111.0,M,47.9,M,,*4E",,,,
2022-03-30T18:41:06+02:00,283,43.91,14.57,985.81,197.50,207.40,0,-127.00,"$GNGGA,164101.000,4900.5380,N,00825.3096,E,1,7,5.98,112.0,M,47.9,M,,*4A",,,,
2022-03-30T18:41:27+02:00,284,43.90,14.59,985.81,187.60,197.00,0,-127.00,"$GNGGA,164122.000,4900.5464,N,00825.3051,E,1,7,6.02,116.1,M,47.9,M,,*48",,,,
2022-03-30T18:41:48+02:00,285,43.88,14.62,985.81,187.80,197.20,0,-127.00,"$GNGGA,164143.000,4900.5400,N,00825.3525,E,1,7,6.06,114.8,M,47.9,M,,*44",,,,
2022-03-30T18:42:09+02:00,286,43.86,14.61,985.81,192.00,201.70,0,-127.00,"$GNGGA,164204.000,4900.5460,N,00825.3092,E,1,6,6.41,117.1,M,47.9,M,,*43",,,,
2022-03-30T18:42:30+02:00,287,43.85,14.55,985.81,192.00,201.70,0,-127.00,"$GNGGA,164225.000,4900.5622,N,00825.2841,E,1,7,6.14,127.2,M,47.9,M,,*42",,,,
2022-03-30T18:42:51+02:00,288,43.83,14.60,985.80,190.60,200.20,0,-127.00,"$GNGGA,164246.000,4900.5732,N,00825.2944,E,1,7,6.17,137.3,M,47.9,M,,*40",,,,
2022-03-30T18:43:12+02:00,289,43.81,14.59,985.80,188.10,197.60,0,-127.00,"$GNGGA,164307.000,4900.5764,N,00825.3215,E,1,6,6.52,138.7,M,47.9,M,,*42",,,,
2022-03-30T18:43:33+02:00,290,43.79,14.59,985.79,191.00,200.60,0,-127.00,"$GNGGA,164328.000,4900.5544,N,00825.3598,E,1,6,4.91,138.8,M,47.9,M,,*4F",,,,
2022-03-30T18:43:54+02:00,291,43.78,14.59,985.80,191.60,201.20,0,-127.00,"$GNGGA,164349.000,4900.5486,N,00825.3413,E,1,6,4.93,134.5,M,47.9,M,,*46",,,,
2022-03-30T18:44:15+02:00,292,43.76,14.61,985.79,197.70,207.60,0,-127.00,"$GNGGA,164410.000,4900.5419,N,00825.3503,E,1,7,4.34,130.1,M,47.9,M,,*47",,,,
2022-03-30T18:44:36+02:00,293,43.74,14.61,985.79,200.20,210.30,0,-127.00,"$GNGGA,164431.000,4900.5238,N,00825.4167,E,1,7,4.35,127.2,M,47.9,M,,*44",,,,
2022-03-30T18:44:57+02:00,294,43.73,14.61,985.79,197.90,207.80,0,-127.00,"$GNGGA,164452.000,4900.5003,N,00825.5267,E,1,6,7.53,115.5,M,47.9,M,,*4D",,,,
2022-03-30T18:45:18+02:00,295,43.70,14.60,985.79,197.60,207.50,0,-127.00,"$GNGGA,164513.000,4900.5084,N,00825.5283,E,1,8,4.33,111.9,M,47.9,M,,*4F",,,,
2022-03-30T18:45:39+02:00,296,43.68,14.58,985.77,195.90,205.70,0,-127.00,"$GNGGA,164534.000,4900.5180,N,00825.5427,E,1,8,4.33,110.8,M,47.9,M,,*47",,,,
2022-03-30T18:46:00+02:00,297,43.66,14.63,985.76,192.90,202.60,0,-127.00,"$GNGGA,164555.000,4900.5174,N,00825.5258,E,1,8,4.33,108.6,M,47.9,M,,*42",,,,
2022-03-30T18:46:21+02:00,298,43.64,14.65,985.77,187.10,196.50,0,-127.00,"$GNGGA,164616.000,4900.5205,N,00825.4986,E,1,8,4.33,111.9,M,47.9,M,,*4D",,,,
2022-03-30T18:46:42+02:00,299,43.62,14.65,985.76,187.60,197.00,0,-127.00,"$GNGGA,164637.000,4900.5206,N,00825.4954,E,1,8,11.15,111.4,M,47.9,M,,*7F",,,,
2022-03-30T18:47:02+02:00,300,43.60,14.59,985.76,185.80,195.10,0,-127.00,"$GNGGA,164657.000,4900.5225,N,00825.4653,E,1,7,6.43,109.4,M,47.9,M,,*43",,,,
2022-03-30T18:47:23+02:00,301,43.58,14.57,985.76,183.80,193.00,0,-127.00,"$GNGGA,164718.000,4900.5208,N,00825.5043,E,1,8,4.32,105.7,M,47.9,M,,*44",,,,
2022-03-30T18:47:44+02:00,302,43.56,14.62,985.76,179.10,188.10,0,-127.00,"$GNGGA,164739.000,4900.5219,N,00825.4825,E,1,7,4.85,104.2,M,47.9,M,,*49",,,,
2022-03-30T18:48:05+02:00,303,43.54,14.59,985.75,179.30,188.30,0,-127.00,"$GNGGA,164800.000,4900.5283,N,00825.4421,E,1,7,4.72,108.3,M,47.9,M,,*42",,,,
2022-03-30T18:48:26+02:00,304,43.52,14.61,985.75,177.70,186.60,0,-127.00,"$GNGGA,164821.000,4900.5401,N,00825.3555,E,1,7,4.70,112.3,M,47.9,M,,*41",,,,
2022-03-30T18:48:47+02:00,305,43.50,14.65,985.74,180.30,189.40,0,-127.00,"$GNGGA,164842.000,4900.5460,N,00825.2934,E,1,7,4.68,116.7,M,47.9,M,,*40",,,,
2022-03-30T18:49:08+02:00,306,43.48,14.62,985.74,179.80,188.80,0,-127.00,"$GNGGA,164903.000,4900.5491,N,00825.2765,E,1,6,4.86,117.0,M,47.9,M,,*47",,,,
2022-03-30T18:49:29+02:00,307,43.46,14.66,985.73,178.50,187.50,0,-127.00,"$GNGGA,164924.000,4900.5493,N,00825.2882,E,1,7,4.64,117.3,M,47.9,M,,*48",,,,
2022-03-30T18:49:50+02:00,308,43.44,14.64,985.73,181.00,190.10,0,-127.00,"$GNGGA,164945.000,4900.5521,N,00825.2999,E,1,7,4.62,121.0,M,47.9,M,,*4C",,,,
2022-03-30T18:50:11+02:00,309,43.42,14.61,985.74,188.20,197.70,0,-127.00,"$GNGGA,165006.000,4900.5542,N,00825.3315,E,1,7,4.60,125.6,M,47.9,M,,*49",,,,
2022-03-30T18:50:32+02:00,310,43.40,14.60,985.75,195.20,205.00,0,-127.00,"$GNGGA,165027.000,4900.5480,N,00825.3452,E,1,7,4.58,128.1,M,47.9,M,,*40",,,,
2022-03-30T18:50:53+02:00,311,43.37,14.67,985.75,194.40,204.20,0,-127.00,"$GNGGA,165048.000,4900.5393,N,00825.3527,E,1,6,8.48,129.4,M,47.9,M,,*47",,,,
2022-03-30T18:51:13+02:00,312,43.35,14.69,985.74,192.90,202.60,0,-127.00,"$GNGGA,165108.000,4900.5312,N,00825.3808,E,1,7,4.54,130.5,M,47.9,M,,*42",,,,
2022-03-30T18:51:34+02:00,313,43.33,14.66,985.74,192.40,202.10,0,-127.00,"$GNGGA,165129.000,4900.5234,N,00825.4237,E,1,7,4.52,131.1,M,47.9,M,,*46",,,,
2022-03-30T18:51:55+02:00,314,43.31,14.67,985.74,195.60,205.40,0,-127.00,"$GNGGA,165150.000,4900.5261,N,00825.5045,E,1,7,4.49,136.4,M,47.9,M,,*46",,,,
2022-03-30T18:52:16+02:00,315,43.28,14.62,985.75,195.00,204.80,0,-127.00,"$GNGGA,165211.000,4900.5209,N,00825.4967,E,1,7,4.47,140.9,M,47.9,M,,*44",,,,
2022-03-30T18:52:37+02:00,316,43.26,14.63,985.76,192.40,202.10,0,-127.00,"$GNGGA,165232.000,4900.5282,N,00825.4846,E,1,7,4.45,141.9,M,47.9,M,,*47",,,,
2022-03-30T18:52:58+02:00,317,43.24,14.65,985.75,193.50,203.20,0,-127.00,"$GNGGA,165253.000,4900.5291,N,00825.4866,E,1,7,4.42,141.6,M,47.9,M,,*48",,,,
2022-03-30T18:53:19+02:00,318,43.22,14.64,985.75,197.10,207.00,0,-127.00,"$GNGGA,165314.000,4900.5214,N,00825.5294,E,1,7,4.40,138.1,M,47.9,M,,*4A",,,,
2022-03-30T18:53:40+02:00,319,43.19,14.68,985.76,195.70,205.50,0,-127.00,"$GNGGA,165335.000,4900.5189,N,00825.5477,E,1,7,4.37,134.2,M,47.9,M,,*4A",,,,
2022-03-30T18:54:01+02:00,320,43.17,14.68,985.76,196.70,206.60,0,-127.00,"$GNGGA,165356.000,4900.5156,N,00825.5476,E,1,7,4.35,126.7,M,47.9,M,,*48",,,,
2022-03-30T18:54:22+02:00,321,43.15,14.63,985.76,194.50,204.30,0,-127.00,"$GNGGA,165417.000,4900.5139,N,00825.5297,E,1,7,4.32,120.0,M,47.9,M,,*4C",,,,
2022-03-30T18:54:43+02:00,322,43.12,14.64,985.77,197.20,207.10,0,-127.00,"$GNGGA,165438.000,4900.5157,N,00825.5140,E,1,6,4.89,118.8,M,47.9,M,,*42",,,,
2022-03-30T18:55:04+02:00,323,43.10,14.67,985.77,189.70,199.20,0,-127.00,"$GNGGA,165459.000,4900.5237,N,00825.5255,E,1,6,4.84,121.1,M,47.9,M,,*49",,,,
2022-03-30T18:55:25+02:00,324,43.08,14.69,985.77,185.00,194.30,0,-127.00,"$GNGGA,165520.000,4900.5229,N,00825.4763,E,1,6,4.79,121.4,M,47.9,M,,*4F",,,,
2022-03-30T18:55:46+02:00,325,43.06,14.69,985.77,181.70,190.80,0,-127.00,"$GNGGA,165541.000,4900.5192,N,00825.4345,E,1,6,4.75,121.5,M,47.9,M,,*46",,,,
2022-03-30T18:56:06+02:00,326,43.03,14.71,985.76,180.50,189.60,0,-127.00,"$GNGGA,165601.000,4900.5212,N,00825.4474,E,1,7,4.19,124.5,M,47.9,M,,*41",,,,
2022-03-30T18:56:27+02:00,327,43.01,14.68,985.76,179.40,188.40,0,-127.00,"$GNGGA,165622.000,4900.5217,N,00825.4526,E,1,6,6.03,125.6,M,47.9,M,,*49",,,,
2022-03-30T18:56:48+02:00,328,42.99,14.69,985.75,182.30,191.50,0,-127.00,"$GNGGA,165643.000,4900.5227,N,00825.4643,E,1,7,4.14,122.7,M,47.9,M,,*4E",,,,
2022-03-30T18:57:09+02:00,329,42.97,14.69,985.76,186.10,195.50,0,-127.00,"$GNGGA,165704.000,4900.5214,N,00825.4680,E,1,6,5.92,118.9,M,47.9,M,,*4A",,,,
2022-03-30T18:57:30+02:00,330,42.94,14.72,985.75,183.40,192.60,0,-127.00,"$GNGGA,165725.000,4900.5250,N,00825.4802,E,1,7,4.09,116.3,M,47.9,M,,*4B",,,,
2022-03-30T18:57:51+02:00,331,42.92,14.73,985.75,179.10,188.10,0,-127.00,"$GNGGA,165746.000,4900.5275,N,00825.4765,E,1,6,5.81,118.7,M,47.9,M,,*4D",,,,
2022-03-30T18:58:12+02:00,332,42.89,14.73,985.75,178.00,187.00,0,-127.00,"$GNGGA,165807.000,4900.5259,N,00825.4868,E,1,7,4.13,119.6,M,47.9,M,,*40",,,,
2022-03-30T18:58:33+02:00,333,42.87,14.75,985.75,180.80,189.90,0,-127.00,"$GNGGA,165828.000,4900.5246,N,00825.4831,E,1,7,4.01,118.8,M,47.9,M,,*43",,,,
2022-03-30T18:58:54+02:00,334,42.84,14.74,985.76,182.00,191.20,0,-127.00,"$GNGGA,165849.000,4900.5237,N,00825.4673,E,1,7,3.98,116.7,M,47.9,M,,*4C",,,,
2022-03-30T18:59:15+02:00,335,42.81,14.80,985.76,181.40,190.50,0,-127.00,"$GNGGA,165910.000,4900.5261,N,00825.4828,E,1,7,3.96,116.7,M,47.9,M,,*4C",,,,
2022-03-30T18:59:36+02:00,336,42.79,14.76,985.76,184.10,193.40,0,-127.00,"$GNGGA,165931.000,4900.5258,N,00825.4946,E,1,7,3.93,117.7,M,47.9,M,,*48",,,,
2022-03-30T18:59:57+02:00,337,42.76,14.77,985.76,184.90,194.20,0,-127.00,"$GNGGA,165952.000,4900.5272,N,00825.4930,E,1,7,3.91,118.2,M,47.9,M,,*4C",,,,
2022-03-30T19:00:18+02:00,338,42.73,14.76,985.77,184.50,193.80,0,-127.00,"$GNGGA,170013.000,4900.5198,N,00825.4533,E,1,6,5.42,117.3,M,47.9,M,,*4B",,,,
2022-03-30T19:00:39+02:00,339,42.70,14.81,985.77,182.60,191.80,0,-127.00,"$GNGGA,170034.000,4900.5192,N,00825.4549,E,1,7,3.86,114.5,M,47.9,M,,*43",,,,
2022-03-30T19:01:00+02:00,340,42.68,14.80,985.77,178.80,187.80,0,-127.00,"$GNGGA,170055.000,4900.5212,N,00825.4731,E,1,7,3.83,109.1,M,47.9,M,,*4F",,,,
2022-03-30T19:01:21+02:00,341,42.65,14.84,985.77,186.40,195.80,0,-127.00,"$GNGGA,170116.000,4900.5258,N,00825.4700,E,1,6,5.37,109.3,M,47.9,M,,*4F",,,,
2022-03-30T19:01:42+02:00,342,42.62,14.87,985.76,193.00,202.70,0,-127.00,"$GNGGA,170137.000,4900.5225,N,00825.4946,E,1,6,4.05,107.6,M,47.9,M,,*41",,,,
2022-03-30T19:02:03+02:00,343,42.60,14.83,985.76,199.70,209.70,0,-127.00,"$GNGGA,170158.000,4900.5211,N,00825.4922,E,1,6,5.25,105.6,M,47.9,M,,*4C",,,,
2022-03-30T19:02:24+02:00,344,42.57,14.85,985.75,196.80,206.70,0,-127.00,"$GNGGA,170219.000,4900.5248,N,00825.4607,E,1,6,5.19,112.0,M,47.9,M,,*41",,,,
2022-03-30T19:02:45+02:00,345,42.55,14.85,985.76,197.00,206.90,0,-127.00,"$GNGGA,170240.000,4900.5272,N,00825.4873,E,1,6,3.99,115.4,M,47.9,M,,*44",,,,
2022-03-30T19:03:06+02:00,346,42.52,14.88,985.75,195.10,204.90,0,-127.00,"$GNGGA,170301.000,4900.5291,N,00825.4844,E,1,6,3.97,114.7,M,47.9,M,,*45",,,,
2022-03-30T19:03:27+02:00,347,42.49,14.86,985.76,189.80,199.30,0,-127.00,"$GNGGA,170322.000,4900.5293,N,00825.4834,E,1,6,3.96,113.9,M,47.9,M,,*49",,,,
2022-03-30T19:03:48+02:00,348,42.46,14.85,985.76,183.30,192.50,0,-127.00,"$GNGGA,170343.000,4900.5273,N,00825.4738,E,1,6,4.97,113.8,M,47.9,M,,*44",,,,
2022-03-30T19:04:09+02:00,349,42.43,14.90,985.76,178.20,187.20,0,-127.00,"$GNGGA,170404.000,4900.5252,N,00825.4614,E,1,5,3.98,114.4,M,47.9,M,,*4C",,,,
2022-03-30T19:04:29+02:00,350,42.41,14.92,985.77,181.00,190.10,0,-127.00,"$GNGGA,170424.000,4900.5190,N,00825.4576,E,1,6,3.90,111.0,M,47.9,M,,*4E",,,,
2022-03-30T19:04:50+02:00,351,42.38,14.90,985.77,182.50,191.70,0,-127.00,"$GNGGA,170445.000,4900.5165,N,00825.4592,E,1,6,3.88,109.6,M,47.9,M,,*4F",,,,
2022-03-30T19:05:11+02:00,352,42.36,14.94,985.77,184.90,194.20,0,-127.00,"$GNGGA,170506.000,4900.5219,N,00825.4706,E,1,6,3.87,109.9,M,47.9,M,,*4E",,,,
2022-03-30T19:05:32+02:00,353,42.33,14.94,985.78,179.00,188.00,0,-127.00,"$GNGGA,170527.000,4900.5240,N,00825.4690,E,1,6,3.85,111.0,M,47.9,M,,*4D",,,,
2022-03-30T19:05:53+02:00,354,42.30,14.92,985.78,175.90,184.70,0,-127.00,"$GNGGA,170548.000,4900.5278,N,00825.4624,E,1,6,3.83,112.8,M,47.9,M,,*4D",,,,
2022-03-30T19:06:14+02:00,355,42.27,14.94,985.79,175.40,184.20,0,-127.00,"$GNGGA,170609.000,4900.5275,N,00825.4617,E,1,6,4.65,116.0,M,47.9,M,,*45",,,,
2022-03-30T19:06:35+02:00,356,42.25,14.96,985.79,176.60,185.50,0,-127.00,"$GNGGA,170630.000,4900.5282,N,00825.4542,E,1,6,3.80,118.1,M,47.9,M,,*47",,,,
2022-03-30T19:06:56+02:00,357,42.21,14.98,985.80,179.50,188.50,0,-127.00,"$GNGGA,170651.000,4900.5270,N,00825.4559,E,1,6,3.78,117.5,M,47.9,M,,*4B",,,,
2022-03-30T19:07:17+02:00,358,42.18,14.98,985.80,177.90,186.80,0,-127.00,"$GNGGA,170712.000,4900.5233,N,00825.4522,E,1,6,3.76,117.1,M,47.9,M,,*4C",,,,
2022-03-30T19:07:38+02:00,359,42.16,15.01,985.79,180.50,189.60,0,-127.00,"$GNGGA,170733.000,4900.5250,N,00825.4577,E,1,6,3.74,117.7,M,47.9,M,,*4E",,,,
2022-03-30T19:07:59+02:00,360,42.12,15.03,985.79,183.30,192.50,0,-127.00,"$GNGGA,170754.000,4900.5252,N,00825.4582,E,1,6,3.73,118.4,M,47.9,M,,*4C",,,,
2022-03-30T19:08:20+02:00,361,42.09,15.01,985.80,190.60,200.20,0,-127.00,"$GNGGA,170815.000,4900.5244,N,00825.4572,E,1,6,3.71,118.3,M,47.9,M,,*4B",,,,
2022-03-30T19:08:41+02:00,362,42.06,15.06,985.80,190.60,200.20,0,-127.00,"$GNGGA,170836.000,4900.5264,N,00825.4625,E,1,6,3.69,120.0,M,47.9,M,,*48",,,,
2022-03-30T19:09:02+02:00,363,42.03,15.08,985.80,188.00,197.50,0,-127.00,"$GNGGA,170857.000,4900.5266,N,00825.4704,E,1,6,3.68,121.2,M,47.9,M,,*4D",,,,
2022-03-30T19:09:23+02:00,364,41.99,15.09,985.79,186.90,196.30,0,-127.00,"$GNGGA,170918.000,4900.5248,N,00825.4611,E,1,6,3.66,122.9,M,47.9,M,,*48",,,,
2022-03-30T19:09:44+02:00,365,41.96,15.10,985.79,187.10,196.50,0,-127.00,"$GNGGA,170939.000,4900.5253,N,00825.4643,E,1,6,4.27,123.7,M,47.9,M,,*4B",,,,
2022-03-30T19:10:05+02:00,366,41.93,15.10,985.79,188.30,197.80,0,-127.00,"$GNGGA,171000.000,4900.5333,N,00825.4763,E,1,5,4.56,128.7,M,47.9,M,,*43",,,,
2022-03-30T19:10:26+02:00,367,41.90,15.12,985.80,181.90,191.00,0,-127.00,"$GNGGA,171021.000,4900.5278,N,00825.4626,E,1,5,4.53,126.4,M,47.9,M,,*46",,,,
2022-03-30T19:10:47+02:00,368,41.87,15.13,985.80,180.40,189.50,0,-127.00,"$GNGGA,171042.000,4900.5246,N,00825.4620,E,1,5,4.50,125.3,M,47.9,M,,*4F",,,,
2022-03-30T19:11:08+02:00,369,41.84,15.12,985.81,184.70,194.00,0,-127.00,"$GNGGA,171103.000,4900.5285,N,00825.4678,E,1,6,4.14,126.0,M,47.9,M,,*4A",,,,
2022-03-30T19:11:29+02:00,370,41.81,15.12,985.81,186.70,196.10,0,-127.00,"$GNGGA,171124.000,4900.5287,N,00825.4682,E,1,6,3.57,125.8,M,47.9,M,,*43",,,,
2022-03-30T19:11:50+02:00,371,41.78,15.14,985.81,183.70,192.90,0,-127.00,"$GNGGA,171145.000,4900.5277,N,00825.4681,E,1,6,3.55,123.4,M,47.9,M,,*40",,,,
2022-03-30T19:12:11+02:00,372,41.75,15.15,985.79,182.40,191.60,0,-127.00,"$GNGGA,171206.000,4900.5311,N,00825.4774,E,1,6,4.06,125.0,M,47.9,M,,*4D",,,,
2022-03-30T19:12:32+02:00,373,41.71,15.17,985.80,183.30,192.50,0,-127.00,"$GNGGA,171227.000,4900.5403,N,00825.4941,E,1,6,4.03,131.9,M,47.9,M,,*4B",,,,
2022-03-30T19:12:53+02:00,374,41.68,15.18,985.81,187.40,196.80,0,-127.00,"$GNGGA,171248.000,4900.5365,N,00825.4832,E,1,6,4.00,135.9,M,47.9,M,,*47",,,,
2022-03-30T19:13:14+02:00,375,41.65,15.19,985.80,186.50,195.90,0,-127.00,"$GNGGA,171309.000,4900.5308,N,00825.4706,E,1,6,3.49,140.7,M,47.9,M,,*46",,,,
2022-03-30T19:13:35+02:00,376,41.62,15.22,985.80,183.10,192.30,0,-127.00,"$GNGGA,171330.000,4900.5334,N,00825.4789,E,1,6,3.47,133.7,M,47.9,M,,*4E",,,,
2022-03-30T19:13:56+02:00,377,41.59,15.21,985.80,184.80,194.10,0,-127.00,"$GNGGA,171351.000,4900.5343,N,00825.4805,E,1,6,3.46,133.4,M,47.9,M,,*40",,,,
2022-03-30T19:14:17+02:00,378,41.55,15.22,985.81,186.70,196.10,0,-127.00,"$GNGGA,171412.000,4900.5327,N,00825.4774,E,1,6,3.45,128.7,M,47.9,M,,*41",,,,
2022-03-30T19:14:38+02:00,379,41.52,15.27,985.80,190.40,200.00,0,-127.00,"$GNGGA,171433.000,4900.5331,N,00825.4791,E,1,6,3.43,125.8,M,47.9,M,,*4A",,,,
2022-03-30T19:14:59+02:00,380,41.48,15.22,985.81,187.50,196.90,0,-127.00,"$GNGGA,171454.000,4900.5230,N,00825.4567,E,1,6,3.42,129.0,M,47.9,M,,*45",,,,
2022-03-30T19:15:20+02:00,381,41.45,15.25,985.80,186.40,195.80,0,-127.00,"$GNGGA,171515.000,4900.5273,N,00825.4590,E,1,5,3.67,128.2,M,47.9,M,,*49",,,,
2022-03-30T19:15:41+02:00,382,41.41,15.28,985.80,190.40,200.00,0,-127.00,"$GNGGA,171536.000,4900.5310,N,00825.4679,E,1,6,3.39,124.9,M,47.9,M,,*47",,,,
2022-03-30T19:16:02+02:00,383,41.38,15.29,985.80,188.60,198.10,0,-127.00,"$GNGGA,171557.000,4900.5287,N,00825.4644,E,1,6,3.78,122.4,M,47.9,M,,*4F",,,,
2022-03-30T19:16:23+02:00,384,41.34,15.31,985.80,184.40,193.70,0,-127.00,"$GNGGA,171618.000,4900.5264,N,00825.4575,E,1,6,3.37,121.1,M,47.9,M,,*46",,,,
2022-03-30T19:16:44+02:00,385,41.31,15.31,985.80,178.60,187.60,0,-127.00,"$GNGGA,171639.000,4900.5233,N,00825.4578,E,1,6,3.35,118.7,M,47.9,M,,*44",,,,
2022-03-30T19:17:05+02:00,386,41.27,15.33,985.79,179.70,188.70,0,-127.00,"$GNGGA,171700.000,4900.5270,N,00825.4572,E,1,4,5.96,122.7,M,47.9,M,,*46",,,,
2022-03-30T19:17:26+02:00,387,41.24,15.33,985.79,177.40,186.30,0,-127.00,"$GNGGA,171721.000,4900.5312,N,00825.4644,E,1,5,4.01,124.2,M,47.9,M,,*4B",,,,
2022-03-30T19:17:47+02:00,388,41.20,15.34,985.80,178.60,187.60,0,-127.00,"$GNGGA,171742.000,4900.5305,N,00825.4693,E,1,6,3.31,122.5,M,47.9,M,,*44",,,,
2022-03-30T19:18:08+02:00,389,41.17,15.37,985.79,175.00,183.80,0,-127.00,"$GNGGA,171803.000,4900.5306,N,00825.4673,E,1,5,3.96,121.2,M,47.9,M,,*49",,,,
2022-03-30T19:18:29+02:00,390,41.13,15.40,985.80,178.50,187.50,0,-127.00,"$GNGGA,171824.000,4900.5261,N,00825.4532,E,1,5,3.94,120.9,M,47.9,M,,*42",,,,
2022-03-30T19:18:50+02:00,391,41.09,15.45,985.82,180.40,189.50,0,-127.00,"$GNGGA,171845.000,4900.5194,N,00825.4395,E,1,5,3.92,121.5,M,47.9,M,,*4C",,,,
2022-03-30T19:19:11+02:00,392,41.05,15.44,985.83,185.10,194.40,0,-127.00,"$GNGGA,171906.000,4900.5264,N,00825.4567,E,1,6,3.27,121.6,M,47.9,M,,*43",,,,
2022-03-30T19:19:32+02:00,393,41.01,15.50,985.84,183.60,192.80,0,-127.00,"$GNGGA,171927.000,4900.5293,N,00825.4630,E,1,6,3.25,119.8,M,47.9,M,,*4E",,,,
2022-03-30T19:19:53+02:00,394,40.98,15.51,985.85,181.20,190.30,0,-127.00,"$GNGGA,171948.000,4900.5300,N,00825.4668,E,1,6,3.24,119.0,M,47.9,M,,*48",,,,
2022-03-30T19:20:14+02:00,395,40.94,15.50,985.86,179.70,188.70,0,-127.00,"$GNGGA,172009.000,4900.5318,N,00825.4711,E,1,6,3.23,120.7,M,47.9,M,,*4B",,,,
2022-03-30T19:20:35+02:00,396,40.91,15.53,985.85,183.70,192.90,0,-127.00,"$GNGGA,172030.000,4900.5309,N,00825.4696,E,1,6,3.22,123.1,M,47.9,M,,*4B",,,,
2022-03-30T19:20:56+02:00,397,40.87,15.53,985.85,188.20,197.70,0,-127.00,"$GNGGA,172051.000,4900.5267,N,00825.4616,E,1,6,3.21,124.6,M,47.9,M,,*4E",,,,
2022-03-30T19:21:17+02:00,398,40.84,15.57,985.85,185.80,195.10,0,-127.00,"$GNGGA,172112.000,4900.5349,N,00825.4759,E,1,6,3.20,129.4,M,47.9,M,,*41",,,,
