created_at,entry_id,field1,field2,field3,field4,field5,field6,field7,field8,latitude,longitude,elevation,status
2022-03-02T17:43:38+01:00,1,34.16,9.94,1008.56,40.50,42.60,0,-127.00,"$GNGGA,164331.093,4900.5295,N,00825.3991,E,0,3,,116.6,M,47.9,M,,*57",,,,
2022-03-02T17:43:59+01:00,2,33.06,10.35,1008.55,38.80,40.80,0,-127.00,"$GNGGA,164354.000,4900.5377,N,00825.4108,E,1,4,2.85,110.8,M,47.9,M,,*43",,,,
2022-03-02T17:44:19+01:00,3,31.66,11.24,1008.54,38.60,40.60,0,-127.00,"$GNGGA,164414.000,4900.5587,N,00825.4023,E,1,4,2.85,111.1,M,47.9,M,,*49",,,,
2022-03-02T17:44:40+01:00,4,30.63,12.06,1008.54,36.90,38.80,0,-127.00,"$GNGGA,164435.000,4900.5521,N,00825.3953,E,0,0,,113.8,M,47.9,M,,*50",,,,
2022-03-02T17:45:01+01:00,5,30.09,12.77,1008.51,37.80,39.70,0,-127.00,"$GNGGA,164456.000,4900.5892,N,00825.3676,E,0,2,,117.8,M,47.9,M,,*5E",,,,
2022-03-02T17:45:22+01:00,6,29.88,14.18,1008.49,36.50,38.40,0,-127.00,"$GNGGA,164517.000,4900.5919,N,00825.3704,E,0,0,,117.3,M,47.9,M,,*55",,,,
2022-03-02T17:45:41+01:00,7,29.83,14.90,1008.48,35.10,36.90,0,-127.00,"$GNGGA,164537.000,4900.5659,N,00825.3984,E,0,0,,114.6,M,47.9,M,,*5C",,,,
2022-03-02T17:54:58+01:00,8,25.89,14.59,1008.55,37.60,39.50,0,-127.00,"$GNGGA,165453.000,4900.5715,N,00825.4537,E,1,4,2.78,173.9,M,47.9,M,,*4C",,,,
2022-03-02T17:55:18+01:00,9,25.52,14.69,1008.57,36.40,38.30,0,-127.00,"$GNGGA,165513.000,4900.5601,N,00825.4425,E,1,4,2.78,158.5,M,47.9,M,,*4A",,,,
2022-03-02T17:55:38+01:00,10,25.20,14.75,1008.58,36.40,38.30,0,-127.00,"$GNGGA,165533.000,4900.5436,N,00825.4161,E,1,5,1.75,136.6,M,47.9,M,,*4F",,,,
2022-03-02T17:55:59+01:00,11,24.92,14.80,1008.58,37.10,39.00,0,-127.00,"$GNGGA,165554.000,4900.5321,N,00825.4144,E,1,5,1.75,126.2,M,47.9,M,,*4D",,,,
2022-03-02T17:56:19+01:00,12,24.73,14.83,1008.58,37.70,39.60,0,-127.00,"$GNGGA,165614.000,4900.5175,N,00825.4133,E,1,5,1.75,131.4,M,47.9,M,,*49",,,,
2022-03-02T17:56:40+01:00,13,24.44,14.82,1008.59,38.00,40.00,0,-127.00,"$GNGGA,165635.000,4900.4984,N,00825.4158,E,1,5,1.75,138.7,M,47.9,M,,*4A",,,,
2022-03-02T17:57:01+01:00,14,24.13,15.13,1008.59,37.70,39.60,0,-127.00,"$GNGGA,165656.000,4900.4523,N,00825.4102,E,1,5,1.75,138.7,M,47.9,M,,*41",,,,
2022-03-02T17:57:22+01:00,15,23.76,15.46,1008.58,38.60,40.60,0,-127.00,"$GNGGA,165717.000,4900.4407,N,00825.4618,E,1,5,1.75,156.3,M,47.9,M,,*42",,,,
2022-03-02T17:57:42+01:00,16,23.20,16.01,1008.57,39.60,41.60,0,-127.00,"$GNGGA,165737.000,4900.4427,N,00825.4886,E,1,5,1.75,159.8,M,47.9,M,,*4F",,,,
2022-03-02T17:58:03+01:00,17,22.59,16.86,1008.56,41.50,43.60,0,-127.00,"$GNGGA,165758.000,4900.4401,N,00825.5115,E,1,5,1.75,156.8,M,47.9,M,,*4F",,,,
2022-03-02T17:58:23+01:00,18,22.23,17.20,1008.55,42.10,44.30,0,-127.00,"$GNGGA,165818.000,4900.4399,N,00825.5250,E,1,5,1.76,155.6,M,47.9,M,,*4E",,,,
2022-03-02T17:58:43+01:00,19,22.14,17.13,1008.54,42.10,44.30,0,-127.00,"$GNGGA,165838.000,4900.4402,N,00825.5239,E,1,6,1.33,154.9,M,47.9,M,,*4A",,,,
2022-03-02T17:59:04+01:00,20,22.19,16.96,1008.54,42.90,45.10,0,-127.00,"$GNGGA,165859.000,4900.4496,N,00825.5067,E,1,7,1.26,137.2,M,47.9,M,,*42",,,,
2022-03-02T17:59:24+01:00,21,22.27,16.57,1008.53,41.80,43.90,0,-127.00,"$GNGGA,165919.000,4900.4470,N,00825.5094,E,1,7,1.26,136.9,M,47.9,M,,*49",,,,
2022-03-02T17:59:45+01:00,22,22.18,16.45,1008.53,46.30,48.70,0,-127.00,"$GNGGA,165940.000,4900.4488,N,00825.5098,E,1,7,1.26,132.4,M,47.9,M,,*47",,,,
2022-03-02T18:00:06+01:00,23,21.81,16.76,1008.53,65.50,68.80,0,-127.00,"$GNGGA,170001.000,4900.4509,N,00825.4959,E,1,8,1.05,126.2,M,47.9,M,,*4F",,,,
2022-03-02T18:00:26+01:00,24,21.59,17.29,1008.54,54.80,57.60,0,-127.00,"$GNGGA,170021.000,4900.4483,N,00825.5012,E,1,8,1.05,123.8,M,47.9,M,,*46",,,,
2022-03-02T18:00:46+01:00,25,21.51,17.24,1008.55,126.50,137.10,0,-127.00,"$GNGGA,170041.000,4900.4503,N,00825.5010,E,1,8,1.11,124.3,M,47.9,M,,*42",,,,
2022-03-02T18:01:08+01:00,26,21.31,17.30,1008.54,69.00,72.50,0,-127.00,"$GNGGA,170102.000,4900.4512,N,00825.4938,E,1,8,1.05,124.4,M,47.9,M,,*44",,,,
2022-03-02T18:04:52+01:00,27,21.65,18.89,1008.70,35.40,37.20,2,-127.00,"$GNGGA,170447.000,4900.2072,N,00826.8071,E,1,8,1.06,134.3,M,47.9,M,,*4B",,,,
2022-03-02T18:05:13+01:00,28,21.86,18.93,1008.58,36.40,38.30,2,-127.00,"$GNGGA,170508.000,4900.1438,N,00827.1565,E,1,8,1.06,116.8,M,47.9,M,,*4B",,,,
2022-03-02T18:05:34+01:00,29,22.06,19.20,1008.59,36.40,38.30,2,-127.00,"$GNGGA,170529.000,4900.1189,N,00827.3268,E,1,8,1.06,97.7,M,47.9,M,,*78",,,,
2022-03-02T18:05:55+01:00,30,22.25,19.21,1008.62,36.80,38.70,2,-127.00,"$GNGGA,170550.000,4900.1190,N,00827.3147,E,1,8,1.06,92.1,M,47.9,M,,*73",,,,
2022-03-02T18:06:15+01:00,31,22.41,19.13,1008.59,36.70,38.60,2,-127.00,"$GNGGA,170610.000,4900.1023,N,00827.4199,E,1,8,1.06,99.1,M,47.9,M,,*72",,,,
2022-03-02T18:06:35+01:00,32,22.58,19.08,1008.54,38.00,40.00,2,-127.00,"$GNGGA,170630.000,4900.0627,N,00827.6376,E,1,8,1.06,104.5,M,47.9,M,,*43",,,,
2022-03-02T18:07:38+01:00,33,23.00,17.90,1008.25,51.30,63.50,0,-127.00,"$GNGGA,170733.000,4900.0400,N,00827.7856,E,1,6,1.59,127.7,M,47.9,M,,*49",,,,
2022-03-02T18:07:59+01:00,34,22.52,17.93,1008.29,50.20,54.60,0,-127.00,"$GNGGA,170754.000,4900.0498,N,00827.7967,E,1,6,1.59,122.4,M,47.9,M,,*4C",,,,
2022-03-02T18:08:27+01:00,35,22.09,18.28,1008.35,48.90,51.40,0,-127.00,"$GNGGA,170814.000,4900.0638,N,00827.7953,E,1,6,1.59,123.9,M,47.9,M,,*44",,,,
2022-03-02T18:09:17+01:00,36,19.25,19.99,1008.43,41.10,43.20,0,-127.00,"$GNGGA,170912.000,4900.1035,N,00827.7541,E,1,6,1.61,132.4,M,47.9,M,,*40",,,,
2022-03-02T18:09:37+01:00,37,18.85,21.18,1008.43,41.70,43.80,0,-127.00,"$GNGGA,170932.000,4900.1098,N,00827.7602,E,1,6,1.59,125.0,M,47.9,M,,*48",,,,
2022-03-02T18:09:58+01:00,38,18.48,21.76,1008.45,41.60,43.70,0,-127.00,"$GNGGA,170953.000,4900.1230,N,00827.7561,E,1,6,1.62,133.2,M,47.9,M,,*44",,,,
2022-03-02T18:10:40+01:00,39,18.23,21.97,1008.56,38.90,40.90,0,-127.00,"$GNGGA,171014.000,4900.1323,N,00827.7684,E,1,7,1.15,132.0,M,47.9,M,,*46",,,,
2022-03-02T18:11:01+01:00,40,18.05,22.13,1008.66,39.00,41.00,0,-127.00,"$GNGGA,171056.000,4900.1439,N,00827.7656,E,1,7,1.15,124.8,M,47.9,M,,*4C",,,,
2022-03-02T18:11:21+01:00,41,18.05,21.73,1008.73,39.10,41.10,0,-127.00,"$GNGGA,171116.000,4900.1423,N,00827.7657,E,1,7,1.15,118.9,M,47.9,M,,*4D",,,,
2022-03-02T18:11:41+01:00,42,17.98,21.51,1008.79,37.40,39.30,0,-127.00,"$GNGGA,171136.000,4900.1415,N,00827.7613,E,1,7,1.16,116.7,M,47.9,M,,*49",,,,
2022-03-02T18:14:02+01:00,43,17.96,21.73,1008.70,36.70,38.60,0,-127.00,"$GNGGA,171357.000,4900.1266,N,00827.7634,E,1,7,1.32,118.0,M,47.9,M,,*44",,,,
2022-03-02T18:14:22+01:00,44,17.81,21.74,1008.63,38.30,40.30,0,-127.00,"$GNGGA,171417.000,4900.1341,N,00827.7711,E,1,7,1.16,119.9,M,47.9,M,,*4B",,,,
2022-03-02T18:14:42+01:00,45,17.68,22.10,1008.58,37.90,39.80,0,-127.00,"$GNGGA,171437.000,4900.1386,N,00827.7725,E,1,7,1.16,118.9,M,47.9,M,,*44",,,,
2022-03-02T18:15:03+01:00,46,17.68,21.99,1008.53,37.60,39.50,0,-127.00,"$GNGGA,171458.000,4900.1409,N,00827.7705,E,1,5,1.46,120.9,M,47.9,M,,*43",,,,
2022-03-02T18:15:23+01:00,47,17.72,21.81,1008.50,35.50,37.30,0,-127.00,"$GNGGA,171518.000,4900.1397,N,00827.7733,E,1,7,1.16,122.9,M,47.9,M,,*46",,,,
2022-03-02T18:15:44+01:00,48,17.80,21.70,1008.48,35.00,36.80,0,-127.00,"$GNGGA,171539.000,4900.1389,N,00827.7730,E,1,6,1.43,122.2,M,47.9,M,,*43",,,,
2022-03-02T18:16:05+01:00,49,17.90,21.48,1008.48,33.90,35.60,0,-127.00,"$GNGGA,171600.000,4900.1444,N,00827.7725,E,1,8,1.06,133.6,M,47.9,M,,*43",,,,
2022-03-02T18:16:26+01:00,50,18.00,21.29,1008.49,33.90,35.60,0,-127.00,"$GNGGA,171621.000,4900.1401,N,00827.7752,E,1,8,1.06,129.8,M,47.9,M,,*44",,,,
2022-03-02T18:16:47+01:00,51,18.08,21.26,1008.49,33.90,35.60,0,-127.00,"$GNGGA,171642.000,4900.1393,N,00827.7760,E,1,8,1.26,130.1,M,47.9,M,,*4F",,,,
2022-03-02T18:17:08+01:00,52,18.14,21.24,1008.49,34.50,36.30,0,-127.00,"$GNGGA,171703.000,4900.1373,N,00827.7744,E,1,8,1.26,129.8,M,47.9,M,,*42",,,,
2022-03-02T18:17:29+01:00,53,18.09,21.37,1008.50,35.20,37.00,0,-127.00,"$GNGGA,171724.000,4900.1379,N,00827.7785,E,1,8,1.07,127.3,M,47.9,M,,*46",,,,
2022-03-02T18:17:49+01:00,54,18.08,21.33,1008.50,36.20,38.10,0,-127.00,"$GNGGA,171744.000,4900.1391,N,00827.7744,E,1,8,1.27,124.4,M,47.9,M,,*4D",,,,
2022-03-02T18:18:10+01:00,55,18.04,21.36,1008.49,36.90,38.80,0,-127.00,"$GNGGA,171805.000,4900.1377,N,00827.7697,E,1,8,1.07,124.8,M,47.9,M,,*4E",,,,
2022-03-02T18:18:31+01:00,56,18.06,21.68,1008.56,38.30,40.30,0,-127.00,"$GNGGA,171826.000,4900.1396,N,00827.7693,E,1,8,1.07,126.1,M,47.9,M,,*4F",,,,
2022-03-02T18:18:51+01:00,57,18.13,21.45,1008.62,39.90,41.90,0,-127.00,"$GNGGA,171846.000,4900.1427,N,00827.7640,E,1,9,1.20,124.2,M,47.9,M,,*4F",,,,
2022-03-02T18:19:12+01:00,58,18.22,21.12,1008.65,41.30,43.40,0,-127.00,"$GNGGA,171907.000,4900.1513,N,00827.7959,E,1,9,1.20,126.3,M,47.9,M,,*49",,,,
2022-03-02T18:19:32+01:00,59,18.32,20.92,1008.66,44.00,46.30,0,-127.00,"$GNGGA,171927.000,4900.1874,N,00827.8935,E,1,9,1.07,120.9,M,47.9,M,,*4B",,,,
2022-03-02T18:19:52+01:00,60,18.44,20.85,1008.66,39.80,41.80,0,-127.00,"$GNGGA,171947.000,4900.2681,N,00828.0817,E,1,10,0.92,118.4,M,47.9,M,,*7F",,,,
2022-03-02T18:21:21+01:00,61,20.17,20.94,1008.73,31.20,32.80,0,-127.00,"$GNGGA,172116.000,4901.2557,N,00829.1145,E,1,6,1.28,125.9,M,47.9,M,,*43",,,,
2022-03-02T18:21:42+01:00,62,20.01,21.04,1008.76,32.30,34.00,0,-127.00,"$GNGGA,172137.000,4901.5218,N,00829.3638,E,1,9,0.89,127.1,M,47.9,M,,*4B",,,,
2022-03-02T18:22:03+01:00,63,19.92,21.04,1008.78,33.90,35.60,0,-127.00,"$GNGGA,172158.000,4901.7878,N,00829.6129,E,1,9,0.89,124.7,M,47.9,M,,*4B",,,,
2022-03-02T18:22:24+01:00,64,19.89,21.04,1008.82,32.20,33.90,0,-127.00,"$GNGGA,172219.000,4902.0539,N,00829.8638,E,1,9,0.89,123.7,M,47.9,M,,*4F",,,,
2022-03-02T18:39:33+01:00,65,15.59,26.70,1008.86,33.70,35.40,0,-127.00,"$GNGGA,173928.000,4902.1094,N,00829.9224,E,1,7,1.24,141.6,M,47.9,M,,*41",,,,
2022-03-02T18:39:54+01:00,66,15.44,26.70,1008.84,33.10,34.80,0,-127.00,"$GNGGA,173949.000,4901.8507,N,00829.6757,E,1,7,1.24,133.3,M,47.9,M,,*4D",,,,
2022-03-02T18:40:15+01:00,67,15.40,26.62,1008.83,31.70,33.30,0,-127.00,"$GNGGA,174010.000,4901.5921,N,00829.4308,E,1,7,1.24,131.3,M,47.9,M,,*44",,,,
2022-03-02T18:40:35+01:00,68,15.43,26.53,1008.83,33.00,34.70,0,-127.00,"$GNGGA,174030.000,4901.3409,N,00829.1928,E,1,7,1.25,130.9,M,47.9,M,,*40",,,,
2022-03-02T18:40:56+01:00,69,15.51,26.43,1008.79,32.70,34.40,0,-127.00,"$GNGGA,174051.000,4901.0847,N,00828.9516,E,1,7,1.25,131.0,M,47.9,M,,*42",,,,
2022-03-02T18:42:36+01:00,70,18.25,25.59,1008.64,35.10,36.90,0,-127.00,"$GNGGA,174250.086,9000.0000,N,00000.0000,E,0,0,,137.0,M,13.0,M,,*58",,,,
2022-03-02T18:42:57+01:00,71,18.06,25.76,1008.70,34.80,36.60,0,-127.00,"$GNGGA,174310.310,9000.0000,N,00000.0000,E,0,0,,137.0,M,13.0,M,,*51",,,,
2022-03-02T18:43:17+01:00,72,17.86,25.59,1008.70,33.60,35.30,0,-127.00,"$GNGGA,174330.091,9000.0000,N,00000.0000,E,0,0,,137.0,M,13.0,M,,*59",,,,
2022-03-02T18:43:37+01:00,73,17.53,24.35,1008.80,33.40,35.10,0,-127.00,"$GNGGA,174350.309,9000.0000,N,00000.0000,E,0,0,,137.0,M,13.0,M,,*5D",,,,
2022-03-02T18:44:10+01:00,74,16.99,25.30,1008.82,35.10,36.90,0,-127.00,"$GNGGA,174424.093,9000.0000,N,00000.0000,E,0,0,,137.0,M,13.0,M,,*59",,,,
2022-03-02T18:44:31+01:00,75,16.65,25.52,1008.78,35.40,37.20,0,-127.00,"$GNGGA,174444.295,9000.0000,N,00000.0000,E,0,0,,137.0,M,13.0,M,,*5B",,,,
2022-03-02T18:44:51+01:00,76,16.46,25.31,1008.76,32.70,34.40,0,-127.00,"$GNGGA,174446.000,4838.7744,N,00904.4974,E,0,3,,107.3,M,48.0,M,,*57",,,,
2022-03-02T18:45:10+01:00,77,16.40,25.01,1008.74,32.50,34.20,0,-127.00,"$GNGGA,174506.000,4858.1392,N,00815.5243,E,0,0,,102.1,M,47.9,M,,*50",,,,
2022-03-02T18:45:32+01:00,78,16.41,24.81,1008.71,32.60,34.30,0,-127.00,"$GNGGA,174527.000,4903.0838,N,00810.4941,E,0,0,,102.1,M,47.9,M,,*5B",,,,
2022-03-02T18:45:51+01:00,79,16.48,24.79,1008.72,32.50,34.20,0,-127.00,"$GNGGA,174547.000,4903.0838,N,00810.4941,E,0,0,,102.1,M,47.9,M,,*5D",,,,
2022-03-02T18:46:11+01:00,80,16.60,24.58,1008.65,33.20,34.90,0,-127.00,"$GNGGA,174607.000,4903.0838,N,00810.4941,E,0,0,,102.1,M,47.9,M,,*5A",,,,
2022-03-02T18:46:33+01:00,81,16.75,24.44,1008.53,32.90,34.60,0,-127.00,"$GNGGA,174628.000,4903.0838,N,00810.4941,E,0,0,,102.1,M,47.9,M,,*57",,,,
2022-03-02T18:46:52+01:00,82,16.91,24.29,1008.51,33.50,35.20,0,-127.00,"$GNGGA,174648.000,4903.0838,N,00810.4941,E,0,0,,102.1,M,47.9,M,,*51",,,,
2022-03-02T18:47:14+01:00,83,17.07,24.17,1008.38,33.80,35.50,0,-127.00,"$GNGGA,174709.000,4903.0838,N,00810.4941,E,0,0,,102.1,M,47.9,M,,*55",,,,
2022-03-02T18:47:35+01:00,84,17.24,24.08,1008.28,34.80,36.60,0,-127.00,"$GNGGA,174730.000,4903.0838,N,00810.4941,E,0,0,,102.1,M,47.9,M,,*5F",,,,
2022-03-02T18:47:55+01:00,85,17.41,23.97,1008.19,35.80,37.60,0,-127.00,"$GNGGA,174750.000,4903.0838,N,00810.4941,E,0,0,,102.1,M,47.9,M,,*59",,,,
2022-03-02T18:48:16+01:00,86,17.60,23.91,1008.23,35.40,37.20,0,-127.00,"$GNGGA,174811.000,4903.0838,N,00810.4941,E,0,0,,102.1,M,47.9,M,,*53",,,,
2022-03-02T18:48:36+01:00,87,17.79,23.79,1008.36,34.80,36.60,0,-127.00,"$GNGGA,174831.204,4839.5904,N,01110.5629,E,0,0,,102.4,M,47.8,M,,*58",,,,
2022-03-02T18:48:55+01:00,88,17.97,23.73,1008.43,34.60,36.40,0,-127.00,"$GNGGA,174850.299,4835.9070,N,01135.9765,E,0,3,,182.4,M,47.6,M,,*56",,,,
2022-03-02T18:50:14+01:00,89,19.93,23.48,1008.70,34.90,36.70,0,-127.00,"$GNGGA,000027.263,9000.0000,N,00000.0000,E,0,0,,137.0,M,13.0,M,,*51",,,,
2022-03-02T18:51:49+01:00,90,19.80,23.49,1008.72,36.40,38.30,0,-127.00,"$GNGGA,175118.097,9000.0000,N,00000.0000,E,0,0,,137.0,M,13.0,M,,*56",,,,
2022-03-02T18:52:10+01:00,91,19.79,23.06,1008.75,31.90,33.50,0,-127.00,"$GNGGA,175205.098,4706.4077,N,01315.9631,E,0,0,,380.8,M,46.1,M,,*52",,,,
2022-03-02T18:52:30+01:00,92,19.80,21.57,1008.76,32.60,34.30,0,-127.00,"$GNGGA,175226.096,4905.7128,N,00838.7275,E,0,0,,34.8,M,48.0,M,,*64",,,,
2022-03-02T18:52:50+01:00,93,19.86,21.37,1008.78,35.00,36.80,0,-127.00,"$GNGGA,175245.282,4905.7127,N,00838.7275,E,0,0,,34.9,M,48.0,M,,*68",,,,
2022-03-02T18:53:10+01:00,94,19.94,20.99,1008.79,35.50,37.30,0,-127.00,"$GNGGA,175305.000,4900.4665,N,00825.4596,E,1,4,5.00,137.4,M,47.9,M,,*40",,,,
2022-03-02T18:53:31+01:00,95,19.85,20.18,1008.81,35.90,37.70,0,-127.00,"$GNGGA,175326.000,4900.4672,N,00825.4507,E,1,5,4.82,130.0,M,47.9,M,,*46",,,,
2022-03-02T18:53:51+01:00,96,19.59,19.89,1008.80,36.50,38.40,0,-127.00,"$GNGGA,175346.000,4900.4791,N,00825.4397,E,1,6,2.09,135.8,M,47.9,M,,*48",,,,
2022-03-02T18:54:11+01:00,97,19.25,20.34,1008.80,35.60,37.40,0,-127.00,"$GNGGA,175406.000,4900.4877,N,00825.4250,E,1,7,1.22,140.3,M,47.9,M,,*44",,,,
2022-03-02T18:54:32+01:00,98,19.08,20.80,1008.79,35.60,37.40,0,-127.00,"$GNGGA,175427.000,4900.4871,N,00825.4174,E,1,7,1.22,142.4,M,47.9,M,,*41",,,,
