created_at,entry_id,field1,field2,field3,field4,field5,field6,field7,field8,latitude,longitude,elevation,status
2022-03-06T14:02:32+01:00,185,24.15,33.64,1007.16,195.1,204.9,0,-127,"$GNGGA,130228.096,4900.5608,N,00825.2355,E,0,0,,133.8,M,47.9,M,,*53",,,,
2022-03-06T14:02:53+01:00,186,24.55,31.13,1007.18,174.6,183.4,0,-127,"$GNGGA,130248.312,4900.5608,N,00825.2355,E,0,0,,133.8,M,47.9,M,,*5A",,,,
2022-03-06T14:03:13+01:00,187,25.24,28.31,1007.2,155.2,163,0,-127,"$GNGGA,130308.309,4900.5558,N,00825.6299,E,0,3,,133.7,M,47.9,M,,*5A",,,,
2022-03-06T14:03:33+01:00,188,26.08,26.44,1007.21,150.2,157.8,0,-127,"$GNGGA,130328.309,4900.5591,N,00825.6362,E,0,3,,133.7,M,47.9,M,,*58",,,,
2022-03-06T14:03:53+01:00,189,26.97,25.03,1007.22,152.3,160,0,-127,"$GNGGA,130348.309,4900.5700,N,00825.6469,E,0,3,,133.7,M,47.9,M,,*58",,,,
2022-03-06T14:04:13+01:00,190,27.87,23.97,1007.24,151.3,158.9,0,-127,"$GNGGA,130408.309,4900.5760,N,00825.6905,E,0,3,,133.7,M,47.9,M,,*5A",,,,
2022-03-06T14:04:34+01:00,191,28.75,23.08,1007.25,149.1,156.6,0,-127,"$GNGGA,130429.309,4900.5804,N,00825.7122,E,0,3,,133.7,M,47.9,M,,*58",,,,
2022-03-06T14:04:54+01:00,192,29.58,22.13,1007.25,149.1,156.6,0,-127,"$GNGGA,130449.309,4900.5169,N,00825.3031,E,0,2,,133.8,M,47.9,M,,*55",,,,
2022-03-06T14:05:14+01:00,193,30.38,21.48,1007.26,150.8,158.4,0,-127,"$GNGGA,130509.309,4900.5091,N,00825.2545,E,0,2,,133.8,M,47.9,M,,*51",,,,
2022-03-06T14:05:35+01:00,194,31.11,21.06,1007.25,152,159.7,0,-127,"$GNGGA,130530.309,4900.5606,N,00825.2356,E,0,1,,133.8,M,47.9,M,,*54",,,,
2022-03-06T14:05:55+01:00,195,31.8,20.79,1007.24,151.4,159,0,-127,"$GNGGA,130550.309,4900.6727,N,00825.2930,E,0,2,,133.7,M,47.9,M,,*55",,,,
2022-03-06T14:06:15+01:00,196,32.43,20.47,1007.23,149.3,156.8,0,-127,"$GNGGA,130610.309,4900.6587,N,00825.2837,E,0,2,,133.7,M,47.9,M,,*5C",,,,
2022-03-06T14:06:36+01:00,197,33.03,20.1,1007.23,148.1,155.6,0,-127,"$GNGGA,130631.309,4900.6337,N,00825.2679,E,0,2,,133.8,M,47.9,M,,*59",,,,
2022-03-06T14:06:56+01:00,198,33.57,19.86,1007.22,147,154.4,0,-127,"$GNGGA,130651.086,4900.6352,N,00825.2654,E,0,2,,133.7,M,47.9,M,,*58",,,,
2022-03-06T14:07:16+01:00,199,34.09,19.57,1007.22,148,155.5,0,-127,"$GNGGA,130711.086,4900.6315,N,00825.2624,E,0,0,,102.1,M,47.9,M,,*5F",,,,
2022-03-06T14:07:36+01:00,200,34.58,19.32,1007.22,148.4,155.9,0,-127,"$GNGGA,130732.086,4900.6315,N,00825.2624,E,0,0,,102.1,M,47.9,M,,*5E",,,,
2022-03-06T14:07:56+01:00,201,35.03,19.06,1007.23,147.7,155.1,0,-127,"$GNGGA,130752.086,4900.6315,N,00825.2624,E,0,0,,102.1,M,47.9,M,,*58",,,,
2022-03-06T14:08:17+01:00,202,35.45,18.84,1007.22,148.1,155.6,0,-127,"$GNGGA,130812.086,4900.6820,N,00824.4886,E,0,3,,99.4,M,47.9,M,,*6A",,,,
2022-03-06T14:08:38+01:00,203,35.85,18.61,1007.23,151,158.6,0,-127,"$GNGGA,130833.000,4900.5177,N,00825.7527,E,1,5,1.16,-82.3,M,47.9,M,,*54",,,,
2022-03-06T14:08:58+01:00,204,36.22,17.65,1007.22,155.5,163.3,0,-127,"$GNGGA,130853.000,4900.5192,N,00825.7171,E,1,4,27.83,-71.7,M,47.9,M,,*6F",,,,
2022-03-06T14:09:18+01:00,205,36.57,17.33,1007.22,155.1,162.9,0,-127,"$GNGGA,130913.000,4900.5191,N,00825.6825,E,1,4,4.76,-49.8,M,47.9,M,,*5F",,,,
2022-03-06T14:09:39+01:00,206,36.9,16.52,1007.21,153.2,160.9,0,-127,"$GNGGA,130934.000,4900.5193,N,00825.6845,E,1,4,4.74,-46.9,M,47.9,M,,*52",,,,
2022-03-06T14:09:59+01:00,207,37.21,16.77,1007.2,152,159.7,0,-127,"$GNGGA,130954.000,4900.5216,N,00825.6877,E,1,4,4.71,-58.6,M,47.9,M,,*5E",,,,
2022-03-06T14:15:58+01:00,208,30.16,12.55,1008.93,33.4,35.1,0,-127,"$GNGGA,131553.103,4900.5172,N,00825.7623,E,0,1,,-88.0,M,47.9,M,,*4A",,,,
2022-03-06T14:16:19+01:00,209,29.87,12.44,1008.94,31.3,32.9,0,-127,"$GNGGA,131614.099,4845.3905,N,02757.6235,E,0,2,,-70.1,M,29.9,M,,*41",,,,
2022-03-06T14:16:39+01:00,210,29.68,14.28,1008.95,30.2,31.8,0,-127,"$GNGGA,131634.100,2908.8163,N,03513.0948,E,0,4,,-53.9,M,14.1,M,,*42",,,,
2022-03-06T14:16:59+01:00,211,29.55,14.45,1008.94,28.3,29.8,0,-127,"$GNGGA,131654.100,2845.2064,N,03521.3990,E,0,4,,-53.5,M,13.8,M,,*45",,,,
2022-03-06T14:17:19+01:00,212,29.42,13.25,1008.95,28.6,30.1,0,-127,"$GNGGA,131715.142,0016.9337,S,13805.3557,W,0,0,,150.2,M,-0.2,M,,*4E",,,,
2022-03-06T14:17:39+01:00,213,29.26,11.35,1008.93,29.2,30.7,0,-127,"$GNGGA,131735.134,4338.3866,S,12844.2209,E,0,0,,175.2,M,-25.7,M,,*6D",,,,
2022-03-06T14:18:02+01:00,214,29.02,10.88,1008.92,29.9,31.4,0,-127,"$GNGGA,131757.000,4900.4917,N,00825.3926,E,1,6,1.45,239.1,M,47.9,M,,*46",,,,
2022-03-06T14:18:23+01:00,215,28.82,12.01,1008.92,30.1,31.7,0,-127,"$GNGGA,131818.000,4900.4933,N,00825.4104,E,1,6,1.46,181.0,M,47.9,M,,*49",,,,
2022-03-06T14:18:43+01:00,216,28.63,11.79,1008.91,30.7,32.3,0,-127,"$GNGGA,131838.000,4900.4973,N,00825.4087,E,1,7,1.21,194.8,M,47.9,M,,*49",,,,
2022-03-06T14:19:04+01:00,217,28.47,12.02,1008.91,31.8,33.4,0,-127,"$GNGGA,131859.000,4900.4997,N,00825.4069,E,1,7,1.21,196.8,M,47.9,M,,*46",,,,
2022-03-06T14:19:25+01:00,218,28.33,12.01,1008.91,31.7,33.3,0,-127,"$GNGGA,131920.000,4900.4967,N,00825.4040,E,1,7,1.28,193.1,M,47.9,M,,*48",,,,
2022-03-06T14:19:45+01:00,219,28.2,12.22,1008.89,32,33.7,0,-127,"$GNGGA,131940.000,4900.4952,N,00825.4058,E,1,9,1.19,191.0,M,47.9,M,,*4E",,,,
2022-03-06T14:20:05+01:00,220,28.06,11.26,1008.88,31.9,33.5,0,-127,"$GNGGA,132000.000,4900.4950,N,00825.4142,E,1,10,0.96,188.0,M,47.9,M,,*7E",,,,
2022-03-06T14:20:26+01:00,221,27.93,11.58,1008.88,32.3,34,0,-127,"$GNGGA,132021.000,4900.4905,N,00825.4130,E,1,10,0.96,181.4,M,47.9,M,,*75",,,,
2022-03-06T14:20:46+01:00,222,27.79,11.55,1008.88,31.5,33.1,0,-127,"$GNGGA,132041.000,4900.4741,N,00825.4072,E,2,11,0.81,173.7,M,47.9,M,,*70",,,,
2022-03-06T14:21:07+01:00,223,27.45,10.69,1008.89,31.6,33.2,0,-127,"$GNGGA,132102.000,4900.4601,N,00825.4121,E,2,10,0.86,173.8,M,47.9,M,,*7D",,,,
2022-03-06T14:21:28+01:00,224,27.04,10.69,1008.9,32.6,34.3,0,-127,"$GNGGA,132123.000,4900.4520,N,00825.4553,E,2,11,0.81,140.5,M,47.9,M,,*74",,,,
2022-03-06T14:21:48+01:00,225,26.8,11.66,1008.91,33.1,34.8,0,-127,"$GNGGA,132143.000,4900.4547,N,00825.4550,E,2,10,0.97,131.8,M,47.9,M,,*7D",,,,
2022-03-06T14:22:08+01:00,226,25.9,11.19,1008.92,32.9,34.6,0,-127,"$GNGGA,132203.000,4900.4486,N,00825.4635,E,2,12,0.79,125.8,M,47.9,M,,*71",,,,
2022-03-06T14:22:29+01:00,227,25.24,11.82,1008.91,33,34.7,0,-127,"$GNGGA,132224.000,4900.4356,N,00825.4577,E,2,10,0.99,115.1,M,47.9,M,,*7D",,,,
2022-03-06T14:22:49+01:00,228,24.76,12.07,1008.94,33.2,34.9,0,-127,"$GNGGA,132244.000,4900.4186,N,00825.4509,E,2,11,0.93,120.9,M,47.9,M,,*78",,,,
2022-03-06T14:23:10+01:00,229,24.4,12.29,1008.95,33.7,35.4,0,-127,"$GNGGA,132305.000,4900.4015,N,00825.4609,E,2,11,0.93,127.7,M,47.9,M,,*7D",,,,
2022-03-06T14:23:31+01:00,230,24.19,12.66,1008.97,33.3,35,0,-127,"$GNGGA,132326.000,4900.3884,N,00825.4547,E,2,12,0.79,143.6,M,47.9,M,,*76",,,,
2022-03-06T14:23:51+01:00,231,24.02,12.68,1008.98,34.3,36.1,0,-127,"$GNGGA,132346.000,4900.3740,N,00825.4510,E,2,12,0.79,152.6,M,47.9,M,,*75",,,,
2022-03-06T14:24:12+01:00,232,23.84,12.36,1009,34.9,36.7,0,-127,"$GNGGA,132407.000,4900.3605,N,00825.4507,E,2,12,0.90,158.3,M,47.9,M,,*79",,,,
2022-03-06T14:24:33+01:00,233,23.42,12.2,1009,35.5,37.3,0,-127,"$GNGGA,132428.000,4900.3470,N,00825.4618,E,2,12,0.79,140.8,M,47.9,M,,*7C",,,,
2022-03-06T14:24:54+01:00,234,23.02,12.43,1008.98,34.3,36.1,0,-127,"$GNGGA,132449.000,4900.3343,N,00825.4686,E,2,11,0.93,120.6,M,47.9,M,,*74",,,,
2022-03-06T14:25:15+01:00,235,22.73,12.7,1008.97,32.3,34,0,-127,"$GNGGA,132510.000,4900.3189,N,00825.4681,E,2,13,0.79,115.3,M,47.9,M,,*7F",,,,
2022-03-06T14:25:36+01:00,236,22.49,12.86,1008.96,30.5,32.1,0,-127,"$GNGGA,132531.000,4900.3038,N,00825.4672,E,2,12,0.82,115.2,M,47.9,M,,*7F",,,,
2022-03-06T14:25:57+01:00,237,22.33,12.84,1008.95,30.1,31.7,0,-127,"$GNGGA,132552.000,4900.2883,N,00825.4675,E,2,13,0.79,114.0,M,47.9,M,,*72",,,,
2022-03-06T14:26:18+01:00,238,22.22,13,1008.93,33,34.7,0,-127,"$GNGGA,132613.000,4900.2733,N,00825.4689,E,2,13,0.79,111.1,M,47.9,M,,*77",,,,
2022-03-06T14:26:39+01:00,239,22.12,13.32,1008.94,34.2,36,0,-127,"$GNGGA,132634.000,4900.2583,N,00825.4686,E,2,12,0.93,110.4,M,47.9,M,,*75",,,,
