created_at,entry_id,field1,field2,field3,field4,field5,field6,field7,field8,latitude,longitude,elevation,status
2022-03-06T18:57:49+01:00,1,42.05,12.33,1007.65,166.30,174.70,0,-127.00,"$GNGGA,175744.000,4900.5315,N,00825.3798,E,0,3,,103.5,M,47.9,M,,*52",,,,
2022-03-06T18:58:09+01:00,2,42.18,12.21,1007.66,166.50,174.90,0,-127.00,"$GNGGA,175804.000,4900.5324,N,00825.3988,E,0,3,,103.6,M,47.9,M,,*57",,,,
2022-03-06T18:58:29+01:00,3,42.33,12.17,1007.66,166.90,175.30,0,-127.00,"$GNGGA,175824.000,4900.5444,N,00825.3654,E,0,3,,103.7,M,47.9,M,,*5B",,,,
2022-03-06T18:58:50+01:00,4,42.46,12.13,1007.66,166.70,175.10,0,-127.00,"$GNGGA,175845.000,4900.5247,N,00825.4533,E,0,3,,103.9,M,47.9,M,,*52",,,,
2022-03-06T18:59:10+01:00,5,42.59,12.08,1007.66,168.00,176.50,0,-127.00,"$GNGGA,175905.000,4900.5089,N,00825.5031,E,0,2,,104.1,M,47.9,M,,*5F",,,,
2022-03-06T18:59:31+01:00,6,42.72,12.01,1007.67,169.20,177.70,0,-127.00,"$GNGGA,175926.000,4900.5093,N,00825.5057,E,0,2,,104.5,M,47.9,M,,*51",,,,
2022-03-06T18:59:52+01:00,7,42.85,11.96,1007.67,173.60,182.30,0,-127.00,"$GNGGA,175947.000,4900.5094,N,00825.5061,E,0,3,,104.3,M,47.9,M,,*53",,,,
2022-03-06T19:00:12+01:00,8,42.97,11.88,1007.67,180.30,189.40,0,-127.00,"$GNGGA,180007.000,4900.5094,N,00825.5058,E,0,3,,104.2,M,47.9,M,,*5F",,,,
2022-03-06T19:00:33+01:00,9,43.10,11.81,1007.67,181.10,190.20,0,-127.00,"$GNGGA,180028.000,4900.5095,N,00825.5057,E,0,3,,104.2,M,47.9,M,,*5C",,,,
2022-03-06T19:00:54+01:00,10,43.23,11.74,1007.66,176.10,185.00,0,-127.00,"$GNGGA,180049.000,4900.5095,N,00825.5062,E,0,3,,104.1,M,47.9,M,,*5E",,,,
2022-03-06T19:01:14+01:00,11,43.35,11.64,1007.67,171.10,179.70,0,-127.00,"$GNGGA,180109.000,4900.5095,N,00825.5055,E,0,3,,104.2,M,47.9,M,,*5C",,,,
2022-03-06T19:01:34+01:00,12,43.47,11.56,1007.67,169.40,177.90,0,-127.00,"$GNGGA,180129.000,4900.5097,N,00825.5059,E,0,3,,103.9,M,47.9,M,,*5C",,,,
2022-03-06T19:01:55+01:00,13,43.59,11.54,1007.67,170.50,179.10,0,-127.00,"$GNGGA,180150.000,4900.5097,N,00825.5061,E,0,2,,103.7,M,47.9,M,,*56",,,,
2022-03-06T19:02:15+01:00,14,43.69,11.50,1007.67,171.20,179.80,0,-127.00,"$GNGGA,180210.000,4900.5097,N,00825.5057,E,0,3,,103.8,M,47.9,M,,*5A",,,,
2022-03-06T19:02:35+01:00,15,43.80,11.39,1007.66,170.80,179.40,0,-127.00,"$GNGGA,180230.000,4900.5098,N,00825.5062,E,0,3,,103.7,M,47.9,M,,*5E",,,,
2022-03-06T19:02:56+01:00,16,43.91,11.39,1007.65,171.20,179.80,0,-127.00,"$GNGGA,180251.000,4900.5097,N,00825.5067,E,0,3,,103.8,M,47.9,M,,*5C",,,,
2022-03-06T19:03:16+01:00,17,44.01,11.35,1007.66,172.10,180.80,0,-127.00,"$GNGGA,180311.000,4900.5099,N,00825.5074,E,0,3,,103.8,M,47.9,M,,*55",,,,
2022-03-06T19:03:36+01:00,18,44.11,11.27,1007.66,172.30,181.00,0,-127.00,"$GNGGA,180331.000,4900.5214,N,00825.5081,E,0,3,,103.9,M,47.9,M,,*5B",,,,
2022-03-06T19:03:57+01:00,19,44.21,11.29,1007.66,170.70,179.30,0,-127.00,"$GNGGA,180352.000,4900.5330,N,00825.4942,E,0,3,,104.2,M,47.9,M,,*52",,,,
2022-03-06T19:04:17+01:00,20,44.31,11.23,1007.66,170.70,179.30,0,-127.00,"$GNGGA,180412.000,4900.5215,N,00825.5101,E,0,3,,104.1,M,47.9,M,,*5A",,,,
2022-03-06T19:04:38+01:00,21,44.41,11.13,1007.67,172.30,181.00,0,-127.00,"$GNGGA,180433.000,4900.5011,N,00825.5591,E,0,3,,104.0,M,47.9,M,,*53",,,,
2022-03-06T19:04:59+01:00,22,44.50,11.09,1007.65,171.20,179.80,0,-127.00,"$GNGGA,180454.000,4900.4965,N,00825.5951,E,0,3,,103.8,M,47.9,M,,*56",,,,
2022-03-06T19:05:19+01:00,23,44.59,11.04,1007.64,167.80,176.20,0,-127.00,"$GNGGA,180514.000,4900.4930,N,00825.5469,E,0,3,,103.7,M,47.9,M,,*5A",,,,
2022-03-06T19:05:39+01:00,24,44.68,11.00,1007.64,168.30,176.80,0,-127.00,"$GNGGA,180534.000,4900.4877,N,00825.5416,E,0,3,,103.7,M,47.9,M,,*52",,,,
2022-03-06T19:06:00+01:00,25,44.76,10.96,1007.64,168.90,177.40,0,-127.00,"$GNGGA,180555.000,4900.4987,N,00825.5519,E,0,3,,103.6,M,47.9,M,,*54",,,,
2022-03-06T19:06:20+01:00,26,44.84,10.94,1007.65,166.20,174.60,0,-127.00,"$GNGGA,180615.000,4900.5166,N,00825.5624,E,0,3,,103.9,M,47.9,M,,*57",,,,
2022-03-06T19:06:40+01:00,27,44.93,10.89,1007.65,165.50,173.80,0,-127.00,"$GNGGA,180635.000,4900.5031,N,00825.6509,E,0,3,,104.2,M,47.9,M,,*55",,,,
2022-03-06T19:07:01+01:00,28,45.01,10.82,1007.64,165.90,174.20,0,-127.00,"$GNGGA,180656.000,4900.4781,N,00825.7489,E,0,3,,104.6,M,47.9,M,,*51",,,,
2022-03-06T19:07:21+01:00,29,45.08,10.85,1007.62,169.60,178.10,0,-127.00,"$GNGGA,180716.000,4900.4655,N,00825.8108,E,0,3,,105.0,M,47.9,M,,*58",,,,
2022-03-06T19:07:41+01:00,30,45.16,10.76,1007.62,169.70,178.20,0,-127.00,"$GNGGA,180736.000,4900.4593,N,00825.8225,E,0,3,,105.4,M,47.9,M,,*5B",,,,
2022-03-06T19:08:02+01:00,31,45.24,10.71,1007.62,170.90,179.50,0,-127.00,"$GNGGA,180757.000,4900.4707,N,00825.7546,E,0,3,,105.7,M,47.9,M,,*5D",,,,
2022-03-06T19:08:22+01:00,32,45.31,10.67,1007.62,171.80,180.40,0,-127.00,"$GNGGA,180817.000,4900.4795,N,00825.7113,E,0,3,,106.1,M,47.9,M,,*5C",,,,
2022-03-06T19:08:42+01:00,33,45.39,10.63,1007.64,174.60,183.40,0,-127.00,"$GNGGA,180837.000,4900.5119,N,00825.5605,E,0,3,,106.6,M,47.9,M,,*58",,,,
2022-03-06T19:09:03+01:00,34,45.47,10.58,1007.64,173.30,182.00,0,-127.00,"$GNGGA,180858.000,4900.5378,N,00825.4382,E,0,3,,106.5,M,47.9,M,,*5C",,,,
2022-03-06T19:09:23+01:00,35,45.53,10.62,1007.64,171.00,179.60,0,-127.00,"$GNGGA,180918.000,4900.5512,N,00825.3157,E,0,3,,106.2,M,47.9,M,,*59",,,,
2022-03-06T19:09:43+01:00,36,45.61,10.61,1007.65,168.20,176.70,0,-127.00,"$GNGGA,180938.000,4900.5306,N,00825.4062,E,0,3,,105.4,M,47.9,M,,*5D",,,,
2022-03-06T19:10:04+01:00,37,45.67,10.55,1007.65,168.30,176.80,0,-127.00,"$GNGGA,180959.000,4900.5372,N,00825.3746,E,0,3,,104.6,M,47.9,M,,*5C",,,,
2022-03-06T19:10:25+01:00,38,45.75,10.45,1007.65,167.00,175.40,0,-127.00,"$GNGGA,181020.000,4900.5247,N,00825.4315,E,0,2,,103.9,M,47.9,M,,*51",,,,
2022-03-06T19:10:46+01:00,39,45.83,10.36,1007.64,167.40,175.80,0,-127.00,"$GNGGA,181041.000,4900.5329,N,00825.4413,E,0,2,,103.4,M,47.9,M,,*53",,,,
2022-03-06T19:11:06+01:00,40,45.91,10.38,1007.64,167.20,175.60,0,-127.00,"$GNGGA,181101.000,4900.5438,N,00825.4338,E,0,3,,103.2,M,47.9,M,,*58",,,,
2022-03-06T19:11:26+01:00,41,45.98,10.34,1007.64,168.70,177.20,0,-127.00,"$GNGGA,181121.000,4900.5256,N,00825.4512,E,0,3,,103.5,M,47.9,M,,*5D",,,,
2022-03-06T19:11:47+01:00,42,46.05,10.32,1007.64,168.90,177.40,0,-127.00,"$GNGGA,181142.000,4900.5220,N,00825.4840,E,0,3,,103.6,M,47.9,M,,*50",,,,
2022-03-06T19:12:07+01:00,43,46.10,10.26,1007.64,169.80,178.30,0,-127.00,"$GNGGA,181202.000,4900.5142,N,00825.5294,E,0,3,,103.9,M,47.9,M,,*5D",,,,
2022-03-06T19:12:27+01:00,44,46.16,10.26,1007.65,169.80,178.30,0,-127.00,"$GNGGA,181222.000,4900.4995,N,00825.5686,E,0,3,,104.7,M,47.9,M,,*52",,,,
2022-03-06T19:12:48+01:00,45,46.22,10.20,1007.65,168.80,177.30,0,-127.00,"$GNGGA,181243.000,4900.5007,N,00825.5765,E,0,3,,105.1,M,47.9,M,,*5D",,,,
2022-03-06T19:13:08+01:00,46,46.27,10.18,1007.65,167.40,175.80,0,-127.00,"$GNGGA,181303.000,4900.5069,N,00825.5905,E,0,3,,105.4,M,47.9,M,,*5D",,,,
2022-03-06T19:13:28+01:00,47,46.33,10.13,1007.65,167.10,175.50,0,-127.00,"$GNGGA,181323.000,4900.4934,N,00825.6137,E,0,2,,106.0,M,47.9,M,,*53",,,,
2022-03-06T19:13:49+01:00,48,46.38,10.13,1007.65,169.00,177.50,0,-127.00,"$GNGGA,181344.000,4900.4884,N,00825.6212,E,0,3,,106.4,M,47.9,M,,*59",,,,
2022-03-06T19:14:09+01:00,49,46.43,10.07,1007.66,170.50,179.10,0,-127.00,"$GNGGA,181404.000,4900.4767,N,00825.6732,E,0,3,,106.7,M,47.9,M,,*5C",,,,
2022-03-06T19:14:29+01:00,50,46.48,10.01,1007.66,170.20,178.80,0,-127.00,"$GNGGA,181424.000,4900.4746,N,00825.6914,E,0,3,,107.0,M,47.9,M,,*51",,,,
2022-03-06T19:14:50+01:00,51,46.54,9.99,1007.70,166.80,175.20,0,-127.00,"$GNGGA,181445.000,4900.4936,N,00825.6293,E,0,3,,107.7,M,47.9,M,,*5C",,,,
2022-03-06T19:15:10+01:00,52,46.58,10.02,1007.69,167.00,175.40,0,-127.00,"$GNGGA,181505.000,4900.4992,N,00825.5236,E,0,3,,108.0,M,47.9,M,,*53",,,,
2022-03-06T19:15:30+01:00,53,46.64,9.95,1007.70,169.30,177.80,0,-127.00,"$GNGGA,181525.000,4900.5195,N,00825.3922,E,0,3,,108.3,M,47.9,M,,*54",,,,
2022-03-06T19:15:51+01:00,54,46.68,9.91,1007.69,173.60,182.30,0,-127.00,"$GNGGA,181546.000,4900.5444,N,00825.2893,E,0,3,,109.0,M,47.9,M,,*50",,,,
2022-03-06T19:16:11+01:00,55,46.73,9.98,1007.70,176.00,184.90,0,-127.00,"$GNGGA,181606.000,4900.5451,N,00825.3218,E,0,3,,110.2,M,47.9,M,,*51",,,,
2022-03-06T19:16:31+01:00,56,46.77,10.02,1007.68,175.50,184.30,0,-127.00,"$GNGGA,181626.000,4900.5332,N,00825.4143,E,0,3,,111.2,M,47.9,M,,*5A",,,,
2022-03-06T19:16:52+01:00,57,46.82,9.89,1007.67,175.50,184.30,0,-127.00,"$GNGGA,181647.000,4900.5350,N,00825.4338,E,0,3,,112.3,M,47.9,M,,*55",,,,
2022-03-06T19:17:12+01:00,58,46.87,9.85,1007.67,175.60,184.40,0,-127.00,"$GNGGA,181707.000,4900.5333,N,00825.4286,E,0,3,,113.3,M,47.9,M,,*50",,,,
2022-03-06T19:17:32+01:00,59,46.91,9.82,1007.67,176.90,185.80,0,-127.00,"$GNGGA,181727.000,4900.5273,N,00825.4292,E,0,3,,113.8,M,47.9,M,,*59",,,,
2022-03-06T19:17:53+01:00,60,46.95,9.80,1007.66,177.10,186.00,0,-127.00,"$GNGGA,181748.000,4900.5133,N,00825.5038,E,0,3,,114.0,M,47.9,M,,*5B",,,,
2022-03-06T19:18:13+01:00,61,46.98,9.74,1007.66,175.30,184.10,0,-127.00,"$GNGGA,181808.000,4900.5189,N,00825.4520,E,0,3,,114.3,M,47.9,M,,*5F",,,,
2022-03-06T19:18:33+01:00,62,47.02,9.74,1007.66,175.30,184.10,0,-127.00,"$GNGGA,181828.000,4900.5283,N,00825.3913,E,0,3,,114.5,M,47.9,M,,*59",,,,
2022-03-06T19:18:54+01:00,63,47.06,9.68,1007.64,176.30,185.20,0,-127.00,"$GNGGA,181849.000,4900.5218,N,00825.4964,E,0,3,,114.9,M,47.9,M,,*57",,,,
2022-03-06T19:19:14+01:00,64,47.10,9.62,1007.65,173.00,181.70,0,-127.00,"$GNGGA,181909.000,4900.5229,N,00825.5118,E,0,3,,115.4,M,47.9,M,,*5E",,,,
2022-03-06T19:19:34+01:00,65,47.14,9.64,1007.64,173.40,182.10,0,-127.00,"$GNGGA,181929.000,4900.5228,N,00825.5076,E,0,3,,115.9,M,47.9,M,,*59",,,,
2022-03-06T19:19:55+01:00,66,47.17,9.67,1007.65,172.50,181.20,0,-127.00,"$GNGGA,181950.000,4900.5145,N,00825.5549,E,0,3,,116.4,M,47.9,M,,*58",,,,
2022-03-06T19:20:15+01:00,67,47.20,9.70,1007.65,174.90,183.70,0,-127.00,"$GNGGA,182010.000,4900.5206,N,00825.5277,E,0,3,,116.7,M,47.9,M,,*5B",,,,
2022-03-06T19:20:35+01:00,68,47.24,9.65,1007.64,172.00,180.70,0,-127.00,"$GNGGA,182030.000,4900.5315,N,00825.4847,E,0,3,,117.0,M,47.9,M,,*54",,,,
2022-03-06T19:20:56+01:00,69,47.28,9.63,1007.64,173.40,182.10,0,-127.00,"$GNGGA,182051.000,4900.5339,N,00825.5411,E,0,3,,117.2,M,47.9,M,,*51",,,,
2022-03-06T19:21:16+01:00,70,47.31,9.63,1007.65,176.20,185.10,0,-127.00,"$GNGGA,182111.000,4900.5346,N,00825.5692,E,0,2,,117.5,M,47.9,M,,*53",,,,
2022-03-06T19:21:36+01:00,71,47.35,9.55,1007.65,175.50,184.30,0,-127.00,"$GNGGA,182131.000,4900.5310,N,00825.5181,E,0,3,,117.5,M,47.9,M,,*56",,,,
2022-03-06T19:21:57+01:00,72,47.38,9.53,1007.66,171.40,180.00,0,-127.00,"$GNGGA,182152.000,4900.5196,N,00825.5082,E,0,3,,117.2,M,47.9,M,,*5A",,,,
2022-03-06T19:22:17+01:00,73,47.40,9.47,1007.66,168.00,176.50,0,-127.00,"$GNGGA,182212.000,4900.5290,N,00825.3873,E,0,3,,116.7,M,47.9,M,,*5C",,,,
2022-03-06T19:22:37+01:00,74,47.44,9.48,1007.67,167.80,176.20,0,-127.00,"$GNGGA,182232.000,4900.5293,N,00825.4055,E,0,3,,116.5,M,47.9,M,,*54",,,,
2022-03-06T19:22:59+01:00,75,47.48,9.42,1007.67,168.30,176.80,0,-127.00,"$GNGGA,182254.000,4900.5288,N,00825.4058,E,0,3,,116.3,M,47.9,M,,*55",,,,
2022-03-06T19:23:19+01:00,76,47.52,9.36,1007.67,169.30,177.80,0,-127.00,"$GNGGA,182314.000,4900.5288,N,00825.4062,E,0,3,,116.6,M,47.9,M,,*5C",,,,
2022-03-06T19:23:39+01:00,77,47.57,9.34,1007.67,171.70,180.30,0,-127.00,"$GNGGA,182334.000,4900.5292,N,00825.4064,E,0,3,,116.5,M,47.9,M,,*50",,,,
2022-03-06T19:24:00+01:00,78,47.61,9.32,1007.67,174.30,183.10,0,-127.00,"$GNGGA,182355.000,4900.5294,N,00825.4064,E,0,3,,116.2,M,47.9,M,,*56",,,,
2022-03-06T19:24:20+01:00,79,47.63,9.34,1007.68,174.70,183.50,0,-127.00,"$GNGGA,182415.000,4900.5295,N,00825.4069,E,0,3,,116.1,M,47.9,M,,*5A",,,,
2022-03-06T19:24:40+01:00,80,47.66,9.30,1007.68,172.40,181.10,0,-127.00,"$GNGGA,182435.000,4900.5297,N,00825.4067,E,0,3,,115.9,M,47.9,M,,*5F",,,,
2022-03-06T19:25:01+01:00,81,47.68,9.27,1007.68,170.80,179.40,0,-127.00,"$GNGGA,182456.000,4900.5299,N,00825.4077,E,0,3,,116.3,M,47.9,M,,*5C",,,,
2022-03-06T19:25:21+01:00,82,47.69,9.26,1007.68,169.40,177.90,0,-127.00,"$GNGGA,182516.000,4900.5298,N,00825.4073,E,0,3,,116.9,M,47.9,M,,*56",,,,
2022-03-06T19:25:41+01:00,83,47.72,9.22,1007.67,170.80,179.40,0,-127.00,"$GNGGA,182536.000,4900.5293,N,00825.4073,E,0,3,,117.1,M,47.9,M,,*56",,,,
2022-03-06T19:26:02+01:00,84,47.74,9.21,1007.66,171.70,180.30,0,-127.00,"$GNGGA,182557.000,4900.5311,N,00825.4067,E,0,3,,117.3,M,47.9,M,,*5D",,,,
2022-03-06T19:26:22+01:00,85,47.76,9.17,1007.66,172.10,180.80,0,-127.00,"$GNGGA,182617.000,4900.5247,N,00825.4664,E,0,3,,117.7,M,47.9,M,,*59",,,,
2022-03-06T19:26:42+01:00,86,47.78,9.13,1007.66,171.90,180.50,0,-127.00,"$GNGGA,182637.000,4900.5268,N,00825.4728,E,0,3,,118.2,M,47.9,M,,*55",,,,
2022-03-06T19:27:03+01:00,87,47.80,9.16,1007.65,172.20,180.90,0,-127.00,"$GNGGA,182658.000,4900.5277,N,00825.4738,E,0,3,,118.9,M,47.9,M,,*58",,,,
2022-03-06T19:27:23+01:00,88,47.82,9.12,1007.65,171.10,179.70,0,-127.00,"$GNGGA,182718.000,4900.5294,N,00825.4854,E,0,3,,119.2,M,47.9,M,,*5F",,,,
2022-03-06T19:27:43+01:00,89,47.84,9.08,1007.64,169.10,177.60,0,-127.00,"$GNGGA,182738.000,4900.5241,N,00825.4195,E,0,3,,119.5,M,47.9,M,,*56",,,,
2022-03-06T19:28:04+01:00,90,47.86,9.03,1007.65,168.50,177.00,0,-127.00,"$GNGGA,182759.000,4900.5523,N,00825.4209,E,1,4,8.60,194.7,M,47.9,M,,*45",,,,
2022-03-06T19:28:24+01:00,91,47.87,9.03,1007.65,171.80,180.40,0,-127.00,"$GNGGA,182819.000,4900.5565,N,00825.4066,E,1,4,8.42,193.4,M,47.9,M,,*43",,,,
2022-03-06T19:28:44+01:00,92,47.89,9.01,1007.65,172.60,181.30,0,-127.00,"$GNGGA,182839.000,4900.5525,N,00825.4246,E,1,4,8.27,188.0,M,47.9,M,,*48",,,,
2022-03-06T19:29:05+01:00,93,47.91,8.99,1007.65,171.80,180.40,0,-127.00,"$GNGGA,182900.000,4900.5520,N,00825.4101,E,1,4,8.11,180.9,M,47.9,M,,*42",,,,
2022-03-06T19:29:25+01:00,94,47.92,9.00,1007.66,170.40,179.00,0,-127.00,"$GNGGA,182920.000,4900.5448,N,00825.4332,E,1,4,7.97,176.2,M,47.9,M,,*4E",,,,
2022-03-06T19:29:45+01:00,95,47.94,8.96,1007.66,169.30,177.80,0,-127.00,"$GNGGA,182940.000,4900.5451,N,00825.4381,E,1,4,7.84,173.1,M,47.9,M,,*4C",,,,
2022-03-06T19:30:06+01:00,96,47.95,8.93,1007.65,168.90,177.40,0,-127.00,"$GNGGA,183001.000,4900.5458,N,00825.4244,E,1,4,7.70,170.2,M,47.9,M,,*4B",,,,
2022-03-06T19:30:26+01:00,97,47.95,8.89,1007.65,166.20,174.60,0,-127.00,"$GNGGA,183021.000,4900.5436,N,00825.4302,E,1,4,7.56,166.2,M,47.9,M,,*41",,,,
2022-03-06T19:30:47+01:00,98,47.97,8.92,1007.65,167.00,175.40,0,-127.00,"$GNGGA,183042.000,4900.5431,N,00825.4317,E,1,4,7.43,158.0,M,47.9,M,,*4C",,,,
2022-03-06T19:31:08+01:00,99,47.98,8.85,1007.65,167.20,175.60,0,-127.00,"$GNGGA,183103.000,4900.5399,N,00825.4624,E,1,4,7.30,150.9,M,47.9,M,,*4D",,,,
2022-03-06T19:31:28+01:00,100,47.99,8.87,1007.65,169.40,177.90,0,-127.00,"$GNGGA,183123.000,4900.5368,N,00825.4857,E,1,4,7.19,149.2,M,47.9,M,,*43",,,,
2022-03-06T19:31:48+01:00,101,48.01,8.85,1007.64,170.90,179.50,0,-127.00,"$GNGGA,183143.000,4900.5296,N,00825.4518,E,1,4,7.07,145.9,M,47.9,M,,*4B",,,,
2022-03-06T19:32:09+01:00,102,48.03,8.83,1007.65,170.70,179.30,0,-127.00,"$GNGGA,183204.000,4900.5279,N,00825.4497,E,1,4,6.96,145.7,M,47.9,M,,*4B",,,,
2022-03-06T19:32:29+01:00,103,48.03,8.79,1007.65,171.20,179.80,0,-127.00,"$GNGGA,183224.000,4900.5272,N,00825.4695,E,1,4,6.85,146.4,M,47.9,M,,*40",,,,
2022-03-06T19:32:50+01:00,104,48.05,8.78,1007.66,169.90,178.40,0,-127.00,"$GNGGA,183245.000,4900.5350,N,00825.4693,E,1,4,6.75,146.7,M,47.9,M,,*4C",,,,
2022-03-06T19:33:10+01:00,105,48.06,8.79,1007.65,170.50,179.10,0,-127.00,"$GNGGA,183305.000,4900.5373,N,00825.4745,E,1,4,6.65,149.2,M,47.9,M,,*49",,,,
2022-03-06T19:33:30+01:00,106,48.08,8.79,1007.65,168.40,176.90,0,-127.00,"$GNGGA,183325.000,4900.5391,N,00825.4892,E,1,4,6.55,149.7,M,47.9,M,,*44",,,,
2022-03-06T19:33:51+01:00,107,48.10,8.76,1007.66,167.60,176.00,0,-127.00,"$GNGGA,183346.000,4900.5368,N,00825.4767,E,1,4,6.46,147.1,M,47.9,M,,*48",,,,
2022-03-06T19:34:11+01:00,108,48.11,8.73,1007.66,167.90,176.30,0,-127.00,"$GNGGA,183406.000,4900.5372,N,00825.4643,E,1,4,7.07,147.0,M,47.9,M,,*42",,,,
2022-03-06T19:34:31+01:00,109,48.12,8.70,1007.65,168.80,177.30,0,-127.00,"$GNGGA,183426.000,4900.5366,N,00825.4676,E,1,4,6.28,148.4,M,47.9,M,,*44",,,,
2022-03-06T19:34:52+01:00,110,48.14,8.69,1007.66,168.40,176.90,0,-127.00,"$GNGGA,183447.000,4900.5326,N,00825.4669,E,1,4,6.86,147.5,M,47.9,M,,*43",,,,
2022-03-06T19:35:12+01:00,111,48.14,8.67,1007.66,169.40,177.90,0,-127.00,"$GNGGA,183507.000,4900.5335,N,00825.4588,E,1,4,6.11,143.4,M,47.9,M,,*43",,,,
2022-03-06T19:35:32+01:00,112,48.16,8.63,1007.65,169.50,178.00,0,-127.00,"$GNGGA,183527.000,4900.5299,N,00825.4577,E,1,3,7.32,141.1,M,47.9,M,,*46",,,,
2022-03-06T19:35:53+01:00,113,48.17,8.65,1007.65,170.80,179.40,0,-127.00,"$GNGGA,183548.000,4900.5217,N,00825.4653,E,1,4,5.95,141.7,M,47.9,M,,*42",,,,
2022-03-06T19:36:13+01:00,114,48.18,8.65,1007.65,172.30,181.00,0,-127.00,"$GNGGA,183608.000,4900.5339,N,00825.4910,E,1,3,5.88,143.9,M,47.9,M,,*47",,,,
2022-03-06T19:36:34+01:00,115,48.20,8.63,1007.64,170.60,179.20,0,-127.00,"$GNGGA,183629.000,4900.5379,N,00825.4754,E,1,4,5.80,144.8,M,47.9,M,,*47",,,,
2022-03-06T19:36:55+01:00,116,48.21,8.60,1007.64,170.20,178.80,0,-127.00,"$GNGGA,183650.000,4900.5304,N,00825.4753,E,1,3,7.05,145.0,M,47.9,M,,*45",,,,
2022-03-06T19:37:15+01:00,117,48.21,8.61,1007.63,166.20,174.60,0,-127.00,"$GNGGA,183710.000,4900.5343,N,00825.4625,E,1,4,5.66,143.5,M,47.9,M,,*40",,,,
2022-03-06T19:37:35+01:00,118,48.22,8.59,1007.63,167.50,175.90,0,-127.00,"$GNGGA,183730.000,4900.5334,N,00825.4538,E,1,4,5.59,138.6,M,47.9,M,,*4E",,,,
2022-03-06T19:37:56+01:00,119,48.23,8.57,1007.62,168.10,176.60,0,-127.00,"$GNGGA,183751.000,4900.5300,N,00825.4575,E,1,4,5.52,138.0,M,47.9,M,,*4A",,,,
2022-03-06T19:38:16+01:00,120,48.24,8.57,1007.63,169.80,178.30,0,-127.00,"$GNGGA,183811.000,4900.5301,N,00825.4627,E,1,4,5.46,136.6,M,47.9,M,,*49",,,,
2022-03-06T19:38:36+01:00,121,48.25,8.55,1007.63,169.90,178.40,0,-127.00,"$GNGGA,183831.000,4900.5296,N,00825.4635,E,1,4,5.40,136.8,M,47.9,M,,*4F",,,,
2022-03-06T19:38:57+01:00,122,48.26,8.54,1007.64,168.80,177.30,0,-127.00,"$GNGGA,183852.000,4900.5270,N,00825.4569,E,1,4,5.34,137.0,M,47.9,M,,*42",,,,
2022-03-06T19:39:17+01:00,123,48.26,8.49,1007.64,167.60,176.00,0,-127.00,"$GNGGA,183912.000,4900.5264,N,00825.4731,E,1,4,5.28,136.4,M,47.9,M,,*45",,,,
2022-03-06T19:39:37+01:00,124,48.27,8.51,1007.63,166.80,175.20,0,-127.00,"$GNGGA,183932.000,4900.5258,N,00825.4658,E,1,4,5.22,132.8,M,47.9,M,,*44",,,,
2022-03-06T19:39:58+01:00,125,48.28,8.51,1007.62,167.10,175.50,0,-127.00,"$GNGGA,183953.000,4900.5255,N,00825.4622,E,1,4,5.17,132.2,M,47.9,M,,*4F",,,,
2022-03-06T19:40:18+01:00,126,48.29,8.48,1007.63,167.30,175.70,0,-127.00,"$GNGGA,184013.000,4900.5258,N,00825.4648,E,1,4,5.11,130.9,M,47.9,M,,*4B",,,,
2022-03-06T19:40:38+01:00,127,48.30,8.44,1007.63,169.00,177.50,0,-127.00,"$GNGGA,184033.000,4900.5261,N,00825.4580,E,1,4,5.06,131.8,M,47.9,M,,*42",,,,
2022-03-06T19:40:59+01:00,128,48.30,8.42,1007.62,171.40,180.00,0,-127.00,"$GNGGA,184054.000,4900.5280,N,00825.4581,E,1,4,5.00,132.9,M,47.9,M,,*49",,,,
2022-03-06T19:41:19+01:00,129,48.30,8.41,1007.62,171.50,180.10,0,-127.00,"$GNGGA,184114.000,4900.5293,N,00825.4670,E,1,4,4.96,133.3,M,47.9,M,,*46",,,,
2022-03-06T19:41:40+01:00,130,48.31,8.41,1007.61,174.30,183.10,0,-127.00,"$GNGGA,184135.000,4900.5238,N,00825.4540,E,1,4,4.90,132.9,M,47.9,M,,*49",,,,
2022-03-06T19:42:01+01:00,131,48.31,8.41,1007.60,169.60,178.10,0,-127.00,"$GNGGA,184156.000,4900.5259,N,00825.4588,E,1,4,4.86,130.7,M,47.9,M,,*44",,,,
2022-03-06T19:42:22+01:00,132,48.31,8.38,1007.60,166.50,174.90,0,-127.00,"$GNGGA,184217.000,4900.5363,N,00825.4741,E,1,4,4.81,131.5,M,47.9,M,,*49",,,,
2022-03-06T19:42:42+01:00,133,48.32,8.37,1007.60,164.10,172.40,0,-127.00,"$GNGGA,184237.000,4900.5260,N,00825.4566,E,1,4,4.76,130.3,M,47.9,M,,*41",,,,
2022-03-06T19:43:03+01:00,134,48.32,8.38,1007.59,168.40,176.90,0,-127.00,"$GNGGA,184258.000,4900.5249,N,00825.4361,E,1,4,4.72,129.1,M,47.9,M,,*4C",,,,
2022-03-06T19:43:23+01:00,135,48.32,8.38,1007.60,171.70,180.30,0,-127.00,"$GNGGA,184318.000,4900.5320,N,00825.4494,E,1,4,4.68,131.2,M,47.9,M,,*4B",,,,
2022-03-06T19:43:43+01:00,136,48.33,8.36,1007.59,171.70,180.30,0,-127.00,"$GNGGA,184338.000,4900.5326,N,00825.4549,E,1,4,4.64,133.0,M,47.9,M,,*42",,,,
2022-03-06T19:44:04+01:00,137,48.33,8.30,1007.60,173.10,181.80,0,-127.00,"$GNGGA,184359.000,4900.5305,N,00825.4624,E,1,4,4.59,132.0,M,47.9,M,,*43",,,,
2022-03-06T19:44:24+01:00,138,48.33,8.32,1007.60,172.60,181.30,0,-127.00,"$GNGGA,184419.000,4900.5291,N,00825.4604,E,1,4,4.55,126.9,M,47.9,M,,*4E",,,,
2022-03-06T19:44:44+01:00,139,48.33,8.31,1007.59,170.30,178.90,0,-127.00,"$GNGGA,184439.000,4900.5260,N,00825.4666,E,1,4,4.52,123.9,M,47.9,M,,*44",,,,
2022-03-06T19:45:05+01:00,140,48.33,8.30,1007.60,167.60,176.00,0,-127.00,"$GNGGA,184500.000,4900.5242,N,00825.4689,E,1,4,4.47,124.0,M,47.9,M,,*44",,,,
2022-03-06T19:45:25+01:00,141,48.33,8.30,1007.60,168.60,177.10,0,-127.00,"$GNGGA,184520.000,4900.5261,N,00825.4655,E,1,4,5.19,126.2,M,47.9,M,,*4C",,,,
2022-03-06T19:45:45+01:00,142,48.34,8.26,1007.60,170.00,178.60,0,-127.00,"$GNGGA,184540.000,4900.5277,N,00825.4678,E,1,3,6.13,130.0,M,47.9,M,,*49",,,,
2022-03-06T19:46:06+01:00,143,48.34,8.26,1007.59,170.10,178.70,0,-127.00,"$GNGGA,184601.000,4900.5340,N,00825.4783,E,1,4,4.37,135.6,M,47.9,M,,*4F",,,,
2022-03-06T19:46:26+01:00,144,48.34,8.28,1007.59,168.90,177.40,0,-127.00,"$GNGGA,184621.000,4900.5417,N,00825.4905,E,1,4,4.33,142.4,M,47.9,M,,*4E",,,,
2022-03-06T19:46:46+01:00,145,48.35,8.24,1007.58,169.50,178.00,0,-127.00,"$GNGGA,184641.000,4900.5388,N,00825.4877,E,1,4,4.30,146.1,M,47.9,M,,*4F",,,,
2022-03-06T19:47:07+01:00,146,48.35,8.24,1007.59,169.20,177.70,0,-127.00,"$GNGGA,184702.000,4900.5482,N,00825.5079,E,1,3,6.08,149.7,M,47.9,M,,*44",,,,
2022-03-06T19:47:27+01:00,147,48.35,8.21,1007.58,168.40,176.90,0,-127.00,"$GNGGA,184722.000,4900.5428,N,00825.4969,E,1,4,4.23,150.4,M,47.9,M,,*48",,,,
2022-03-06T19:47:48+01:00,148,48.35,8.21,1007.58,165.40,173.70,0,-127.00,"$GNGGA,184743.000,4900.5362,N,00825.4851,E,1,4,4.20,148.0,M,47.9,M,,*42",,,,
2022-03-06T19:48:09+01:00,149,48.35,8.20,1007.58,165.40,173.70,0,-127.00,"$GNGGA,184804.000,4900.5381,N,00825.4838,E,1,4,4.17,149.0,M,47.9,M,,*49",,,,
2022-03-06T19:48:29+01:00,150,48.35,8.18,1007.56,165.60,173.90,0,-127.00,"$GNGGA,184824.000,4900.5386,N,00825.4826,E,1,4,4.14,150.6,M,47.9,M,,*4E",,,,
2022-03-06T19:48:49+01:00,151,48.35,8.18,1007.57,168.00,176.50,0,-127.00,"$GNGGA,184844.000,4900.5386,N,00825.4760,E,1,4,4.12,150.7,M,47.9,M,,*42",,,,
2022-03-06T19:49:10+01:00,152,48.35,8.19,1007.58,169.10,177.60,0,-127.00,"$GNGGA,184905.000,4900.5363,N,00825.4743,E,1,4,4.08,147.9,M,47.9,M,,*4F",,,,
2022-03-06T19:49:30+01:00,153,48.35,8.15,1007.56,169.10,177.60,0,-127.00,"$GNGGA,184925.000,4900.5317,N,00825.4689,E,1,4,4.05,140.8,M,47.9,M,,*42",,,,
2022-03-06T19:49:50+01:00,154,48.35,8.18,1007.56,170.30,178.90,0,-127.00,"$GNGGA,184945.000,4900.5275,N,00825.4592,E,1,4,4.03,135.3,M,47.9,M,,*47",,,,
2022-03-06T19:50:11+01:00,155,48.35,8.14,1007.57,174.50,183.30,0,-127.00,"$GNGGA,185006.000,4900.5317,N,00825.4573,E,1,4,4.00,131.6,M,47.9,M,,*40",,,,
2022-03-06T19:50:31+01:00,156,48.35,8.17,1007.57,172.90,181.60,0,-127.00,"$GNGGA,185026.000,4900.5316,N,00825.4528,E,1,4,4.94,132.0,M,47.9,M,,*45",,,,
2022-03-06T19:50:52+01:00,157,48.35,8.11,1007.58,169.80,178.30,0,-127.00,"$GNGGA,185047.000,4900.5295,N,00825.4472,E,1,4,3.95,131.7,M,47.9,M,,*44",,,,
2022-03-06T19:51:13+01:00,158,48.35,8.11,1007.58,166.50,174.90,0,-127.00,"$GNGGA,185108.000,4900.5284,N,00825.4470,E,1,4,3.93,129.1,M,47.9,M,,*45",,,,
2022-03-06T19:51:33+01:00,159,48.34,8.11,1007.58,170.10,178.70,0,-127.00,"$GNGGA,185128.000,4900.5314,N,00825.4366,E,1,4,3.90,126.5,M,47.9,M,,*47",,,,
2022-03-06T19:51:53+01:00,160,48.34,8.11,1007.58,171.30,179.90,0,-127.00,"$GNGGA,185148.000,4900.5390,N,00825.4127,E,1,4,3.88,123.3,M,47.9,M,,*40",,,,
2022-03-06T19:52:14+01:00,161,48.34,8.11,1007.57,171.80,180.40,0,-127.00,"$GNGGA,185209.000,4900.4829,N,00825.5456,E,1,3,8.65,121.7,M,47.9,M,,*45",,,,
2022-03-06T19:52:34+01:00,162,48.34,8.10,1007.58,170.70,179.30,0,-127.00,"$GNGGA,185229.000,4900.4875,N,00825.5395,E,1,4,3.83,120.9,M,47.9,M,,*4D",,,,
2022-03-06T19:52:55+01:00,163,48.34,8.11,1007.58,171.00,179.60,0,-127.00,"$GNGGA,185250.000,4900.5118,N,00825.4881,E,1,4,4.89,119.6,M,47.9,M,,*47",,,,
2022-03-06T19:53:16+01:00,164,48.34,8.06,1007.57,171.00,179.60,0,-127.00,"$GNGGA,185311.000,4900.5186,N,00825.4820,E,1,4,3.79,119.6,M,47.9,M,,*47",,,,
2022-03-06T19:53:36+01:00,165,48.34,8.07,1007.57,170.90,179.50,0,-127.00,"$GNGGA,185331.000,4900.5147,N,00825.4777,E,1,4,3.77,122.1,M,47.9,M,,*44",,,,
2022-03-06T19:53:56+01:00,166,48.34,8.04,1007.57,170.20,178.80,0,-127.00,"$GNGGA,185351.000,4900.5156,N,00825.4705,E,1,3,3.75,123.2,M,47.9,M,,*40",,,,
2022-03-06T19:54:17+01:00,167,48.34,8.01,1007.57,171.00,179.60,0,-127.00,"$GNGGA,185412.000,4900.5157,N,00825.4707,E,1,3,3.73,123.2,M,47.9,M,,*45",,,,
2022-03-06T19:54:37+01:00,168,48.33,8.05,1007.56,173.70,182.40,0,-127.00,"$GNGGA,185432.000,4900.5185,N,00825.4736,E,1,4,3.71,123.2,M,47.9,M,,*4F",,,,
2022-03-06T19:54:57+01:00,169,48.33,8.06,1007.55,175.20,184.00,0,-127.00,"$GNGGA,185452.000,4900.5268,N,00825.4730,E,6,3,6.11,122.7,M,47.9,M,,*48",,,,
2022-03-06T19:55:18+01:00,170,48.33,8.02,1007.56,175.70,184.50,0,-127.00,"$GNGGA,185513.000,4900.5324,N,00825.4762,E,1,4,4.86,122.1,M,47.9,M,,*48",,,,
2022-03-06T19:55:38+01:00,171,48.33,8.03,1007.57,176.10,185.00,0,-127.00,"$GNGGA,185533.000,4900.5397,N,00825.4545,E,1,3,6.14,121.5,M,47.9,M,,*4C",,,,
2022-03-06T19:55:58+01:00,172,48.33,8.03,1007.57,177.00,185.90,0,-127.00,"$GNGGA,185553.000,4900.5405,N,00825.4505,E,1,3,6.15,120.8,M,47.9,M,,*4F",,,,
2022-03-06T19:56:19+01:00,173,48.33,7.99,1007.58,176.30,185.20,0,-127.00,"$GNGGA,185614.000,4900.5503,N,00825.4569,E,0,0,,120.3,M,47.9,M,,*57",,,,
2022-03-06T19:56:39+01:00,174,48.33,8.02,1007.58,174.90,183.70,0,-127.00,"$GNGGA,185634.000,4900.5345,N,00825.4628,E,0,2,,120.3,M,47.9,M,,*55",,,,
2022-03-06T19:56:59+01:00,175,48.33,7.99,1007.57,171.40,180.00,0,-127.00,"$GNGGA,185654.000,4900.5305,N,00825.4791,E,1,3,7.57,118.5,M,47.9,M,,*42",,,,
2022-03-06T19:57:20+01:00,176,48.33,7.99,1007.57,170.90,179.50,0,-127.00,"$GNGGA,185715.000,4900.5052,N,00825.5133,E,1,3,7.50,118.2,M,47.9,M,,*48",,,,
2022-03-06T19:57:40+01:00,177,48.32,7.95,1007.57,171.70,180.30,0,-127.00,"$GNGGA,185735.000,4900.5257,N,00825.4709,E,1,3,7.44,118.4,M,47.9,M,,*40",,,,
2022-03-06T19:58:00+01:00,178,48.32,7.96,1007.59,174.50,183.30,0,-127.00,"$GNGGA,185755.000,4900.4991,N,00825.5243,E,1,3,7.38,118.6,M,47.9,M,,*45",,,,
2022-03-06T19:58:21+01:00,179,48.32,7.99,1007.59,173.80,182.50,0,-127.00,"$GNGGA,185816.000,4900.4779,N,00825.5500,E,0,2,,118.9,M,47.9,M,,*58",,,,
2022-03-06T19:58:41+01:00,180,48.31,7.98,1007.59,173.80,182.50,0,-127.00,"$GNGGA,185836.000,4900.4793,N,00825.5505,E,1,3,7.26,119.2,M,47.9,M,,*4C",,,,
2022-03-06T19:59:02+01:00,181,48.31,7.95,1007.59,173.80,182.50,0,-127.00,"$GNGGA,185857.000,4900.4989,N,00825.4816,E,1,3,7.20,120.2,M,47.9,M,,*4C",,,,
2022-03-06T19:59:23+01:00,182,48.31,7.94,1007.59,173.80,182.50,0,-127.00,"$GNGGA,185918.000,4900.5192,N,00825.4452,E,1,4,3.48,120.8,M,47.9,M,,*4E",,,,
2022-03-06T19:59:43+01:00,183,48.30,7.92,1007.60,172.60,181.30,0,-127.00,"$GNGGA,185938.000,4900.5223,N,00825.4411,E,1,4,3.47,120.3,M,47.9,M,,*46",,,,
2022-03-06T20:00:03+01:00,184,48.30,7.93,1007.60,173.90,182.60,0,-127.00,"$GNGGA,185958.000,4900.5215,N,00825.4546,E,1,4,3.46,118.9,M,47.9,M,,*46",,,,
2022-03-06T20:00:24+01:00,185,48.30,7.93,1007.60,177.60,186.50,0,-127.00,"$GNGGA,190019.000,4900.5197,N,00825.4474,E,1,4,3.44,117.7,M,47.9,M,,*44",,,,
2022-03-06T20:00:44+01:00,186,48.29,7.93,1007.60,180.00,189.10,0,-127.00,"$GNGGA,190039.000,4900.5196,N,00825.4557,E,1,4,3.43,116.2,M,47.9,M,,*44",,,,
2022-03-06T20:01:04+01:00,187,48.29,7.92,1007.60,181.40,190.50,0,-127.00,"$GNGGA,190059.000,4900.5229,N,00825.4592,E,1,4,3.42,115.7,M,47.9,M,,*4B",,,,
2022-03-06T20:01:25+01:00,188,48.29,7.90,1007.60,177.70,186.60,0,-127.00,"$GNGGA,190120.000,4900.5181,N,00825.4518,E,1,4,3.41,115.6,M,47.9,M,,*45",,,,
2022-03-06T20:01:45+01:00,189,48.29,7.89,1007.60,174.40,183.20,0,-127.00,"$GNGGA,190140.000,4900.5191,N,00825.4528,E,1,4,4.87,115.3,M,47.9,M,,*49",,,,
2022-03-06T20:02:05+01:00,190,48.29,7.88,1007.60,169.90,178.40,0,-127.00,"$GNGGA,190200.000,4900.5158,N,00825.4494,E,1,3,3.39,115.5,M,47.9,M,,*4E",,,,
2022-03-06T20:02:26+01:00,191,48.28,7.89,1007.61,168.30,176.80,0,-127.00,"$GNGGA,190221.000,4900.5134,N,00825.4483,E,1,4,3.37,115.3,M,47.9,M,,*4E",,,,
2022-03-06T20:02:46+01:00,192,48.27,7.90,1007.61,169.40,177.90,0,-127.00,"$GNGGA,190241.000,4900.5129,N,00825.4414,E,1,3,6.66,114.9,M,47.9,M,,*47",,,,
2022-03-06T20:03:09+01:00,193,48.27,7.86,1007.61,171.20,179.80,0,-127.00,"$GNGGA,190301.000,4900.5131,N,00825.4430,E,1,3,6.69,114.9,M,47.9,M,,*42",,,,
2022-03-06T20:03:30+01:00,194,48.27,7.88,1007.62,172.00,180.70,0,-127.00,"$GNGGA,190325.000,4900.5115,N,00825.4439,E,0,0,,115.1,M,47.9,M,,*57",,,,
2022-03-06T20:03:50+01:00,195,48.26,7.87,1007.62,172.10,180.80,0,-127.00,"$GNGGA,190345.000,4900.5116,N,00825.4439,E,0,0,,115.1,M,47.9,M,,*52",,,,
2022-03-06T20:04:11+01:00,196,48.26,7.86,1007.62,172.40,181.10,0,-127.00,"$GNGGA,190406.000,4900.5149,N,00825.4478,E,0,3,,115.0,M,47.9,M,,*5F",,,,
2022-03-06T20:04:31+01:00,197,48.26,7.87,1007.62,168.70,177.20,0,-127.00,"$GNGGA,190426.000,4900.5168,N,00825.4525,E,1,4,3.31,113.8,M,47.9,M,,*40",,,,
2022-03-06T20:04:51+01:00,198,48.27,7.85,1007.62,167.80,176.20,0,-127.00,"$GNGGA,190446.000,4900.5145,N,00825.4407,E,1,4,4.91,107.5,M,47.9,M,,*4D",,,,
2022-03-06T20:05:12+01:00,199,48.27,7.82,1007.62,167.90,176.30,0,-127.00,"$GNGGA,190507.000,4900.5235,N,00825.4592,E,1,4,3.29,117.1,M,47.9,M,,*41",,,,
2022-03-06T20:05:32+01:00,200,48.27,7.83,1007.62,167.00,175.40,0,-127.00,"$GNGGA,190527.000,4900.5297,N,00825.4735,E,1,4,3.29,126.1,M,47.9,M,,*46",,,,
2022-03-06T20:05:52+01:00,201,48.27,7.81,1007.63,163.70,171.90,0,-127.00,"$GNGGA,190547.000,4900.5304,N,00825.4727,E,1,4,3.28,133.4,M,47.9,M,,*48",,,,
2022-03-06T20:06:13+01:00,202,48.27,7.80,1007.63,163.40,171.60,0,-127.00,"$GNGGA,190608.000,4900.5308,N,00825.4720,E,1,4,3.27,138.7,M,47.9,M,,*4C",,,,
2022-03-06T20:06:34+01:00,203,48.26,7.82,1007.63,168.10,176.60,0,-127.00,"$GNGGA,190629.000,4900.5291,N,00825.4668,E,1,4,3.27,136.1,M,47.9,M,,*4B",,,,
2022-03-06T20:06:54+01:00,204,48.26,7.82,1007.62,170.30,178.90,0,-127.00,"$GNGGA,190649.000,4900.5353,N,00825.4725,E,1,4,3.26,141.1,M,47.9,M,,*4B",,,,
2022-03-06T20:07:15+01:00,205,48.26,7.82,1007.63,169.40,177.90,0,-127.00,"$GNGGA,190710.000,4900.5351,N,00825.4750,E,1,4,2.97,138.6,M,47.9,M,,*44",,,,
2022-03-06T20:07:35+01:00,206,48.25,7.81,1007.63,170.30,178.90,0,-127.00,"$GNGGA,190730.000,4900.5311,N,00825.4768,E,1,4,3.24,134.6,M,47.9,M,,*4C",,,,
2022-03-06T20:07:55+01:00,207,48.25,7.81,1007.64,171.20,179.80,0,-127.00,"$GNGGA,190750.000,4900.5269,N,00825.4694,E,1,4,3.24,132.8,M,47.9,M,,*4E",,,,
2022-03-06T20:08:16+01:00,208,48.25,7.81,1007.64,172.70,181.40,0,-127.00,"$GNGGA,190811.000,4900.5239,N,00825.4729,E,1,4,3.23,131.9,M,47.9,M,,*43",,,,
2022-03-06T20:08:36+01:00,209,48.24,7.80,1007.63,168.00,176.50,0,-127.00,"$GNGGA,190831.000,4900.5236,N,00825.4723,E,1,4,4.96,132.0,M,47.9,M,,*47",,,,
2022-03-06T20:08:57+01:00,210,48.24,7.79,1007.63,167.20,175.60,0,-127.00,"$GNGGA,190852.000,4900.5149,N,00825.4843,E,1,4,3.86,130.1,M,47.9,M,,*45",,,,
2022-03-06T20:09:18+01:00,211,48.23,7.77,1007.63,165.10,173.40,0,-127.00,"$GNGGA,190913.000,4900.5136,N,00825.4843,E,1,3,5.87,129.3,M,47.9,M,,*43",,,,
2022-03-06T20:09:39+01:00,212,48.22,7.78,1007.64,168.00,176.50,0,-127.00,"$GNGGA,190934.000,4900.5238,N,00825.4666,E,6,3,5.83,129.4,M,47.9,M,,*46",,,,
2022-03-06T20:09:59+01:00,213,48.22,7.80,1007.63,168.10,176.60,0,-127.00,"$GNGGA,190954.000,4900.5225,N,00825.4688,E,1,5,3.05,129.4,M,47.9,M,,*45",,,,
2022-03-06T20:10:20+01:00,214,48.21,7.81,1007.64,170.20,178.80,0,-127.00,"$GNGGA,191015.000,4900.5220,N,00825.4722,E,1,5,3.04,129.7,M,47.9,M,,*4E",,,,
2022-03-06T20:10:40+01:00,215,48.20,7.81,1007.63,169.70,178.20,0,-127.00,"$GNGGA,191035.000,4900.5246,N,00825.4700,E,1,5,3.03,129.6,M,47.9,M,,*4A",,,,
2022-03-06T20:11:00+01:00,216,48.19,7.77,1007.62,167.90,176.30,0,-127.00,"$GNGGA,191055.000,4900.5288,N,00825.4645,E,1,5,3.19,129.4,M,47.9,M,,*47",,,,
2022-03-06T20:11:21+01:00,217,48.19,7.76,1007.63,165.60,173.90,0,-127.00,"$GNGGA,191116.000,4900.5290,N,00825.4691,E,1,5,3.19,130.3,M,47.9,M,,*4E",,,,
2022-03-06T20:11:41+01:00,218,48.17,7.77,1007.63,165.60,173.90,0,-127.00,"$GNGGA,191136.000,4900.5225,N,00825.4592,E,1,5,3.19,131.6,M,47.9,M,,*46",,,,
2022-03-06T20:12:02+01:00,219,48.17,7.75,1007.63,165.00,173.30,0,-127.00,"$GNGGA,191157.000,4900.5226,N,00825.4571,E,1,5,3.19,131.5,M,47.9,M,,*4C",,,,
2022-03-06T20:12:23+01:00,220,48.16,7.77,1007.64,164.80,173.10,0,-127.00,"$GNGGA,191218.000,4900.5229,N,00825.4556,E,1,5,3.18,130.1,M,47.9,M,,*4A",,,,
2022-03-06T20:12:43+01:00,221,48.15,7.76,1007.63,164.70,173.00,0,-127.00,"$GNGGA,191238.000,4900.5131,N,00825.4346,E,1,5,3.18,130.7,M,47.9,M,,*43",,,,
2022-03-06T20:13:03+01:00,222,48.14,7.76,1007.62,166.20,174.60,0,-127.00,"$GNGGA,191258.000,4900.5289,N,00825.4591,E,1,5,3.17,131.5,M,47.9,M,,*45",,,,
2022-03-06T20:13:24+01:00,223,48.14,7.75,1007.63,166.90,175.30,0,-127.00,"$GNGGA,191319.000,4900.5256,N,00825.4575,E,1,6,3.17,131.9,M,47.9,M,,*46",,,,
2022-03-06T20:13:44+01:00,224,48.13,7.77,1007.63,168.90,177.40,0,-127.00,"$GNGGA,191339.000,4900.5159,N,00825.4470,E,1,6,3.17,129.1,M,47.9,M,,*4D",,,,
2022-03-06T20:14:05+01:00,225,48.13,7.76,1007.62,169.30,177.80,0,-127.00,"$GNGGA,191400.000,4900.5124,N,00825.4503,E,1,6,3.17,127.3,M,47.9,M,,*43",,,,
2022-03-06T20:14:26+01:00,226,48.12,7.78,1007.62,172.80,181.50,0,-127.00,"$GNGGA,191421.000,4900.5211,N,00825.4565,E,1,6,3.17,128.0,M,47.9,M,,*49",,,,
2022-03-06T20:14:46+01:00,227,48.11,7.75,1007.62,173.10,181.80,0,-127.00,"$GNGGA,191441.000,4900.5260,N,00825.4680,E,1,7,2.80,126.2,M,47.9,M,,*43",,,,
2022-03-06T20:15:07+01:00,228,48.11,7.73,1007.62,173.40,182.10,0,-127.00,"$GNGGA,191502.000,4900.5251,N,00825.4634,E,1,7,2.56,122.2,M,47.9,M,,*47",,,,
2022-03-06T20:15:28+01:00,229,48.10,7.75,1007.62,172.40,181.10,0,-127.00,"$GNGGA,191523.000,4900.5245,N,00825.4602,E,1,7,2.79,124.0,M,47.9,M,,*4D",,,,
2022-03-06T20:15:48+01:00,230,48.09,7.74,1007.62,170.80,179.40,0,-127.00,"$GNGGA,191543.000,4900.5236,N,00825.4687,E,1,7,2.55,125.6,M,47.9,M,,*4B",,,,
2022-03-06T20:16:09+01:00,231,48.08,7.75,1007.63,171.10,179.70,0,-127.00,"$GNGGA,191604.000,4900.5259,N,00825.4677,E,1,7,2.78,124.8,M,47.9,M,,*4D",,,,
2022-03-06T20:16:30+01:00,232,48.08,7.72,1007.63,171.30,179.90,0,-127.00,"$GNGGA,191625.000,4900.5273,N,00825.4633,E,1,7,2.78,124.6,M,47.9,M,,*48",,,,
2022-03-06T20:16:51+01:00,233,48.07,7.72,1007.63,171.20,179.80,0,-127.00,"$GNGGA,191646.000,4900.5268,N,00825.4627,E,1,7,2.78,124.8,M,47.9,M,,*4C",,,,
2022-03-06T20:17:12+01:00,234,48.06,7.72,1007.64,171.00,179.60,0,-127.00,"$GNGGA,191707.000,4900.5249,N,00825.4697,E,1,6,2.53,124.1,M,47.9,M,,*41",,,,
2022-03-06T20:17:34+01:00,235,48.06,7.72,1007.64,171.10,179.70,0,-127.00,"$GNGGA,191729.000,4900.5253,N,00825.4674,E,1,7,2.77,123.0,M,47.9,M,,*4A",,,,
2022-03-06T20:17:55+01:00,236,48.07,7.71,1007.65,174.50,183.30,0,-127.00,"$GNGGA,191750.000,4900.5241,N,00825.4670,E,1,7,2.16,123.7,M,47.9,M,,*43",,,,
2022-03-06T20:18:16+01:00,237,48.07,7.67,1007.66,174.60,183.40,0,-127.00,"$GNGGA,191811.000,4900.5262,N,00825.4738,E,1,7,2.16,125.6,M,47.9,M,,*42",,,,
2022-03-06T20:18:37+01:00,238,48.06,7.71,1007.65,170.80,179.40,0,-127.00,"$GNGGA,191832.000,4900.5294,N,00825.4671,E,1,8,2.75,128.1,M,47.9,M,,*46",,,,
2022-03-06T20:18:57+01:00,239,48.05,7.71,1007.65,164.30,172.60,0,-127.00,"$GNGGA,191852.000,4900.5349,N,00825.4433,E,1,8,2.75,123.0,M,47.9,M,,*4F",,,,
2022-03-06T20:19:18+01:00,240,48.05,7.69,1007.65,162.70,170.90,0,-127.00,"$GNGGA,191913.000,4900.5315,N,00825.4521,E,1,8,2.75,120.4,M,47.9,M,,*47",,,,
2022-03-06T20:19:39+01:00,241,48.03,7.70,1007.65,166.60,175.00,0,-127.00,"$GNGGA,191934.000,4900.5300,N,00825.4554,E,1,8,2.74,119.8,M,47.9,M,,*43",,,,
2022-03-06T20:20:00+01:00,242,48.02,7.71,1007.65,171.40,180.00,0,-127.00,"$GNGGA,191955.000,4900.5213,N,00825.4499,E,1,8,2.74,120.1,M,47.9,M,,*44",,,,
2022-03-06T20:20:21+01:00,243,48.01,7.71,1007.66,171.30,179.90,0,-127.00,"$GNGGA,192016.000,4900.5190,N,00825.4629,E,1,8,2.73,120.7,M,47.9,M,,*49",,,,
2022-03-06T20:20:41+01:00,244,47.99,7.70,1007.66,166.30,174.70,0,-127.00,"$GNGGA,192036.000,4900.5231,N,00825.4588,E,1,8,2.21,121.7,M,47.9,M,,*4D",,,,
2022-03-06T20:21:02+01:00,245,47.98,7.71,1007.65,167.50,175.90,0,-127.00,"$GNGGA,192057.000,4900.5242,N,00825.4544,E,1,9,2.73,121.5,M,47.9,M,,*4A",,,,
2022-03-06T20:21:23+01:00,246,47.97,7.70,1007.65,167.70,176.10,0,-127.00,"$GNGGA,192118.000,4900.5269,N,00825.4532,E,1,9,2.95,118.4,M,47.9,M,,*4B",,,,
2022-03-06T20:21:44+01:00,247,47.96,7.69,1007.64,168.10,176.60,0,-127.00,"$GNGGA,192139.000,4900.5251,N,00825.4506,E,1,9,2.72,118.5,M,47.9,M,,*4C",,,,
2022-03-06T20:22:05+01:00,248,47.97,7.67,1007.66,160.80,168.90,0,-127.00,"$GNGGA,192200.000,4900.5261,N,00825.4565,E,1,9,2.72,113.4,M,47.9,M,,*49",,,,
2022-03-06T20:22:26+01:00,249,47.96,7.67,1007.66,163.20,171.40,0,-127.00,"$GNGGA,192221.000,4900.5235,N,00825.4654,E,1,9,2.72,117.2,M,47.9,M,,*48",,,,
2022-03-06T20:22:47+01:00,250,47.95,7.68,1007.67,165.10,173.40,0,-127.00,"$GNGGA,192242.000,4900.5243,N,00825.4585,E,1,9,2.71,119.5,M,47.9,M,,*49",,,,
2022-03-06T20:23:08+01:00,251,47.95,7.67,1007.67,170.10,178.70,0,-127.00,"$GNGGA,192303.000,4900.5246,N,00825.4585,E,1,9,2.93,119.5,M,47.9,M,,*44",,,,
2022-03-06T20:23:29+01:00,252,47.94,7.67,1007.67,168.30,176.80,0,-127.00,"$GNGGA,192324.000,4900.5226,N,00825.4730,E,1,9,1.97,119.7,M,47.9,M,,*4E",,,,
2022-03-06T20:23:50+01:00,253,47.92,7.69,1007.68,167.00,175.40,0,-127.00,"$GNGGA,192345.000,4900.5222,N,00825.4740,E,1,8,3.60,122.3,M,47.9,M,,*4D",,,,
2022-03-06T20:24:11+01:00,254,47.91,7.67,1007.70,165.50,173.80,0,-127.00,"$GNGGA,192406.000,4900.5209,N,00825.4800,E,1,8,2.37,129.0,M,47.9,M,,*44",,,,
2022-03-06T20:24:32+01:00,255,47.89,7.68,1007.69,165.00,173.30,0,-127.00,"$GNGGA,192427.000,4900.5191,N,00825.5139,E,1,8,2.37,140.7,M,47.9,M,,*4F",,,,
2022-03-06T20:24:53+01:00,256,47.87,7.66,1007.69,167.70,176.10,0,-127.00,"$GNGGA,192448.000,4900.5180,N,00825.5063,E,1,8,2.37,148.7,M,47.9,M,,*40",,,,
2022-03-06T20:25:14+01:00,257,47.86,7.68,1007.69,169.20,177.70,0,-127.00,"$GNGGA,192509.000,4900.5185,N,00825.5056,E,1,7,6.53,152.1,M,47.9,M,,*43",,,,
2022-03-06T20:25:35+01:00,258,47.84,7.68,1007.70,168.80,177.30,0,-127.00,"$GNGGA,192530.000,4900.5183,N,00825.5162,E,1,7,2.53,153.3,M,47.9,M,,*4E",,,,
2022-03-06T20:25:56+01:00,259,47.82,7.67,1007.70,167.60,176.00,0,-127.00,"$GNGGA,192551.000,4900.5173,N,00825.5130,E,1,7,6.54,153.3,M,47.9,M,,*42",,,,
2022-03-06T20:26:17+01:00,260,47.81,7.66,1007.71,167.20,175.60,0,-127.00,"$GNGGA,192612.000,4900.5202,N,00825.5703,E,1,7,6.54,150.7,M,47.9,M,,*42",,,,
2022-03-06T20:26:38+01:00,261,47.80,7.64,1007.70,167.40,175.80,0,-127.00,"$GNGGA,192633.000,4900.5197,N,00825.5814,E,1,7,6.55,151.0,M,47.9,M,,*40",,,,
2022-03-06T20:26:59+01:00,262,47.78,7.64,1007.72,167.90,176.30,0,-127.00,"$GNGGA,192654.000,4900.5192,N,00825.5814,E,1,7,6.55,151.3,M,47.9,M,,*47",,,,
2022-03-06T20:27:20+01:00,263,47.77,7.66,1007.71,166.40,174.80,0,-127.00,"$GNGGA,192715.000,4900.5217,N,00825.5858,E,1,7,6.55,150.6,M,47.9,M,,*41",,,,
2022-03-06T20:27:41+01:00,264,47.76,7.66,1007.71,163.60,171.80,0,-127.00,"$GNGGA,192736.000,4900.5234,N,00825.5331,E,1,7,6.56,150.8,M,47.9,M,,*48",,,,
2022-03-06T20:28:02+01:00,265,47.74,7.65,1007.71,162.50,170.70,0,-127.00,"$GNGGA,192757.000,4900.5253,N,00825.5320,E,1,7,2.53,150.1,M,47.9,M,,*46",,,,
2022-03-06T20:28:23+01:00,266,47.73,7.66,1007.71,162.30,170.50,0,-127.00,"$GNGGA,192818.000,4900.5258,N,00825.5376,E,1,7,6.56,148.4,M,47.9,M,,*47",,,,
2022-03-06T20:28:44+01:00,267,47.72,7.64,1007.72,162.60,170.80,0,-127.00,"$GNGGA,192839.000,4900.5248,N,00825.5368,E,1,7,6.57,148.1,M,47.9,M,,*4E",,,,
2022-03-06T20:29:04+01:00,268,47.72,7.64,1007.72,161.40,169.50,0,-127.00,"$GNGGA,192859.000,4900.5210,N,00825.5267,E,1,7,6.58,148.3,M,47.9,M,,*46",,,,
2022-03-06T20:29:25+01:00,269,47.70,7.63,1007.71,163.60,171.80,0,-127.00,"$GNGGA,192920.000,4900.5231,N,00825.5426,E,1,6,3.07,147.4,M,47.9,M,,*4F",,,,
2022-03-06T20:29:46+01:00,270,47.69,7.62,1007.71,163.50,171.70,0,-127.00,"$GNGGA,192941.000,4900.5227,N,00825.5385,E,1,6,3.08,147.7,M,47.9,M,,*4D",,,,
2022-03-06T20:30:07+01:00,271,47.68,7.63,1007.71,164.30,172.60,0,-127.00,"$GNGGA,193002.000,4900.5402,N,00825.5062,E,1,7,2.86,148.6,M,47.9,M,,*41",,,,
2022-03-06T20:30:28+01:00,272,47.66,7.64,1007.72,166.10,174.50,0,-127.00,"$GNGGA,193023.000,4900.5398,N,00825.5045,E,1,7,2.86,150.5,M,47.9,M,,*49",,,,
2022-03-06T20:30:49+01:00,273,47.64,7.65,1007.71,167.50,175.90,0,-127.00,"$GNGGA,193044.000,4900.5527,N,00825.5346,E,1,8,6.60,156.0,M,47.9,M,,*4A",,,,
2022-03-06T20:31:10+01:00,274,47.63,7.64,1007.72,167.00,175.40,0,-127.00,"$GNGGA,193105.000,4900.5465,N,00825.5634,E,1,8,2.40,157.8,M,47.9,M,,*46",,,,
2022-03-06T20:31:31+01:00,275,47.62,7.62,1007.72,165.40,173.70,0,-127.00,"$GNGGA,193126.000,4900.5347,N,00825.5635,E,1,8,6.61,156.5,M,47.9,M,,*4A",,,,
2022-03-06T20:31:52+01:00,276,47.60,7.64,1007.72,160.90,169.00,0,-127.00,"$GNGGA,193147.000,4900.5227,N,00825.5358,E,1,8,2.41,157.3,M,47.9,M,,*45",,,,
2022-03-06T20:32:13+01:00,277,47.59,7.65,1007.73,162.90,171.10,0,-127.00,"$GNGGA,193208.000,4900.5271,N,00825.5069,E,1,8,2.41,160.3,M,47.9,M,,*4B",,,,
2022-03-06T20:32:34+01:00,278,47.57,7.62,1007.73,162.30,170.50,0,-127.00,"$GNGGA,193229.000,4900.5319,N,00825.5013,E,1,8,6.62,160.1,M,47.9,M,,*4D",,,,
2022-03-06T20:32:54+01:00,279,47.55,7.63,1007.72,164.10,172.40,0,-127.00,"$GNGGA,193249.000,4900.5276,N,00825.5242,E,1,8,2.41,159.2,M,47.9,M,,*49",,,,
2022-03-06T20:33:15+01:00,280,47.53,7.61,1007.72,163.20,171.40,0,-127.00,"$GNGGA,193310.000,4900.5257,N,00825.5475,E,1,8,2.41,159.0,M,47.9,M,,*47",,,,
2022-03-06T20:33:36+01:00,281,47.51,7.63,1007.73,164.10,172.40,0,-127.00,"$GNGGA,193331.000,4900.5231,N,00825.5499,E,1,8,6.65,157.7,M,47.9,M,,*4D",,,,
2022-03-06T20:33:56+01:00,282,47.49,7.66,1007.72,165.10,173.40,0,-127.00,"$GNGGA,193351.000,4900.5208,N,00825.5407,E,1,8,6.65,156.5,M,47.9,M,,*45",,,,
2022-03-06T20:34:17+01:00,283,47.47,7.62,1007.72,166.50,174.90,0,-127.00,"$GNGGA,193412.000,4900.5203,N,00825.5331,E,1,8,6.66,155.7,M,47.9,M,,*4E",,,,
2022-03-06T20:34:38+01:00,284,47.46,7.61,1007.72,166.50,174.90,0,-127.00,"$GNGGA,193433.000,4900.5206,N,00825.5348,E,1,8,6.67,153.4,M,47.9,M,,*42",,,,
2022-03-06T20:34:58+01:00,285,47.44,7.63,1007.72,166.00,174.40,0,-127.00,"$GNGGA,193453.000,4900.5216,N,00825.5198,E,1,8,6.67,151.4,M,47.9,M,,*48",,,,
2022-03-06T20:35:19+01:00,286,47.43,7.63,1007.74,164.60,172.90,0,-127.00,"$GNGGA,193514.000,4900.5210,N,00825.5104,E,1,8,6.68,150.8,M,47.9,M,,*4B",,,,
2022-03-06T20:35:40+01:00,287,47.42,7.62,1007.74,162.30,170.50,0,-127.00,"$GNGGA,193535.000,4900.5247,N,00825.5110,E,1,8,2.43,149.1,M,47.9,M,,*43",,,,
2022-03-06T20:36:01+01:00,288,47.40,7.62,1007.74,160.50,168.60,0,-127.00,"$GNGGA,193556.000,4900.5248,N,00825.5132,E,1,8,2.43,144.3,M,47.9,M,,*46",,,,
2022-03-06T20:36:22+01:00,289,47.39,7.62,1007.74,162.20,170.40,0,-127.00,"$GNGGA,193617.000,4900.5260,N,00825.5169,E,1,8,2.43,140.7,M,47.9,M,,*44",,,,
2022-03-06T20:36:43+01:00,290,47.37,7.64,1007.74,164.10,172.40,0,-127.00,"$GNGGA,193638.000,4900.5280,N,00825.5249,E,1,8,2.43,136.1,M,47.9,M,,*41",,,,
2022-03-06T20:37:04+01:00,291,47.36,7.62,1007.75,164.60,172.90,0,-127.00,"$GNGGA,193659.000,4900.5279,N,00825.5312,E,1,8,2.44,131.8,M,47.9,M,,*46",,,,
2022-03-06T20:37:25+01:00,292,47.35,7.60,1007.75,161.30,169.40,0,-127.00,"$GNGGA,193720.000,4900.5285,N,00825.4817,E,1,7,2.46,142.7,M,47.9,M,,*43",,,,
2022-03-06T20:37:46+01:00,293,47.33,7.57,1007.76,161.70,169.80,0,-127.00,"$GNGGA,193741.000,4900.5380,N,00825.5291,E,1,7,2.92,140.7,M,47.9,M,,*4E",,,,
2022-03-06T20:38:07+01:00,294,47.32,7.60,1007.76,162.10,170.30,0,-127.00,"$GNGGA,193802.000,4900.5370,N,00825.5503,E,1,8,2.44,131.9,M,47.9,M,,*49",,,,
2022-03-06T20:38:28+01:00,295,47.31,7.60,1007.76,165.00,173.30,0,-127.00,"$GNGGA,193823.000,4900.5356,N,00825.5479,E,1,8,2.44,128.7,M,47.9,M,,*44",,,,
2022-03-06T20:38:49+01:00,296,47.29,7.60,1007.77,164.70,173.00,0,-127.00,"$GNGGA,193844.000,4900.5333,N,00825.5430,E,1,8,2.45,128.2,M,47.9,M,,*4F",,,,
2022-03-06T20:39:10+01:00,297,47.28,7.58,1007.78,165.20,173.50,0,-127.00,"$GNGGA,193905.000,4900.5359,N,00825.5474,E,1,7,2.95,126.7,M,47.9,M,,*4E",,,,
2022-03-06T20:39:31+01:00,298,47.26,7.58,1007.79,165.20,173.50,0,-127.00,"$GNGGA,193926.000,4900.5414,N,00825.5479,E,1,8,2.45,122.0,M,47.9,M,,*4D",,,,
2022-03-06T20:39:52+01:00,299,47.24,7.60,1007.80,164.60,172.90,0,-127.00,"$GNGGA,193947.000,4900.5388,N,00825.5270,E,1,7,2.95,114.7,M,47.9,M,,*47",,,,
2022-03-06T20:40:13+01:00,300,47.23,7.60,1007.82,165.20,173.50,0,-127.00,"$GNGGA,194008.000,4900.5358,N,00825.5195,E,1,7,2.96,108.0,M,47.9,M,,*4E",,,,
2022-03-06T20:40:34+01:00,301,47.21,7.60,1007.82,165.10,173.40,0,-127.00,"$GNGGA,194029.000,4900.5352,N,00825.5216,E,1,8,2.46,104.0,M,47.9,M,,*41",,,,
2022-03-06T20:40:55+01:00,302,47.19,7.62,1007.83,167.10,175.50,0,-127.00,"$GNGGA,194050.000,4900.5302,N,00825.5087,E,1,8,6.81,102.8,M,47.9,M,,*41",,,,
2022-03-06T20:41:16+01:00,303,47.18,7.63,1007.83,169.30,177.80,0,-127.00,"$GNGGA,194111.000,4900.5293,N,00825.4913,E,1,8,6.82,104.7,M,47.9,M,,*43",,,,
2022-03-06T20:41:37+01:00,304,47.16,7.65,1007.84,169.90,178.40,0,-127.00,"$GNGGA,194132.000,4900.5293,N,00825.4937,E,1,8,6.84,105.5,M,47.9,M,,*41",,,,
2022-03-06T20:41:58+01:00,305,47.14,7.65,1007.85,168.10,176.60,0,-127.00,"$GNGGA,194153.000,4900.5291,N,00825.4812,E,1,8,2.47,106.3,M,47.9,M,,*4C",,,,
2022-03-06T20:42:19+01:00,306,47.13,7.65,1007.84,165.40,173.70,0,-127.00,"$GNGGA,194214.000,4900.5288,N,00825.4760,E,1,8,2.47,106.6,M,47.9,M,,*4B",,,,
2022-03-06T20:42:40+01:00,307,47.11,7.63,1007.85,166.00,174.40,0,-127.00,"$GNGGA,194235.000,4900.5235,N,00825.4776,E,1,8,2.48,106.6,M,47.9,M,,*46",,,,
2022-03-06T20:43:01+01:00,308,47.09,7.65,1007.85,169.50,178.00,0,-127.00,"$GNGGA,194256.000,4900.5256,N,00825.4936,E,1,8,6.88,104.7,M,47.9,M,,*47",,,,
2022-03-06T20:43:22+01:00,309,47.08,7.62,1007.85,167.30,175.70,0,-127.00,"$GNGGA,194317.000,4900.5313,N,00825.4945,E,1,7,2.99,103.3,M,47.9,M,,*4F",,,,
2022-03-06T20:43:43+01:00,310,47.07,7.62,1007.86,165.10,173.40,0,-127.00,"$GNGGA,194338.000,4900.5456,N,00825.4960,E,1,7,2.99,103.0,M,47.9,M,,*40",,,,
2022-03-06T20:44:03+01:00,311,47.05,7.63,1007.86,164.20,172.50,0,-127.00,"$GNGGA,194358.000,4900.5287,N,00825.4621,E,1,7,2.99,98.0,M,47.9,M,,*75",,,,
2022-03-06T20:44:23+01:00,312,47.04,7.64,1007.86,166.90,175.30,0,-127.00,"$GNGGA,194418.000,4900.5270,N,00825.4589,E,1,8,2.49,95.4,M,47.9,M,,*74",,,,
2022-03-06T20:44:44+01:00,313,47.02,7.62,1007.87,168.50,177.00,0,-127.00,"$GNGGA,194439.000,4900.5222,N,00825.4479,E,1,7,2.59,97.5,M,47.9,M,,*73",,,,
2022-03-06T20:45:05+01:00,314,47.01,7.62,1007.87,168.30,176.80,0,-127.00,"$GNGGA,194500.000,4900.5282,N,00825.4534,E,1,8,2.50,98.0,M,47.9,M,,*76",,,,
2022-03-06T20:45:26+01:00,315,47.00,7.61,1007.86,168.30,176.80,0,-127.00,"$GNGGA,194521.000,4900.5279,N,00825.4507,E,1,8,2.50,97.0,M,47.9,M,,*7E",,,,
2022-03-06T20:45:47+01:00,316,46.98,7.63,1007.86,168.30,176.80,0,-127.00,"$GNGGA,194542.000,4900.5322,N,00825.4405,E,1,9,2.19,96.6,M,47.9,M,,*7C",,,,
2022-03-06T20:46:08+01:00,317,46.97,7.64,1007.86,165.10,173.40,0,-127.00,"$GNGGA,194603.000,4900.5316,N,00825.4267,E,1,9,2.19,94.2,M,47.9,M,,*79",,,,
2022-03-06T20:46:29+01:00,318,46.96,7.61,1007.85,164.00,172.30,0,-127.00,"$GNGGA,194624.000,4900.5281,N,00825.4315,E,1,9,2.19,93.6,M,47.9,M,,*74",,,,
2022-03-06T20:46:50+01:00,319,46.94,7.64,1007.86,160.70,168.80,0,-127.00,"$GNGGA,194645.000,4900.5282,N,00825.4311,E,1,9,2.20,92.4,M,47.9,M,,*7D",,,,
2022-03-06T20:47:11+01:00,320,46.93,7.65,1007.86,163.00,171.20,0,-127.00,"$GNGGA,194706.000,4900.5292,N,00825.4165,E,1,9,2.20,90.1,M,47.9,M,,*7C",,,,
2022-03-06T20:47:32+01:00,321,46.91,7.65,1007.86,163.70,171.90,0,-127.00,"$GNGGA,194727.000,4900.5327,N,00825.3954,E,1,9,2.20,87.7,M,47.9,M,,*7D",,,,
2022-03-06T20:47:53+01:00,322,46.90,7.65,1007.85,164.90,173.20,0,-127.00,"$GNGGA,194748.000,4900.5358,N,00825.3861,E,1,9,2.20,86.5,M,47.9,M,,*78",,,,
2022-03-06T20:48:14+01:00,323,46.89,7.65,1007.85,163.60,171.80,0,-127.00,"$GNGGA,194809.000,4900.5327,N,00825.3755,E,1,9,6.21,86.1,M,47.9,M,,*73",,,,
2022-03-06T20:48:35+01:00,324,46.88,7.66,1007.85,162.30,170.50,0,-127.00,"$GNGGA,194830.000,4900.5304,N,00825.3828,E,1,9,2.21,86.4,M,47.9,M,,*7C",,,,
2022-03-06T20:48:56+01:00,325,46.86,7.64,1007.85,162.90,171.10,0,-127.00,"$GNGGA,194851.000,4900.5322,N,00825.3916,E,1,9,2.21,81.1,M,47.9,M,,*71",,,,
2022-03-06T20:49:17+01:00,326,46.85,7.62,1007.85,163.80,172.00,0,-127.00,"$GNGGA,194912.000,4900.5306,N,00825.3862,E,1,9,2.21,77.2,M,47.9,M,,*79",,,,
2022-03-06T20:49:38+01:00,327,46.83,7.64,1007.84,166.20,174.60,0,-127.00,"$GNGGA,194933.000,4900.5352,N,00825.3679,E,1,9,2.22,72.7,M,47.9,M,,*7C",,,,
2022-03-06T20:49:58+01:00,328,46.81,7.66,1007.83,167.80,176.20,0,-127.00,"$GNGGA,194953.000,4900.5316,N,00825.3663,E,1,9,2.22,70.4,M,47.9,M,,*70",,,,
2022-03-06T20:50:19+01:00,329,46.80,7.68,1007.83,169.50,178.00,0,-127.00,"$GNGGA,195014.000,4900.5344,N,00825.3721,E,1,9,2.22,68.9,M,47.9,M,,*7F",,,,
2022-03-06T20:50:40+01:00,330,46.78,7.63,1007.83,169.90,178.40,0,-127.00,"$GNGGA,195035.000,4900.5385,N,00825.3827,E,1,9,2.22,67.0,M,47.9,M,,*7E",,,,
2022-03-06T20:51:01+01:00,331,46.76,7.64,1007.83,168.20,176.70,0,-127.00,"$GNGGA,195056.000,4900.5383,N,00825.3785,E,1,9,2.23,66.4,M,47.9,M,,*7E",,,,
2022-03-06T20:51:22+01:00,332,46.75,7.63,1007.83,165.70,174.00,0,-127.00,"$GNGGA,195117.000,4900.5369,N,00825.3701,E,1,9,2.23,65.2,M,47.9,M,,*77",,,,
2022-03-06T20:51:43+01:00,333,46.73,7.65,1007.83,164.50,172.80,0,-127.00,"$GNGGA,195138.000,4900.5350,N,00825.3582,E,1,9,2.23,65.9,M,47.9,M,,*72",,,,
2022-03-06T20:52:04+01:00,334,46.71,7.63,1007.82,165.90,174.20,0,-127.00,"$GNGGA,195159.000,4900.5301,N,00825.3797,E,1,9,2.24,73.8,M,47.9,M,,*76",,,,
2022-03-06T20:52:25+01:00,335,46.70,7.63,1007.81,167.60,176.00,0,-127.00,"$GNGGA,195220.000,4900.5311,N,00825.3860,E,1,8,2.27,76.8,M,47.9,M,,*7A",,,,
2022-03-06T20:52:46+01:00,336,46.68,7.66,1007.81,166.70,175.10,0,-127.00,"$GNGGA,195241.000,4900.5311,N,00825.4046,E,1,9,2.24,87.1,M,47.9,M,,*73",,,,
2022-03-06T20:53:07+01:00,337,46.66,7.66,1007.81,167.20,175.60,0,-127.00,"$GNGGA,195302.000,4900.5339,N,00825.3923,E,1,9,2.24,86.9,M,47.9,M,,*7B",,,,
2022-03-06T20:53:28+01:00,338,46.65,7.63,1007.80,166.10,174.50,0,-127.00,"$GNGGA,195323.000,4900.5316,N,00825.3941,E,1,8,2.39,88.0,M,47.9,M,,*7B",,,,
2022-03-06T20:53:49+01:00,339,46.63,7.70,1007.80,166.30,174.70,0,-127.00,"$GNGGA,195344.000,4900.5278,N,00825.3997,E,1,9,2.25,93.1,M,47.9,M,,*7F",,,,
2022-03-06T20:54:09+01:00,340,46.61,7.79,1007.79,164.90,173.20,0,-127.00,"$GNGGA,195404.000,4900.5344,N,00825.3975,E,1,9,2.25,93.6,M,47.9,M,,*79",,,,
2022-03-06T20:54:30+01:00,341,46.60,7.77,1007.79,165.40,173.70,0,-127.00,"$GNGGA,195425.000,4900.5313,N,00825.3984,E,1,8,2.40,96.2,M,47.9,M,,*75",,,,
2022-03-06T20:54:51+01:00,342,46.58,7.81,1007.78,167.50,175.90,0,-127.00,"$GNGGA,195446.000,4900.5395,N,00825.3918,E,1,9,2.26,96.5,M,47.9,M,,*7D",,,,
2022-03-06T20:55:13+01:00,343,46.57,7.82,1007.79,170.00,178.60,0,-127.00,"$GNGGA,195508.000,4900.5397,N,00825.3944,E,1,8,2.79,100.3,M,47.9,M,,*4E",,,,
2022-03-06T20:55:34+01:00,344,46.57,7.86,1007.79,173.50,182.20,0,-127.00,"$GNGGA,195529.000,4900.5302,N,00825.3821,E,1,7,2.83,98.9,M,47.9,M,,*73",,,,
2022-03-06T20:55:55+01:00,345,46.55,7.87,1007.79,175.80,184.60,0,-127.00,"$GNGGA,195550.000,4900.5326,N,00825.3719,E,1,7,2.84,97.3,M,47.9,M,,*7D",,,,
2022-03-06T20:56:16+01:00,346,46.55,7.91,1007.79,176.00,184.90,0,-127.00,"$GNGGA,195611.000,4900.5308,N,00825.3668,E,1,8,8.32,96.9,M,47.9,M,,*73",,,,
2022-03-06T20:56:37+01:00,347,46.53,7.91,1007.79,176.30,185.20,0,-127.00,"$GNGGA,195632.000,4900.5271,N,00825.3727,E,1,8,6.53,97.8,M,47.9,M,,*7E",,,,
2022-03-06T20:56:58+01:00,348,46.52,7.95,1007.79,176.10,185.00,0,-127.00,"$GNGGA,195653.000,4900.5251,N,00825.3773,E,1,8,2.82,98.2,M,47.9,M,,*77",,,,
2022-03-06T20:57:19+01:00,349,46.51,7.96,1007.79,178.10,187.10,0,-127.00,"$GNGGA,195714.000,4900.5250,N,00825.3648,E,1,8,2.83,97.3,M,47.9,M,,*72",,,,
2022-03-06T20:57:40+01:00,350,46.49,7.98,1007.78,177.40,186.30,0,-127.00,"$GNGGA,195735.000,4900.5293,N,00825.3585,E,1,8,2.83,93.6,M,47.9,M,,*7D",,,,
2022-03-06T20:58:01+01:00,351,46.48,7.95,1007.78,176.30,185.20,0,-127.00,"$GNGGA,195756.000,4900.5242,N,00825.3518,E,1,8,3.82,89.4,M,47.9,M,,*79",,,,
2022-03-06T20:58:22+01:00,352,46.46,7.96,1007.79,176.50,185.40,0,-127.00,"$GNGGA,195817.000,4900.5275,N,00825.3583,E,1,8,2.84,87.6,M,47.9,M,,*7E",,,,
2022-03-06T20:58:43+01:00,353,46.45,8.02,1007.80,176.60,185.50,0,-127.00,"$GNGGA,195838.000,4900.5234,N,00825.3508,E,1,7,6.62,89.2,M,47.9,M,,*7C",,,,
2022-03-06T20:59:03+01:00,354,46.43,8.07,1007.80,177.40,186.30,0,-127.00,"$GNGGA,195858.000,4900.5259,N,00825.3673,E,1,8,2.86,89.8,M,47.9,M,,*75",,,,
2022-03-06T20:59:24+01:00,355,46.42,8.07,1007.80,177.20,186.10,0,-127.00,"$GNGGA,195919.000,4900.5242,N,00825.3511,E,1,8,2.86,87.5,M,47.9,M,,*7F",,,,
2022-03-06T20:59:45+01:00,356,46.41,8.06,1007.80,177.10,186.00,0,-127.00,"$GNGGA,195940.000,4900.5321,N,00825.3411,E,1,7,6.67,83.0,M,47.9,M,,*73",,,,
2022-03-06T21:00:05+01:00,357,46.39,8.07,1007.80,175.80,184.60,0,-127.00,"$GNGGA,200000.000,4900.5299,N,00825.3397,E,1,7,3.18,80.5,M,47.9,M,,*71",,,,
2022-03-06T21:00:25+01:00,358,46.39,8.08,1007.82,176.10,185.00,0,-127.00,"$GNGGA,200020.000,4900.5284,N,00825.3413,E,1,8,2.88,79.3,M,47.9,M,,*73",,,,
2022-03-06T21:00:46+01:00,359,46.38,8.06,1007.82,176.60,185.50,0,-127.00,"$GNGGA,200041.000,4900.5358,N,00825.3436,E,1,8,2.89,76.5,M,47.9,M,,*7B",,,,
2022-03-06T21:01:07+01:00,360,46.36,8.09,1007.82,180.80,189.90,0,-127.00,"$GNGGA,200102.000,4900.5357,N,00825.3377,E,1,7,2.92,71.5,M,47.9,M,,*72",,,,
2022-03-06T21:01:28+01:00,361,46.36,8.09,1007.81,181.80,190.90,0,-127.00,"$GNGGA,200123.000,4900.5337,N,00825.3439,E,1,7,2.93,68.6,M,47.9,M,,*70",,,,
2022-03-06T21:01:49+01:00,362,46.34,8.11,1007.81,180.20,189.30,0,-127.00,"$GNGGA,200144.000,4900.5347,N,00825.3271,E,1,7,2.94,67.5,M,47.9,M,,*77",,,,
2022-03-06T21:02:09+01:00,363,46.33,8.11,1007.81,176.80,185.70,0,-127.00,"$GNGGA,200204.000,4900.5361,N,00825.3106,E,1,7,2.94,65.9,M,47.9,M,,*79",,,,
2022-03-06T21:02:30+01:00,364,46.32,8.13,1007.80,176.90,185.80,0,-127.00,"$GNGGA,200225.000,4900.5352,N,00825.3051,E,1,7,3.23,63.0,M,47.9,M,,*7B",,,,
2022-03-06T21:02:51+01:00,365,46.31,8.16,1007.81,178.80,187.80,0,-127.00,"$GNGGA,200246.000,4900.5346,N,00825.3197,E,1,8,2.92,61.1,M,47.9,M,,*77",,,,
2022-03-06T21:03:12+01:00,366,46.29,8.17,1007.83,178.00,187.00,0,-127.00,"$GNGGA,200307.000,4900.5335,N,00825.3206,E,1,8,2.93,59.4,M,47.9,M,,*73",,,,
2022-03-06T21:03:33+01:00,367,46.29,8.17,1007.83,177.30,186.20,0,-127.00,"$GNGGA,200328.000,4900.5309,N,00825.3282,E,1,8,2.94,60.0,M,47.9,M,,*74",,,,
2022-03-06T21:03:54+01:00,368,46.28,8.17,1007.83,175.50,184.30,0,-127.00,"$GNGGA,200349.000,4900.5312,N,00825.3290,E,1,8,2.95,60.0,M,47.9,M,,*7B",,,,
2022-03-06T21:04:15+01:00,369,46.26,8.15,1007.83,175.50,184.30,0,-127.00,"$GNGGA,200410.000,4900.5321,N,00825.3259,E,1,8,2.95,60.0,M,47.9,M,,*75",,,,
2022-03-06T21:04:36+01:00,370,46.26,8.17,1007.82,174.50,183.30,0,-127.00,"$GNGGA,200431.000,4900.5333,N,00825.3283,E,1,8,2.96,56.6,M,47.9,M,,*72",,,,
2022-03-06T21:04:57+01:00,371,46.24,8.20,1007.83,176.20,185.10,0,-127.00,"$GNGGA,200452.000,4900.5302,N,00825.3280,E,1,8,2.97,57.6,M,47.9,M,,*76",,,,
2022-03-06T21:05:18+01:00,372,46.23,8.19,1007.83,174.10,182.90,0,-127.00,"$GNGGA,200513.000,4900.5305,N,00825.3318,E,1,8,2.98,60.0,M,47.9,M,,*78",,,,
2022-03-06T21:05:39+01:00,373,46.22,8.18,1007.82,177.70,186.60,0,-127.00,"$GNGGA,200534.000,4900.5292,N,00825.3286,E,1,8,2.98,64.7,M,47.9,M,,*77",,,,
2022-03-06T21:06:00+01:00,374,46.22,8.19,1007.82,177.70,186.60,0,-127.00,"$GNGGA,200555.000,4900.5293,N,00825.3269,E,1,8,2.99,67.4,M,47.9,M,,*71",,,,
2022-03-06T21:06:21+01:00,375,46.21,8.18,1007.83,178.60,187.60,0,-127.00,"$GNGGA,200616.000,4900.5290,N,00825.3304,E,1,8,3.00,65.5,M,47.9,M,,*7E",,,,
2022-03-06T21:06:42+01:00,376,46.20,8.20,1007.83,177.70,186.60,0,-127.00,"$GNGGA,200637.000,4900.5292,N,00825.3313,E,1,8,3.01,64.5,M,47.9,M,,*79",,,,
2022-03-06T21:07:03+01:00,377,46.19,8.21,1007.84,179.50,188.50,0,-127.00,"$GNGGA,200658.000,4900.5291,N,00825.3366,E,1,8,3.01,66.8,M,47.9,M,,*7E",,,,
2022-03-06T21:07:24+01:00,378,46.18,8.20,1007.84,175.90,184.70,0,-127.00,"$GNGGA,200719.000,4900.5300,N,00825.3263,E,1,7,3.05,69.3,M,47.9,M,,*78",,,,
2022-03-06T21:07:45+01:00,379,46.18,8.21,1007.84,175.30,184.10,0,-127.00,"$GNGGA,200740.000,4900.5284,N,00825.3211,E,1,8,7.12,64.4,M,47.9,M,,*7B",,,,
2022-03-06T21:08:05+01:00,380,46.18,8.20,1007.84,177.00,185.90,0,-127.00,"$GNGGA,200800.000,4900.5284,N,00825.3188,E,1,8,4.21,57.4,M,47.9,M,,*70",,,,
2022-03-06T21:08:26+01:00,381,46.18,8.21,1007.85,179.10,188.10,0,-127.00,"$GNGGA,200821.000,4900.5270,N,00825.2992,E,1,8,7.16,54.2,M,47.9,M,,*78",,,,
2022-03-06T21:08:47+01:00,382,46.17,8.22,1007.85,177.00,185.90,0,-127.00,"$GNGGA,200842.000,4900.5264,N,00825.2892,E,1,8,3.05,49.0,M,47.9,M,,*71",,,,
2022-03-06T21:09:08+01:00,383,46.16,8.22,1007.85,173.40,182.10,0,-127.00,"$GNGGA,200903.000,4900.5263,N,00825.2973,E,1,7,3.09,46.6,M,47.9,M,,*76",,,,
2022-03-06T21:09:29+01:00,384,46.15,8.24,1007.86,174.50,183.30,0,-127.00,"$GNGGA,200924.000,4900.5278,N,00825.2945,E,1,7,3.10,47.1,M,47.9,M,,*72",,,,
2022-03-06T21:09:50+01:00,385,46.14,8.26,1007.88,174.30,183.10,0,-127.00,"$GNGGA,200945.000,4900.5271,N,00825.2907,E,1,8,3.08,49.3,M,47.9,M,,*70",,,,
2022-03-06T21:10:11+01:00,386,46.13,8.25,1007.87,174.60,183.40,0,-127.00,"$GNGGA,201006.000,4900.5246,N,00825.2867,E,1,8,3.08,51.5,M,47.9,M,,*73",,,,
2022-03-06T21:10:32+01:00,387,46.12,8.24,1007.88,175.90,184.70,0,-127.00,"$GNGGA,201027.000,4900.5237,N,00825.2880,E,1,8,3.09,53.3,M,47.9,M,,*7A",,,,
2022-03-06T21:10:53+01:00,388,46.11,8.25,1007.89,177.40,186.30,0,-127.00,"$GNGGA,201048.000,4900.5278,N,00825.3011,E,1,8,7.33,53.2,M,47.9,M,,*75",,,,
2022-03-06T21:11:13+01:00,389,46.09,8.25,1007.89,177.60,186.50,0,-127.00,"$GNGGA,201108.000,4900.5309,N,00825.3036,E,1,8,3.11,53.7,M,47.9,M,,*73",,,,
2022-03-06T21:11:34+01:00,390,46.08,8.28,1007.89,179.50,188.50,0,-127.00,"$GNGGA,201129.000,4900.5271,N,00825.2925,E,1,8,4.35,55.0,M,47.9,M,,*74",,,,
2022-03-06T21:11:55+01:00,391,46.07,8.28,1007.90,180.10,189.20,0,-127.00,"$GNGGA,201150.000,4900.5236,N,00825.2837,E,1,8,3.13,58.4,M,47.9,M,,*71",,,,
2022-03-06T21:12:16+01:00,392,46.06,8.27,1007.91,180.50,189.60,0,-127.00,"$GNGGA,201211.000,4900.5218,N,00825.2710,E,1,7,3.54,62.0,M,47.9,M,,*70",,,,
2022-03-06T21:12:37+01:00,393,46.05,8.28,1007.91,178.00,187.00,0,-127.00,"$GNGGA,201232.000,4900.5201,N,00825.2569,E,1,7,3.55,64.1,M,47.9,M,,*73",,,,
2022-03-06T21:12:58+01:00,394,46.04,8.26,1007.90,175.30,184.10,0,-127.00,"$GNGGA,201253.000,4900.5259,N,00825.2691,E,1,7,3.56,65.6,M,47.9,M,,*78",,,,
2022-03-06T21:13:19+01:00,395,46.03,8.30,1007.90,174.80,183.60,0,-127.00,"$GNGGA,201314.000,4900.5274,N,00825.2845,E,1,6,3.91,67.6,M,47.9,M,,*7A",,,,
2022-03-06T21:13:40+01:00,396,46.02,8.28,1007.89,173.50,182.20,0,-127.00,"$GNGGA,201335.000,4900.5337,N,00825.3007,E,1,8,3.18,68.8,M,47.9,M,,*7E",,,,
2022-03-06T21:14:01+01:00,397,46.01,8.28,1007.88,175.40,184.20,0,-127.00,"$GNGGA,201356.000,4900.5314,N,00825.2977,E,1,7,3.60,69.6,M,47.9,M,,*7A",,,,
2022-03-06T21:14:22+01:00,398,46.00,8.29,1007.90,175.90,184.70,0,-127.00,"$GNGGA,201417.000,4900.5321,N,00825.3038,E,1,8,7.58,71.2,M,47.9,M,,*70",,,,
2022-03-06T21:14:43+01:00,399,45.99,8.30,1007.89,178.00,187.00,0,-127.00,"$GNGGA,201438.000,4900.5306,N,00825.2948,E,1,8,3.20,72.3,M,47.9,M,,*7E",,,,
2022-03-06T21:15:04+01:00,400,45.98,8.30,1007.89,180.10,189.20,0,-127.00,"$GNGGA,201459.000,4900.5300,N,00825.2916,E,1,8,3.21,70.0,M,47.9,M,,*74",,,,
