created_at,entry_id,field1,field2,field3,field4,field5,field6,field7,field8,latitude,longitude,elevation,status
2022-02-10T18:02:39+01:00,1,25.69,31.96,1008.75,269.50,283.00,2,23.00,"$GNGGA,170233.099,4900.5136,N,00825.4129,E,0,3,,102.1,M,47.9,M,,*5F",,,,
2022-02-10T18:03:00+01:00,2,26.27,31.60,1008.76,288.00,302.50,2,23.00,"$GNGGA,170255.099,4900.5161,N,00825.4323,E,0,3,,102.1,M,47.9,M,,*55",,,,
2022-02-10T18:03:28+01:00,3,26.78,31.26,1008.77,292.50,307.20,2,23.50,"$GNGGA,170323.000,4900.5275,N,00825.4698,E,1,4,4.37,146.1,M,47.9,M,,*4E",,,,
2022-02-10T18:03:49+01:00,4,27.22,30.99,1008.77,287.30,301.70,2,23.50,"$GNGGA,170344.000,4900.5284,N,00825.4737,E,1,5,2.35,146.7,M,47.9,M,,*46",,,,
2022-02-10T18:04:10+01:00,5,27.58,30.80,1008.77,283.80,298.00,2,23.50,"$GNGGA,170405.000,4900.5292,N,00825.4801,E,1,4,4.43,140.3,M,47.9,M,,*4D",,,,
2022-02-10T18:04:31+01:00,6,27.89,30.64,1008.77,285.20,299.50,2,23.50,"$GNGGA,170426.000,4900.5233,N,00825.4648,E,1,4,4.47,135.8,M,47.9,M,,*49",,,,
2022-02-10T18:04:52+01:00,7,28.16,30.48,1008.76,284.20,298.50,2,23.50,"$GNGGA,170447.000,4900.5231,N,00825.4596,E,1,4,4.50,129.2,M,47.9,M,,*4D",,,,
2022-02-10T18:07:48+01:00,8,28.70,29.88,1008.77,254.40,267.20,3,24.00,"$GNGGA,170743.000,4900.5281,N,00825.4428,E,1,4,4.78,147.0,M,47.9,M,,*45",,,,
2022-02-10T18:08:09+01:00,9,28.99,29.41,1008.78,266.10,279.50,3,24.50,"$GNGGA,170804.000,4900.5241,N,00825.4493,E,1,4,4.82,126.5,M,47.9,M,,*42",,,,
2022-02-10T18:08:32+01:00,10,29.24,29.13,1008.81,265.10,278.40,3,24.50,"$GNGGA,170827.000,4900.5209,N,00825.4375,E,1,4,4.86,108.8,M,47.9,M,,*45",,,,
2022-02-10T18:08:53+01:00,11,29.47,28.91,1008.83,264.70,278.00,3,24.50,"$GNGGA,170848.000,4900.5280,N,00825.4264,E,1,4,4.89,107.8,M,47.9,M,,*4C",,,,
2022-02-10T18:09:14+01:00,12,29.66,28.77,1008.83,261.50,274.60,3,24.50,"$GNGGA,170909.000,4900.5281,N,00825.4255,E,1,4,4.93,110.4,M,47.9,M,,*4A",,,,
2022-02-10T18:09:37+01:00,13,29.82,28.68,1008.83,263.80,277.00,3,24.50,"$GNGGA,170932.000,4900.5293,N,00825.4254,E,6,3,85.77,110.5,M,47.9,M,,*72",,,,
2022-02-10T18:11:58+01:00,14,29.94,28.42,1008.84,270.80,284.40,3,25.00,"$GNGGA,171153.000,4900.5244,N,00825.4790,E,6,0,99.99,132.8,M,47.9,M,,*78",,,,
2022-02-10T18:12:20+01:00,15,30.07,28.35,1008.85,273.80,287.50,3,25.00,"$GNGGA,171215.000,4900.5221,N,00825.4171,E,1,3,6.05,113.5,M,47.9,M,,*4A",,,,
2022-02-10T18:12:41+01:00,16,30.24,28.12,1008.85,269.00,282.50,3,25.00,"$GNGGA,171236.000,4900.5237,N,00825.4187,E,1,4,5.29,112.6,M,47.9,M,,*4D",,,,
2022-02-10T18:13:03+01:00,17,30.39,27.81,1008.84,268.50,282.00,3,25.00,"$GNGGA,171258.000,4900.5254,N,00825.4111,E,1,4,5.34,112.5,M,47.9,M,,*40",,,,
2022-02-10T18:13:25+01:00,18,30.52,27.74,1008.84,279.50,293.50,3,25.00,"$GNGGA,171320.000,4900.5261,N,00825.4420,E,1,4,5.37,112.5,M,47.9,M,,*4C",,,,
2022-02-10T18:13:46+01:00,19,30.66,27.43,1008.83,281.20,295.30,3,25.00,"$GNGGA,171341.000,4900.5119,N,00825.4444,E,1,4,5.43,110.7,M,47.9,M,,*46",,,,
2022-02-10T18:14:08+01:00,20,30.80,27.12,1008.82,282.20,296.40,3,25.00,"$GNGGA,171403.000,4900.5139,N,00825.4376,E,1,3,6.26,110.0,M,47.9,M,,*43",,,,
2022-02-10T18:14:30+01:00,21,30.94,26.78,1008.83,280.90,295.00,3,25.00,"$GNGGA,171425.000,4900.5175,N,00825.4424,E,1,3,6.30,108.7,M,47.9,M,,*46",,,,
2022-02-10T18:14:50+01:00,22,31.05,26.50,1008.81,282.70,296.90,3,25.00,"$GNGGA,171445.000,4900.5248,N,00825.4357,E,1,4,5.53,110.0,M,47.9,M,,*41",,,,
2022-02-10T18:15:13+01:00,23,31.12,25.27,1008.81,277.50,291.40,3,25.00,"$GNGGA,171508.000,4900.5270,N,00825.4421,E,1,4,5.57,115.6,M,47.9,M,,*43",,,,
2022-02-10T18:15:33+01:00,24,31.16,23.88,1008.83,261.50,274.60,3,24.50,"$GNGGA,171528.000,4900.5198,N,00825.4401,E,1,4,5.61,118.5,M,47.9,M,,*4D",,,,
2022-02-10T18:15:54+01:00,25,31.17,23.01,1008.83,236.60,248.50,3,24.00,"$GNGGA,171549.000,4900.5242,N,00825.4487,E,1,4,5.66,126.2,M,47.9,M,,*4D",,,,
2022-02-10T18:16:15+01:00,26,31.15,22.58,1008.83,225.60,236.90,3,23.50,"$GNGGA,171610.000,4900.5251,N,00825.4473,E,1,5,5.43,130.9,M,47.9,M,,*41",,,,
2022-02-10T18:16:36+01:00,27,31.13,22.80,1008.82,217.60,228.50,3,23.50,"$GNGGA,171631.000,4900.5280,N,00825.4737,E,1,5,5.45,131.7,M,47.9,M,,*44",,,,
2022-02-10T18:16:57+01:00,28,31.09,22.66,1008.82,218.60,229.60,3,23.50,"$GNGGA,171652.000,4900.5256,N,00825.4645,E,1,5,5.48,131.8,M,47.9,M,,*4C",,,,
2022-02-10T18:17:18+01:00,29,31.06,22.78,1008.81,216.70,227.60,3,23.50,"$GNGGA,171713.000,4900.5259,N,00825.4573,E,1,5,5.51,133.6,M,47.9,M,,*45",,,,
2022-02-10T18:17:39+01:00,30,31.03,22.33,1008.81,217.30,228.20,3,23.50,"$GNGGA,171734.000,4900.5248,N,00825.4582,E,1,5,5.55,134.3,M,47.9,M,,*48",,,,
2022-02-10T18:18:00+01:00,31,31.00,21.97,1008.81,208.80,219.30,3,23.00,"$GNGGA,171755.000,4900.5264,N,00825.4667,E,1,5,5.58,132.5,M,47.9,M,,*44",,,,
2022-02-10T18:18:21+01:00,32,30.97,21.89,1008.81,207.50,217.90,3,23.00,"$GNGGA,171816.000,4900.5277,N,00825.4693,E,1,5,5.61,133.9,M,47.9,M,,*42",,,,
2022-02-10T18:18:42+01:00,33,30.95,22.11,1008.81,207.00,217.40,3,23.00,"$GNGGA,171837.000,4900.5296,N,00825.5001,E,1,5,5.63,137.1,M,47.9,M,,*4C",,,,
2022-02-10T18:19:03+01:00,34,30.94,22.07,1008.81,215.60,226.40,3,23.50,"$GNGGA,171858.000,4900.5312,N,00825.4957,E,1,5,5.66,139.5,M,47.9,M,,*4C",,,,
2022-02-10T18:19:24+01:00,35,30.95,21.91,1008.80,217.60,228.50,3,23.00,"$GNGGA,171919.000,4900.5302,N,00825.4836,E,1,5,5.69,137.4,M,47.9,M,,*4F",,,,
2022-02-10T18:19:45+01:00,36,30.95,21.75,1008.80,217.90,228.80,3,23.50,"$GNGGA,171940.000,4900.5262,N,00825.4550,E,1,5,5.72,136.7,M,47.9,M,,*41",,,,
2022-02-10T18:20:06+01:00,37,30.97,21.81,1008.78,216.00,226.90,3,23.50,"$GNGGA,172001.000,4900.5259,N,00825.4628,E,1,5,5.74,133.9,M,47.9,M,,*47",,,,
2022-02-10T18:20:27+01:00,38,30.99,21.77,1008.78,213.30,224.00,3,23.50,"$GNGGA,172022.000,4900.5257,N,00825.4683,E,1,5,5.77,132.3,M,47.9,M,,*41",,,,
2022-02-10T18:20:48+01:00,39,31.00,21.38,1008.78,212.80,223.50,3,23.50,"$GNGGA,172043.000,4900.5240,N,00825.4664,E,1,5,5.79,132.5,M,47.9,M,,*41",,,,
2022-02-10T18:21:09+01:00,40,31.01,21.18,1008.78,213.50,224.20,3,23.00,"$GNGGA,172104.000,4900.5238,N,00825.4627,E,1,5,5.82,128.8,M,47.9,M,,*49",,,,
2022-02-10T18:21:29+01:00,41,31.03,21.23,1008.77,215.90,226.70,3,23.00,"$GNGGA,172124.000,4900.5238,N,00825.4754,E,1,5,5.85,125.7,M,47.9,M,,*4B",,,,
2022-02-10T18:21:50+01:00,42,31.04,21.29,1008.78,216.50,227.40,3,23.50,"$GNGGA,172145.000,4900.5232,N,00825.4770,E,1,5,5.87,125.1,M,47.9,M,,*44",,,,
2022-02-10T18:22:11+01:00,43,31.05,20.94,1008.79,215.20,226.00,3,23.00,"$GNGGA,172206.000,4900.5227,N,00825.4695,E,1,5,5.91,127.6,M,47.9,M,,*4C",,,,
2022-02-10T18:22:32+01:00,44,31.07,20.68,1008.78,211.10,221.70,3,23.00,"$GNGGA,172227.000,4900.5237,N,00825.4790,E,1,5,5.92,128.2,M,47.9,M,,*42",,,,
2022-02-10T18:22:53+01:00,45,31.09,20.85,1008.78,210.00,220.60,3,23.00,"$GNGGA,172248.000,4900.5243,N,00825.4866,E,1,5,5.95,124.6,M,47.9,M,,*41",,,,
2022-02-10T18:23:15+01:00,46,31.11,20.13,1008.79,207.80,218.20,3,22.50,"$GNGGA,172309.000,4900.5216,N,00825.4714,E,1,5,5.97,124.4,M,47.9,M,,*4F",,,,
2022-02-10T18:23:35+01:00,47,31.12,20.06,1008.79,207.90,218.30,3,22.50,"$GNGGA,172330.000,4900.5233,N,00825.4503,E,1,5,5.97,127.9,M,47.9,M,,*48",,,,
2022-02-10T18:23:56+01:00,48,31.13,20.68,1008.79,207.30,217.70,3,23.00,"$GNGGA,172351.000,4900.5254,N,00825.4713,E,1,5,6.01,127.7,M,47.9,M,,*4F",,,,
2022-02-10T18:24:17+01:00,49,31.14,20.21,1008.79,209.20,219.70,3,23.00,"$GNGGA,172412.000,4900.5230,N,00825.4785,E,1,5,6.02,126.7,M,47.9,M,,*40",,,,
2022-02-10T18:24:37+01:00,50,31.15,20.58,1008.79,206.80,217.20,3,23.00,"$GNGGA,172432.000,4900.5238,N,00825.4610,E,1,5,6.03,128.4,M,47.9,M,,*4B",,,,
2022-02-10T18:24:58+01:00,51,31.15,20.30,1008.80,204.60,214.90,3,23.00,"$GNGGA,172453.000,4900.5252,N,00825.4723,E,1,5,6.04,128.3,M,47.9,M,,*41",,,,
2022-02-10T18:25:19+01:00,52,31.16,20.15,1008.80,201.50,211.60,3,23.00,"$GNGGA,172514.000,4900.5256,N,00825.4740,E,1,5,6.06,126.4,M,47.9,M,,*49",,,,
2022-02-10T18:25:39+01:00,53,31.16,20.11,1008.79,201.50,211.60,3,23.00,"$GNGGA,172534.000,4900.5240,N,00825.4908,E,1,5,6.07,126.6,M,47.9,M,,*4D",,,,
2022-02-10T18:26:00+01:00,54,31.16,20.12,1008.80,200.30,210.40,3,23.00,"$GNGGA,172555.000,4900.5237,N,00825.4744,E,1,5,6.09,126.5,M,47.9,M,,*41",,,,
2022-02-10T18:26:21+01:00,55,31.16,20.16,1008.80,196.50,206.40,3,23.00,"$GNGGA,172616.000,4900.5240,N,00825.4934,E,1,6,4.19,126.6,M,47.9,M,,*4F",,,,
2022-02-10T18:26:41+01:00,56,31.16,20.09,1008.80,195.30,205.10,3,23.00,"$GNGGA,172636.000,4900.5273,N,00825.5025,E,1,6,4.21,126.2,M,47.9,M,,*4A",,,,
2022-02-10T18:27:02+01:00,57,31.17,19.82,1008.79,194.70,204.50,3,23.00,"$GNGGA,172657.000,4900.5282,N,00825.4934,E,1,6,4.23,125.2,M,47.9,M,,*4A",,,,
2022-02-10T18:27:23+01:00,58,31.18,19.84,1008.78,196.80,206.70,3,23.00,"$GNGGA,172718.000,4900.5301,N,00825.4921,E,1,6,6.55,125.2,M,47.9,M,,*4D",,,,
2022-02-10T18:27:44+01:00,59,31.18,19.62,1008.77,195.30,205.10,3,22.50,"$GNGGA,172739.000,4900.5253,N,00825.4812,E,1,6,4.27,125.5,M,47.9,M,,*49",,,,
2022-02-10T18:28:05+01:00,60,31.18,19.83,1008.77,194.30,204.10,3,23.00,"$GNGGA,172800.000,4900.5240,N,00825.4920,E,1,6,4.30,122.5,M,47.9,M,,*4F",,,,
2022-02-10T18:28:26+01:00,61,31.18,19.82,1008.77,190.70,200.30,3,23.00,"$GNGGA,172821.000,4900.5244,N,00825.5053,E,1,7,6.57,119.8,M,47.9,M,,*43",,,,
2022-02-10T18:28:47+01:00,62,31.18,19.58,1008.77,195.30,205.10,3,22.50,"$GNGGA,172842.000,4900.5201,N,00825.4595,E,1,7,4.22,121.9,M,47.9,M,,*43",,,,
2022-02-10T18:29:08+01:00,63,31.19,19.47,1008.76,204.40,214.70,3,22.50,"$GNGGA,172903.000,4900.5270,N,00825.4342,E,1,7,7.11,121.7,M,47.9,M,,*40",,,,
2022-02-10T18:29:29+01:00,64,31.19,19.39,1008.76,205.60,215.90,3,22.50,"$GNGGA,172924.000,4900.5252,N,00825.4446,E,1,7,6.58,119.1,M,47.9,M,,*47",,,,
2022-02-10T18:29:50+01:00,65,31.19,19.37,1008.76,201.40,211.50,3,22.50,"$GNGGA,172945.000,4900.5236,N,00825.4458,E,1,7,6.58,119.8,M,47.9,M,,*44",,,,
2022-02-10T18:30:11+01:00,66,31.18,19.30,1008.76,195.10,204.90,3,22.50,"$GNGGA,173006.000,4900.5215,N,00825.4437,E,1,7,6.58,121.8,M,47.9,M,,*48",,,,
2022-02-10T18:30:32+01:00,67,31.18,19.36,1008.76,196.70,206.60,3,22.50,"$GNGGA,173027.000,4900.5232,N,00825.4630,E,1,7,6.58,124.0,M,47.9,M,,*46",,,,
2022-02-10T18:30:53+01:00,68,31.17,19.27,1008.75,195.90,205.70,3,22.50,"$GNGGA,173048.000,4900.5242,N,00825.4652,E,1,7,6.58,123.7,M,47.9,M,,*4C",,,,
2022-02-10T18:31:14+01:00,69,31.17,19.18,1008.75,195.50,205.30,3,22.50,"$GNGGA,173109.000,4900.5214,N,00825.4606,E,1,7,6.57,125.3,M,47.9,M,,*47",,,,
2022-02-10T18:31:35+01:00,70,31.16,19.15,1008.74,195.30,205.10,3,22.50,"$GNGGA,173130.000,4900.5238,N,00825.4642,E,1,7,6.57,125.8,M,47.9,M,,*48",,,,
2022-02-10T18:31:56+01:00,71,31.18,19.15,1008.73,196.60,206.50,3,22.50,"$GNGGA,173151.000,4900.5235,N,00825.4754,E,1,7,6.55,122.8,M,47.9,M,,*41",,,,
2022-02-10T18:32:17+01:00,72,31.19,19.10,1008.73,196.90,206.80,3,22.50,"$GNGGA,173212.000,4900.5159,N,00825.4516,E,1,6,4.89,121.3,M,47.9,M,,*42",,,,
2022-02-10T18:32:38+01:00,73,31.19,18.99,1008.72,197.40,207.30,3,22.50,"$GNGGA,173233.000,4900.5119,N,00825.4356,E,1,7,6.53,120.4,M,47.9,M,,*45",,,,
2022-02-10T18:32:59+01:00,74,31.18,19.04,1008.70,194.90,204.70,3,22.50,"$GNGGA,173254.000,4900.5212,N,00825.4439,E,1,7,6.51,124.7,M,47.9,M,,*47",,,,
2022-02-10T18:33:20+01:00,75,31.17,18.77,1008.69,194.90,204.70,3,22.50,"$GNGGA,173315.000,4900.5272,N,00825.4557,E,1,7,6.51,127.0,M,47.9,M,,*48",,,,
2022-02-10T18:33:41+01:00,76,31.15,18.88,1008.69,191.80,201.40,3,22.50,"$GNGGA,173336.000,4900.5231,N,00825.4421,E,1,8,4.37,127.1,M,47.9,M,,*42",,,,
2022-02-10T18:34:02+01:00,77,31.14,19.07,1008.68,194.00,203.80,3,22.50,"$GNGGA,173357.000,4900.5197,N,00825.4486,E,1,7,5.04,129.1,M,47.9,M,,*47",,,,
2022-02-10T18:34:23+01:00,78,31.13,19.07,1008.66,193.80,203.50,3,22.50,"$GNGGA,173418.000,4900.5212,N,00825.4416,E,1,8,4.37,126.4,M,47.9,M,,*48",,,,
2022-02-10T18:34:44+01:00,79,31.12,18.95,1008.66,193.80,203.50,3,22.50,"$GNGGA,173439.000,4900.5226,N,00825.4530,E,1,8,4.36,124.1,M,47.9,M,,*4F",,,,
2022-02-10T18:35:05+01:00,80,31.12,19.07,1008.65,189.00,198.50,3,22.50,"$GNGGA,173500.000,4900.5230,N,00825.4489,E,1,8,4.36,124.4,M,47.9,M,,*45",,,,
2022-02-10T18:35:26+01:00,81,31.11,19.02,1008.64,192.40,202.10,3,22.50,"$GNGGA,173521.000,4900.5261,N,00825.4278,E,1,7,4.97,117.4,M,47.9,M,,*4E",,,,
2022-02-10T18:35:47+01:00,82,31.10,19.02,1008.64,197.90,207.80,3,22.50,"$GNGGA,173542.000,4900.5218,N,00825.4600,E,1,7,4.95,113.4,M,47.9,M,,*48",,,,
2022-02-10T18:36:08+01:00,83,31.09,19.09,1008.63,204.00,214.30,3,22.50,"$GNGGA,173603.000,4900.5206,N,00825.4661,E,1,7,4.03,115.8,M,47.9,M,,*43",,,,
2022-02-10T18:36:29+01:00,84,31.08,19.00,1008.63,198.80,208.80,3,22.50,"$GNGGA,173624.000,4900.5225,N,00825.4544,E,1,7,4.92,115.9,M,47.9,M,,*4A",,,,
2022-02-10T18:36:50+01:00,85,31.08,18.99,1008.61,198.30,208.30,3,22.50,"$GNGGA,173645.000,4900.5241,N,00825.4440,E,1,8,4.34,111.8,M,47.9,M,,*4C",,,,
2022-02-10T18:37:11+01:00,86,31.08,19.09,1008.60,199.50,209.50,3,23.00,"$GNGGA,173706.000,4900.5217,N,00825.4786,E,1,8,4.34,109.9,M,47.9,M,,*48",,,,
2022-02-10T18:37:32+01:00,87,31.07,19.06,1008.58,197.20,207.10,3,23.00,"$GNGGA,173727.000,4900.5216,N,00825.4701,E,1,8,4.33,114.0,M,47.9,M,,*47",,,,
2022-02-10T18:37:53+01:00,88,31.07,18.94,1008.57,195.60,205.40,3,22.50,"$GNGGA,173748.000,4900.5210,N,00825.4635,E,1,8,4.32,110.8,M,47.9,M,,*43",,,,
2022-02-10T18:38:14+01:00,89,31.06,19.18,1008.56,196.80,206.70,3,23.00,"$GNGGA,173809.000,4900.5210,N,00825.4657,E,1,8,4.31,109.5,M,47.9,M,,*4B",,,,
2022-02-10T18:38:35+01:00,90,31.06,19.06,1008.56,199.80,209.80,3,22.50,"$GNGGA,173830.000,4900.5189,N,00825.4731,E,1,8,4.30,112.2,M,47.9,M,,*4F",,,,
2022-02-10T18:38:56+01:00,91,31.07,19.10,1008.55,198.50,208.50,3,23.00,"$GNGGA,173851.000,4900.5180,N,00825.4726,E,1,8,4.30,117.1,M,47.9,M,,*41",,,,
2022-02-10T18:39:17+01:00,92,31.09,19.20,1008.55,198.90,208.90,3,23.00,"$GNGGA,173912.000,4900.5195,N,00825.4616,E,1,8,6.11,117.4,M,47.9,M,,*45",,,,
2022-02-10T18:39:38+01:00,93,31.10,19.06,1008.55,200.60,210.70,3,23.00,"$GNGGA,173933.000,4900.5210,N,00825.4590,E,1,8,4.28,115.1,M,47.9,M,,*4A",,,,
2022-02-10T18:39:59+01:00,94,31.11,18.69,1008.54,195.90,205.70,3,22.50,"$GNGGA,173954.000,4900.5216,N,00825.4689,E,1,8,3.69,115.8,M,47.9,M,,*4D",,,,
2022-02-10T18:40:20+01:00,95,31.12,18.78,1008.54,193.00,202.70,3,22.50,"$GNGGA,174015.000,4900.5221,N,00825.4718,E,1,8,4.26,120.3,M,47.9,M,,*4A",,,,
2022-02-10T18:40:41+01:00,96,31.12,18.74,1008.54,190.00,199.60,3,22.50,"$GNGGA,174036.000,4900.5226,N,00825.4569,E,1,8,3.75,121.0,M,47.9,M,,*4B",,,,
2022-02-10T18:41:02+01:00,97,31.12,18.81,1008.54,192.60,202.30,3,22.50,"$GNGGA,174057.000,4900.5227,N,00825.4603,E,1,8,3.71,123.1,M,47.9,M,,*45",,,,
2022-02-10T18:41:23+01:00,98,31.12,18.78,1008.54,192.80,202.50,3,22.50,"$GNGGA,174118.000,4900.5218,N,00825.4563,E,1,8,3.71,122.2,M,47.9,M,,*44",,,,
2022-02-10T18:41:44+01:00,99,31.12,18.89,1008.54,194.50,204.30,3,23.00,"$GNGGA,174139.000,4900.5227,N,00825.4479,E,1,8,3.71,119.4,M,47.9,M,,*4F",,,,
2022-02-10T18:42:05+01:00,100,31.12,18.86,1008.54,197.60,207.50,3,23.00,"$GNGGA,174200.000,4900.5215,N,00825.4603,E,1,8,3.71,121.2,M,47.9,M,,*45",,,,
2022-02-10T18:42:26+01:00,101,31.13,19.02,1008.53,203.40,213.60,3,23.00,"$GNGGA,174221.000,4900.5214,N,00825.4630,E,1,8,3.71,123.1,M,47.9,M,,*46",,,,
2022-02-10T18:42:47+01:00,102,31.13,18.73,1008.52,200.70,210.80,3,22.50,"$GNGGA,174242.000,4900.5224,N,00825.4442,E,1,8,3.72,122.0,M,47.9,M,,*44",,,,
2022-02-10T18:43:08+01:00,103,31.13,18.87,1008.53,195.20,205.00,3,23.00,"$GNGGA,174303.000,4900.5242,N,00825.4611,E,1,8,3.72,119.9,M,47.9,M,,*45",,,,
2022-02-10T18:43:29+01:00,104,31.13,18.72,1008.53,192.30,202.00,3,22.50,"$GNGGA,174324.000,4900.5230,N,00825.4726,E,1,8,3.72,120.8,M,47.9,M,,*4B",,,,
2022-02-10T18:43:50+01:00,105,31.14,19.02,1008.52,196.40,206.30,3,23.00,"$GNGGA,174345.000,4900.5207,N,00825.4669,E,1,8,3.72,122.9,M,47.9,M,,*41",,,,
2022-02-10T18:44:11+01:00,106,31.14,18.92,1008.53,199.10,209.10,3,23.00,"$GNGGA,174406.000,4900.5220,N,00825.4569,E,1,8,4.14,122.2,M,47.9,M,,*4B",,,,
2022-02-10T18:44:32+01:00,107,31.14,18.95,1008.54,201.10,211.20,3,23.00,"$GNGGA,174427.000,4900.5222,N,00825.4586,E,1,8,4.13,121.5,M,47.9,M,,*48",,,,
2022-02-10T18:44:53+01:00,108,31.14,18.86,1008.54,202.60,212.80,3,23.00,"$GNGGA,174448.000,4900.5205,N,00825.4514,E,1,8,4.12,121.2,M,47.9,M,,*49",,,,
2022-02-10T18:45:14+01:00,109,31.14,18.95,1008.54,203.60,213.80,3,23.00,"$GNGGA,174509.000,4900.5209,N,00825.4545,E,1,8,4.11,118.8,M,47.9,M,,*46",,,,
2022-02-10T18:45:35+01:00,110,31.15,18.91,1008.54,203.70,213.90,3,23.00,"$GNGGA,174530.000,4900.5212,N,00825.4529,E,1,8,4.09,117.5,M,47.9,M,,*47",,,,
2022-02-10T18:45:56+01:00,111,31.16,18.94,1008.54,198.20,208.20,3,23.00,"$GNGGA,174551.000,4900.5264,N,00825.4595,E,1,8,4.08,114.5,M,47.9,M,,*44",,,,
2022-02-10T18:46:17+01:00,112,31.16,18.80,1008.54,194.40,204.20,3,23.00,"$GNGGA,174612.000,4900.5219,N,00825.4710,E,1,8,4.07,112.9,M,47.9,M,,*40",,,,
2022-02-10T18:46:38+01:00,113,31.17,18.78,1008.55,190.00,199.60,3,23.00,"$GNGGA,174633.000,4900.5243,N,00825.4750,E,1,8,4.06,111.3,M,47.9,M,,*40",,,,
2022-02-10T18:46:59+01:00,114,31.18,18.64,1008.55,197.40,207.30,3,22.50,"$GNGGA,174654.000,4900.5237,N,00825.4487,E,1,8,4.04,108.6,M,47.9,M,,*44",,,,
2022-02-10T18:47:20+01:00,115,31.18,18.75,1008.55,197.80,207.70,3,23.00,"$GNGGA,174715.000,4900.5257,N,00825.4823,E,1,8,4.03,107.5,M,47.9,M,,*4F",,,,
2022-02-10T18:47:41+01:00,116,31.17,18.71,1008.56,195.80,205.60,3,22.50,"$GNGGA,174736.000,4900.5269,N,00825.4964,E,1,8,4.01,107.8,M,47.9,M,,*4E",,,,
2022-02-10T18:48:02+01:00,117,31.17,18.64,1008.56,193.30,203.00,3,23.00,"$GNGGA,174757.000,4900.5270,N,00825.4684,E,1,8,4.00,107.2,M,47.9,M,,*4B",,,,
2022-02-10T18:48:23+01:00,118,31.17,18.82,1008.56,197.30,207.20,3,23.00,"$GNGGA,174818.000,4900.5256,N,00825.4704,E,1,8,3.99,104.1,M,47.9,M,,*45",,,,
2022-02-10T18:48:44+01:00,119,31.17,18.63,1008.55,203.10,213.30,3,23.00,"$GNGGA,174839.000,4900.5248,N,00825.4771,E,1,8,3.98,104.9,M,47.9,M,,*42",,,,
2022-02-10T18:49:05+01:00,120,31.17,18.80,1008.57,205.70,216.00,3,23.00,"$GNGGA,174900.000,4900.5262,N,00825.4905,E,1,8,3.96,106.8,M,47.9,M,,*41",,,,
2022-02-10T18:49:26+01:00,121,31.17,18.65,1008.58,206.60,217.00,3,23.00,"$GNGGA,174921.000,4900.5268,N,00825.4598,E,1,8,3.94,105.7,M,47.9,M,,*4E",,,,
2022-02-10T18:49:47+01:00,122,31.18,18.92,1008.59,201.40,211.50,3,23.00,"$GNGGA,174942.000,4900.5265,N,00825.4691,E,1,8,3.68,104.8,M,47.9,M,,*41",,,,
2022-02-10T18:50:08+01:00,123,31.18,18.71,1008.59,198.00,208.00,3,23.00,"$GNGGA,175003.000,4900.5245,N,00825.4906,E,1,8,3.68,106.9,M,47.9,M,,*4C",,,,
2022-02-10T18:50:29+01:00,124,31.19,18.78,1008.59,202.60,212.80,3,23.00,"$GNGGA,175024.000,4900.5237,N,00825.4565,E,1,7,4.07,107.0,M,47.9,M,,*4C",,,,
2022-02-10T18:50:49+01:00,125,31.19,18.63,1008.60,203.60,213.80,3,23.00,"$GNGGA,175044.000,4900.5210,N,00825.4370,E,1,8,3.89,107.5,M,47.9,M,,*46",,,,
2022-02-10T18:51:10+01:00,126,31.20,18.52,1008.61,198.80,208.80,3,23.00,"$GNGGA,175105.000,4900.5232,N,00825.4566,E,1,7,3.79,111.5,M,47.9,M,,*44",,,,
2022-02-10T18:51:31+01:00,127,31.20,18.64,1008.61,189.60,199.10,3,23.00,"$GNGGA,175126.000,4900.5206,N,00825.4617,E,1,7,29.64,111.6,M,47.9,M,,*70",,,,
2022-02-10T18:51:52+01:00,128,31.20,18.55,1008.61,189.40,198.90,3,23.00,"$GNGGA,175147.000,4900.5168,N,00825.4220,E,1,7,3.99,110.7,M,47.9,M,,*46",,,,
2022-02-10T18:52:13+01:00,129,31.20,18.51,1008.62,194.60,204.40,3,23.00,"$GNGGA,175208.000,4900.5245,N,00825.4504,E,1,7,3.97,110.1,M,47.9,M,,*4B",,,,
2022-02-10T18:52:34+01:00,130,31.20,18.46,1008.62,199.90,209.90,3,23.00,"$GNGGA,175229.000,4900.5216,N,00825.4817,E,1,7,3.95,109.9,M,47.9,M,,*43",,,,
2022-02-10T18:52:55+01:00,131,31.20,18.30,1008.62,200.40,210.50,3,22.50,"$GNGGA,175250.000,4900.5242,N,00825.4418,E,1,7,3.93,110.3,M,47.9,M,,*4B",,,,
2022-02-10T18:53:16+01:00,132,31.20,18.32,1008.63,198.60,208.60,3,22.50,"$GNGGA,175311.000,4900.5212,N,00825.4311,E,1,6,4.44,109.6,M,47.9,M,,*45",,,,
2022-02-10T18:53:37+01:00,133,31.20,18.59,1008.63,200.50,210.60,3,23.00,"$GNGGA,175332.000,4900.5257,N,00825.4682,E,1,7,6.52,111.0,M,47.9,M,,*41",,,,
2022-02-10T18:53:58+01:00,134,31.20,18.46,1008.63,208.00,218.50,3,23.00,"$GNGGA,175353.000,4900.5250,N,00825.4826,E,1,7,6.46,112.8,M,47.9,M,,*4F",,,,
2022-02-10T18:54:19+01:00,135,31.20,18.46,1008.63,203.20,213.40,3,23.00,"$GNGGA,175414.000,4900.5246,N,00825.4706,E,1,7,6.41,112.5,M,47.9,M,,*4B",,,,
2022-02-10T18:54:40+01:00,136,31.20,18.38,1008.63,199.60,209.60,3,22.50,"$GNGGA,175435.000,4900.5225,N,00825.4397,E,1,7,6.36,112.8,M,47.9,M,,*4C",,,,
2022-02-10T18:55:01+01:00,137,31.19,18.40,1008.63,192.70,202.40,3,22.50,"$GNGGA,175456.000,4900.5256,N,00825.4669,E,1,7,4.21,113.3,M,47.9,M,,*47",,,,
2022-02-10T18:55:22+01:00,138,31.19,18.54,1008.62,191.70,201.30,3,23.00,"$GNGGA,175517.000,4900.5256,N,00825.4702,E,1,7,6.25,112.7,M,47.9,M,,*4C",,,,
2022-02-10T18:55:43+01:00,139,31.19,18.66,1008.63,190.10,199.70,3,23.00,"$GNGGA,175538.000,4900.5238,N,00825.4253,E,1,7,6.20,111.9,M,47.9,M,,*40",,,,
2022-02-10T18:56:04+01:00,140,31.19,18.44,1008.63,191.00,200.60,3,23.00,"$GNGGA,175559.000,4900.5254,N,00825.4353,E,1,7,6.15,112.7,M,47.9,M,,*47",,,,
2022-02-10T18:56:25+01:00,141,31.20,18.64,1008.63,191.20,200.80,3,23.00,"$GNGGA,175620.000,4900.5270,N,00825.4342,E,1,6,4.33,113.3,M,47.9,M,,*4E",,,,
2022-02-10T18:56:46+01:00,142,31.20,18.55,1008.63,191.40,201.00,3,23.00,"$GNGGA,175641.000,4900.5239,N,00825.4112,E,1,7,6.05,113.7,M,47.9,M,,*41",,,,
2022-02-10T18:57:07+01:00,143,31.21,18.52,1008.62,193.10,202.80,3,23.00,"$GNGGA,175702.000,4900.5241,N,00825.4266,E,1,7,4.17,117.0,M,47.9,M,,*4A",,,,
2022-02-10T18:57:28+01:00,144,31.21,18.50,1008.63,193.80,203.50,3,23.00,"$GNGGA,175723.000,4900.5279,N,00825.4634,E,1,7,5.95,119.8,M,47.9,M,,*4C",,,,
2022-02-10T18:57:49+01:00,145,31.21,18.49,1008.63,193.10,202.80,3,23.00,"$GNGGA,175744.000,4900.5229,N,00825.4542,E,1,7,4.16,120.7,M,47.9,M,,*45",,,,
2022-02-10T18:58:10+01:00,146,31.21,18.33,1008.63,191.10,200.70,3,23.00,"$GNGGA,175805.000,4900.5223,N,00825.4495,E,1,7,4.15,120.0,M,47.9,M,,*4A",,,,
2022-02-10T18:58:31+01:00,147,31.21,18.32,1008.63,190.50,200.10,3,23.00,"$GNGGA,175826.000,4900.5215,N,00825.4554,E,1,7,5.80,120.2,M,47.9,M,,*4D",,,,
2022-02-10T18:58:52+01:00,148,31.20,18.12,1008.65,188.70,198.20,3,22.50,"$GNGGA,175847.000,4900.5206,N,00825.4629,E,1,7,5.75,119.9,M,47.9,M,,*4A",,,,
2022-02-10T18:59:13+01:00,149,31.19,18.20,1008.64,187.80,197.20,3,22.50,"$GNGGA,175908.000,4900.5210,N,00825.4614,E,1,7,5.71,119.1,M,47.9,M,,*45",,,,
2022-02-10T18:59:34+01:00,150,31.18,18.34,1008.64,189.10,198.60,3,23.00,"$GNGGA,175929.000,4900.5215,N,00825.4576,E,1,7,5.66,118.3,M,47.9,M,,*41",,,,
2022-02-10T18:59:55+01:00,151,31.18,18.36,1008.63,188.40,197.90,3,23.00,"$GNGGA,175950.000,4900.5207,N,00825.4715,E,1,7,5.61,118.9,M,47.9,M,,*46",,,,
2022-02-10T19:00:16+01:00,152,31.18,18.50,1008.63,192.30,202.00,3,23.00,"$GNGGA,180011.000,4900.5192,N,00825.4629,E,1,7,4.09,120.3,M,47.9,M,,*4F",,,,
2022-02-10T19:00:37+01:00,153,31.17,18.26,1008.62,197.80,207.70,3,23.00,"$GNGGA,180032.000,4900.5203,N,00825.4538,E,1,7,4.08,118.5,M,47.9,M,,*4A",,,,
2022-02-10T19:00:58+01:00,154,31.17,18.30,1008.62,204.00,214.30,3,23.00,"$GNGGA,180053.000,4900.5209,N,00825.4569,E,1,7,4.07,117.6,M,47.9,M,,*40",,,,
2022-02-10T19:01:19+01:00,155,31.16,18.27,1008.62,200.30,210.40,3,23.00,"$GNGGA,180114.000,4900.5221,N,00825.4742,E,1,7,4.07,117.4,M,47.9,M,,*41",,,,
2022-02-10T19:01:40+01:00,156,31.16,18.38,1008.62,194.60,204.40,3,23.00,"$GNGGA,180135.000,4900.5227,N,00825.4561,E,1,7,4.05,117.0,M,47.9,M,,*41",,,,
2022-02-10T19:02:01+01:00,157,31.16,18.39,1008.62,193.50,203.20,3,23.00,"$GNGGA,180156.000,4900.5227,N,00825.4553,E,1,6,4.10,115.4,M,47.9,M,,*46",,,,
2022-02-10T19:02:22+01:00,158,31.17,18.34,1008.62,192.60,202.30,3,23.00,"$GNGGA,180217.000,4900.5141,N,00825.4434,E,1,6,4.09,113.5,M,47.9,M,,*4C",,,,
2022-02-10T19:02:43+01:00,159,31.17,18.27,1008.62,191.40,201.00,3,23.00,"$GNGGA,180238.000,4900.5175,N,00825.4344,E,1,6,4.08,112.5,M,47.9,M,,*46",,,,
2022-02-10T19:03:04+01:00,160,31.17,18.23,1008.62,187.30,196.70,3,23.00,"$GNGGA,180259.000,4900.5197,N,00825.4359,E,1,6,5.42,110.9,M,47.9,M,,*40",,,,
2022-02-10T19:03:25+01:00,161,31.17,18.26,1008.62,188.60,198.10,3,23.00,"$GNGGA,180320.000,4900.5219,N,00825.4464,E,1,6,4.05,109.8,M,47.9,M,,*48",,,,
2022-02-10T19:03:46+01:00,162,31.17,18.38,1008.62,191.30,200.90,3,23.00,"$GNGGA,180341.000,4900.5244,N,00825.4435,E,1,6,5.31,108.4,M,47.9,M,,*48",,,,
2022-02-10T19:04:07+01:00,163,31.17,18.26,1008.62,191.80,201.40,3,23.00,"$GNGGA,180402.000,4900.5238,N,00825.4536,E,1,6,4.02,108.4,M,47.9,M,,*40",,,,
2022-02-10T19:04:28+01:00,164,31.17,18.18,1008.62,189.20,198.70,3,23.00,"$GNGGA,180423.000,4900.5243,N,00825.4572,E,1,6,5.21,107.9,M,47.9,M,,*4D",,,,
2022-02-10T19:04:49+01:00,165,31.17,18.29,1008.62,185.80,195.10,3,23.00,"$GNGGA,180444.000,4900.5223,N,00825.4546,E,1,6,3.99,107.3,M,47.9,M,,*42",,,,
2022-02-10T19:05:10+01:00,166,31.17,18.17,1008.63,186.80,196.20,3,23.00,"$GNGGA,180505.000,4900.5209,N,00825.4489,E,1,6,5.12,106.7,M,47.9,M,,*4C",,,,
2022-02-10T19:05:31+01:00,167,31.17,18.11,1008.62,192.00,201.70,3,23.00,"$GNGGA,180526.000,4900.5242,N,00825.4606,E,1,6,3.96,106.7,M,47.9,M,,*4D",,,,
2022-02-10T19:05:52+01:00,168,31.16,18.19,1008.62,197.30,207.20,3,23.00,"$GNGGA,180547.000,4900.5204,N,00825.4674,E,1,6,3.94,106.6,M,47.9,M,,*4E",,,,
2022-02-10T19:06:13+01:00,169,31.15,18.28,1008.62,199.40,209.40,3,23.00,"$GNGGA,180608.000,4900.5271,N,00825.4874,E,1,6,3.93,106.3,M,47.9,M,,*48",,,,
2022-02-10T19:06:34+01:00,170,31.14,18.18,1008.62,201.30,211.40,3,23.00,"$GNGGA,180629.000,4900.5194,N,00825.4486,E,1,6,3.91,105.2,M,47.9,M,,*42",,,,
2022-02-10T19:06:55+01:00,171,31.14,18.48,1008.61,205.90,216.20,3,23.50,"$GNGGA,180650.000,4900.5224,N,00825.4513,E,1,6,3.90,103.8,M,47.9,M,,*44",,,,
2022-02-10T19:07:16+01:00,172,31.13,18.40,1008.62,204.70,215.00,3,23.00,"$GNGGA,180711.000,4900.5222,N,00825.4832,E,1,6,3.88,103.6,M,47.9,M,,*4F",,,,
2022-02-10T19:07:37+01:00,173,31.13,18.45,1008.62,201.20,211.30,3,23.00,"$GNGGA,180732.000,4900.5167,N,00825.4229,E,1,6,3.87,105.0,M,47.9,M,,*43",,,,
2022-02-10T19:07:58+01:00,174,31.13,18.22,1008.62,197.70,207.60,3,23.00,"$GNGGA,180753.000,4900.5143,N,00825.4129,E,1,6,3.85,103.9,M,47.9,M,,*4C",,,,
2022-02-10T19:08:19+01:00,175,31.13,18.37,1008.62,197.60,207.50,3,23.00,"$GNGGA,180814.000,4900.5204,N,00825.4496,E,1,6,3.84,102.0,M,47.9,M,,*48",,,,
2022-02-10T19:08:40+01:00,176,31.12,18.21,1008.62,196.40,206.30,3,23.00,"$GNGGA,180835.000,4900.5208,N,00825.4598,E,1,6,3.83,101.3,M,47.9,M,,*4F",,,,
2022-02-10T19:09:01+01:00,177,31.11,18.14,1008.62,196.60,206.50,3,22.50,"$GNGGA,180856.000,4900.5206,N,00825.4419,E,1,6,3.81,101.9,M,47.9,M,,*44",,,,
2022-02-10T19:09:22+01:00,178,31.10,18.03,1008.61,193.90,203.60,3,22.50,"$GNGGA,180917.000,4900.5201,N,00825.4481,E,1,6,3.80,102.5,M,47.9,M,,*48",,,,
2022-02-10T19:09:43+01:00,179,31.09,18.12,1008.59,189.70,199.20,3,22.50,"$GNGGA,180938.000,4900.5215,N,00825.4827,E,1,6,3.88,100.9,M,47.9,M,,*46",,,,
2022-02-10T19:10:04+01:00,180,31.08,18.22,1008.59,183.20,192.40,3,22.50,"$GNGGA,180959.000,4900.5222,N,00825.4640,E,1,6,3.77,99.7,M,47.9,M,,*75",,,,
2022-02-10T19:10:25+01:00,181,31.08,18.27,1008.58,183.90,193.10,3,23.00,"$GNGGA,181020.000,4900.5197,N,00825.4564,E,1,6,3.75,100.3,M,47.9,M,,*4C",,,,
2022-02-10T19:10:46+01:00,182,31.07,18.21,1008.57,191.30,200.90,3,23.00,"$GNGGA,181041.000,4900.5211,N,00825.4636,E,1,6,3.74,100.1,M,47.9,M,,*41",,,,
2022-02-10T19:11:07+01:00,183,31.06,18.05,1008.56,197.00,206.90,3,22.50,"$GNGGA,181102.000,4900.5209,N,00825.4621,E,1,6,3.72,97.6,M,47.9,M,,*76",,,,
2022-02-10T19:11:28+01:00,184,31.04,18.00,1008.56,200.00,210.10,3,22.50,"$GNGGA,181123.000,4900.5194,N,00825.4478,E,1,6,3.71,98.0,M,47.9,M,,*76",,,,
2022-02-10T19:11:49+01:00,185,31.03,18.09,1008.55,197.00,206.90,3,22.50,"$GNGGA,181144.000,4900.5212,N,00825.4559,E,1,6,3.70,98.5,M,47.9,M,,*7C",,,,
2022-02-10T19:12:10+01:00,186,31.03,18.08,1008.56,197.50,207.40,3,22.50,"$GNGGA,181205.000,4900.5218,N,00825.4792,E,1,6,3.68,95.7,M,47.9,M,,*73",,,,
2022-02-10T19:12:31+01:00,187,31.02,17.90,1008.57,194.70,204.50,3,22.50,"$GNGGA,181226.000,4900.5215,N,00825.4601,E,1,6,3.67,95.4,M,47.9,M,,*78",,,,
2022-02-10T19:12:51+01:00,188,31.02,17.87,1008.57,193.10,202.80,3,22.50,"$GNGGA,181246.000,4900.5198,N,00825.4559,E,1,6,3.66,94.2,M,47.9,M,,*70",,,,
2022-02-10T19:13:12+01:00,189,31.01,18.02,1008.57,190.50,200.10,3,22.50,"$GNGGA,181307.000,4900.5180,N,00825.4599,E,1,6,3.64,92.9,M,47.9,M,,*7E",,,,
2022-02-10T19:13:33+01:00,190,31.00,17.99,1008.57,192.10,201.80,3,22.50,"$GNGGA,181328.000,4900.5187,N,00825.4688,E,1,6,3.63,89.8,M,47.9,M,,*7B",,,,
2022-02-10T19:13:53+01:00,191,30.99,17.87,1008.57,196.40,206.30,3,22.50,"$GNGGA,181348.000,4900.5176,N,00825.4494,E,1,6,3.62,88.3,M,47.9,M,,*77",,,,
2022-02-10T19:14:14+01:00,192,30.99,17.75,1008.58,198.90,208.90,3,22.50,"$GNGGA,181409.000,4900.5192,N,00825.4555,E,1,6,3.60,87.3,M,47.9,M,,*7E",,,,
2022-02-10T19:14:35+01:00,193,30.98,18.09,1008.57,197.00,206.90,3,23.00,"$GNGGA,181430.000,4900.5184,N,00825.4745,E,1,6,3.59,85.6,M,47.9,M,,*7D",,,,
2022-02-10T19:14:56+01:00,194,30.98,18.01,1008.57,193.10,202.80,3,23.00,"$GNGGA,181451.000,4900.5192,N,00825.4627,E,1,6,3.58,84.3,M,47.9,M,,*7D",,,,
2022-02-10T19:15:17+01:00,195,30.98,17.99,1008.55,192.90,202.60,3,22.50,"$GNGGA,181512.000,4900.5201,N,00825.4555,E,1,6,3.57,82.7,M,47.9,M,,*79",,,,
2022-02-10T19:15:38+01:00,196,30.98,17.94,1008.54,191.80,201.40,3,22.50,"$GNGGA,181533.000,4900.5202,N,00825.4742,E,1,6,3.55,81.6,M,47.9,M,,*7D",,,,
2022-02-10T19:15:59+01:00,197,30.98,18.00,1008.54,190.50,200.10,3,23.00,"$GNGGA,181554.000,4900.5204,N,00825.4840,E,1,6,3.54,80.8,M,47.9,M,,*79",,,,
2022-02-10T19:16:20+01:00,198,30.98,17.94,1008.54,189.90,199.40,3,22.50,"$GNGGA,181615.000,4900.5201,N,00825.4664,E,1,6,3.53,79.3,M,47.9,M,,*78",,,,
2022-02-10T19:16:41+01:00,199,30.98,17.95,1008.52,190.30,199.90,3,22.50,"$GNGGA,181636.000,4900.5200,N,00825.4677,E,1,6,3.52,77.4,M,47.9,M,,*72",,,,
2022-02-10T19:17:02+01:00,200,30.98,17.92,1008.51,187.90,197.30,3,22.50,"$GNGGA,181657.000,4900.5176,N,00825.4639,E,1,6,3.50,76.8,M,47.9,M,,*72",,,,
2022-02-10T19:17:23+01:00,201,30.98,17.96,1008.50,187.60,197.00,3,22.50,"$GNGGA,181718.000,4900.5184,N,00825.4660,E,1,6,3.49,77.1,M,47.9,M,,*79",,,,
2022-02-10T19:17:44+01:00,202,30.98,17.89,1008.50,186.00,195.40,3,22.50,"$GNGGA,181739.000,4900.5181,N,00825.4638,E,1,6,3.48,75.4,M,47.9,M,,*74",,,,
2022-02-10T19:18:05+01:00,203,30.97,17.77,1008.50,187.70,197.10,3,22.50,"$GNGGA,181800.000,4900.5175,N,00825.4705,E,1,6,3.47,72.6,M,47.9,M,,*7F",,,,
2022-02-10T19:18:26+01:00,204,30.96,17.71,1008.51,187.40,196.80,3,22.50,"$GNGGA,181821.000,4900.5153,N,00825.4600,E,1,6,3.46,74.1,M,47.9,M,,*7C",,,,
2022-02-10T19:18:47+01:00,205,30.95,17.83,1008.50,188.60,198.10,3,22.50,"$GNGGA,181842.000,4900.5152,N,00825.4476,E,1,6,3.45,73.4,M,47.9,M,,*7A",,,,
2022-02-10T19:19:08+01:00,206,30.93,17.75,1008.50,190.30,199.90,3,22.50,"$GNGGA,181903.000,4900.5170,N,00825.4616,E,1,6,3.43,71.3,M,47.9,M,,*79",,,,
2022-02-10T19:19:29+01:00,207,30.92,17.88,1008.50,193.80,203.50,3,22.50,"$GNGGA,181924.000,4900.5174,N,00825.4524,E,1,6,3.42,72.0,M,47.9,M,,*7B",,,,
2022-02-10T19:19:50+01:00,208,30.92,17.82,1008.50,196.00,205.90,3,22.50,"$GNGGA,181945.000,4900.5176,N,00825.4486,E,1,6,3.41,72.6,M,47.9,M,,*72",,,,
2022-02-10T19:20:11+01:00,209,30.91,17.66,1008.50,194.40,204.20,3,22.50,"$GNGGA,182006.000,4900.5184,N,00825.4613,E,1,6,3.40,70.2,M,47.9,M,,*7B",,,,
2022-02-10T19:20:32+01:00,210,30.90,17.56,1008.51,192.40,202.10,3,22.00,"$GNGGA,182027.000,4900.5174,N,00825.4683,E,1,6,3.39,67.0,M,47.9,M,,*74",,,,
2022-02-10T19:20:53+01:00,211,30.88,17.68,1008.51,193.70,203.40,3,22.00,"$GNGGA,182048.000,4900.5178,N,00825.4566,E,1,6,3.38,66.8,M,47.9,M,,*71",,,,
2022-02-10T19:21:14+01:00,212,30.87,17.77,1008.51,194.90,204.70,3,22.50,"$GNGGA,182109.000,4900.5176,N,00825.4503,E,1,6,3.37,67.6,M,47.9,M,,*78",,,,
2022-02-10T19:21:35+01:00,213,30.87,17.88,1008.52,196.50,206.40,3,22.50,"$GNGGA,182130.000,4900.5208,N,00825.4706,E,1,6,3.36,66.2,M,47.9,M,,*7B",,,,
2022-02-10T19:21:56+01:00,214,30.87,17.85,1008.51,194.70,204.50,3,22.50,"$GNGGA,182151.000,4900.5201,N,00825.4560,E,1,6,3.35,66.7,M,47.9,M,,*71",,,,
2022-02-10T19:22:17+01:00,215,30.87,17.74,1008.52,192.20,201.90,3,22.50,"$GNGGA,182212.000,4900.5173,N,00825.4552,E,1,6,3.34,66.7,M,47.9,M,,*73",,,,
2022-02-10T19:22:38+01:00,216,30.86,17.82,1008.53,188.20,197.70,3,22.50,"$GNGGA,182233.000,4900.5171,N,00825.4585,E,1,6,3.33,66.2,M,47.9,M,,*7A",,,,
2022-02-10T19:22:59+01:00,217,30.85,17.57,1008.53,187.30,196.70,3,22.00,"$GNGGA,182254.000,4900.5176,N,00825.4683,E,2,6,3.32,64.4,M,47.9,M,,*7F",,,,
2022-02-10T19:23:20+01:00,218,30.84,17.66,1008.53,188.90,198.40,3,22.50,"$GNGGA,182315.000,4900.5182,N,00825.4517,E,2,6,3.31,64.2,M,47.9,M,,*7B",,,,
2022-02-10T19:23:41+01:00,219,30.83,17.86,1008.54,190.50,200.10,3,22.50,"$GNGGA,182336.000,4900.5170,N,00825.4497,E,2,6,3.30,63.4,M,47.9,M,,*7E",,,,
2022-02-10T19:24:02+01:00,220,30.83,17.76,1008.55,189.50,199.00,3,22.50,"$GNGGA,182357.000,4900.5169,N,00825.4507,E,2,6,3.29,62.0,M,47.9,M,,*74",,,,
2022-02-10T19:24:23+01:00,221,30.83,17.83,1008.56,187.10,196.50,3,22.50,"$GNGGA,182418.000,4900.5174,N,00825.4496,E,2,6,3.28,61.1,M,47.9,M,,*7E",,,,
2022-02-10T19:24:44+01:00,222,30.82,17.77,1008.56,187.20,196.60,3,22.50,"$GNGGA,182439.000,4900.5176,N,00825.4513,E,2,6,3.27,61.0,M,47.9,M,,*7D",,,,
2022-02-10T19:25:05+01:00,223,30.82,17.72,1008.58,187.60,197.00,3,22.50,"$GNGGA,182500.000,4900.5174,N,00825.4477,E,2,6,3.26,60.9,M,47.9,M,,*7E",,,,
2022-02-10T19:25:26+01:00,224,30.82,17.78,1008.59,187.90,197.30,3,22.50,"$GNGGA,182521.000,4900.5167,N,00825.4452,E,2,6,3.25,59.9,M,47.9,M,,*71",,,,
2022-02-10T19:25:47+01:00,225,30.82,17.68,1008.59,187.50,196.90,3,22.50,"$GNGGA,182542.000,4900.5156,N,00825.4405,E,2,6,3.24,60.4,M,47.9,M,,*72",,,,
2022-02-10T19:26:08+01:00,226,30.82,17.74,1008.61,186.80,196.20,3,22.50,"$GNGGA,182603.000,4900.5148,N,00825.4405,E,2,6,3.23,60.0,M,47.9,M,,*78",,,,
2022-02-10T19:26:29+01:00,227,30.81,17.57,1008.61,187.80,197.20,3,22.00,"$GNGGA,182624.000,4900.5168,N,00825.4543,E,2,6,3.22,59.2,M,47.9,M,,*75",,,,
2022-02-10T19:26:50+01:00,228,30.80,17.47,1008.61,187.40,196.80,3,22.00,"$GNGGA,182645.000,4900.5181,N,00825.4538,E,2,6,3.21,60.0,M,47.9,M,,*72",,,,
2022-02-10T19:27:11+01:00,229,30.78,17.56,1008.61,185.70,195.00,3,22.00,"$GNGGA,182706.000,4900.5165,N,00825.4402,E,2,6,3.21,60.3,M,47.9,M,,*75",,,,
2022-02-10T19:27:32+01:00,230,30.77,17.60,1008.60,185.60,194.90,3,22.00,"$GNGGA,182727.000,4900.5154,N,00825.4309,E,2,6,3.20,60.0,M,47.9,M,,*7A",,,,
2022-02-10T19:27:53+01:00,231,30.76,17.71,1008.61,186.00,195.40,3,22.50,"$GNGGA,182748.000,4900.5141,N,00825.4282,E,2,6,3.19,60.3,M,47.9,M,,*7C",,,,
2022-02-10T19:28:14+01:00,232,30.75,17.68,1008.61,187.00,196.40,3,22.50,"$GNGGA,182809.000,4900.5153,N,00825.4349,E,2,6,3.18,59.8,M,47.9,M,,*73",,,,
2022-02-10T19:28:35+01:00,233,30.75,17.63,1008.61,186.40,195.80,3,22.50,"$GNGGA,182830.000,4900.5156,N,00825.4303,E,2,6,3.17,59.5,M,47.9,M,,*70",,,,
2022-02-10T19:28:56+01:00,234,30.74,17.62,1008.61,184.90,194.20,3,22.50,"$GNGGA,182851.000,4900.5141,N,00825.4245,E,2,6,3.16,59.8,M,47.9,M,,*7E",,,,
2022-02-10T19:29:17+01:00,235,30.74,17.70,1008.62,185.20,194.50,3,22.50,"$GNGGA,182912.000,4900.5161,N,00825.4380,E,2,6,3.16,59.1,M,47.9,M,,*7B",,,,
2022-02-10T19:29:38+01:00,236,30.74,17.74,1008.63,187.80,197.20,3,22.50,"$GNGGA,182933.000,4900.5165,N,00825.4347,E,2,6,3.15,59.3,M,47.9,M,,*76",,,,
2022-02-10T19:29:59+01:00,237,30.74,17.88,1008.64,189.20,198.70,3,22.50,"$GNGGA,182954.000,4900.5172,N,00825.4403,E,2,6,3.14,59.5,M,47.9,M,,*71",,,,
2022-02-10T19:30:20+01:00,238,30.74,17.57,1008.64,188.10,197.60,3,22.50,"$GNGGA,183015.000,4900.5198,N,00825.4389,E,2,6,3.13,67.1,M,47.9,M,,*73",,,,
2022-02-10T19:30:41+01:00,239,30.74,17.71,1008.64,182.50,191.70,3,22.50,"$GNGGA,183036.000,4900.5194,N,00825.4362,E,2,6,3.13,68.2,M,47.9,M,,*77",,,,
2022-02-10T19:31:02+01:00,240,30.74,17.61,1008.65,186.00,195.40,3,22.50,"$GNGGA,183057.000,4900.5217,N,00825.4493,E,2,6,3.12,68.6,M,47.9,M,,*74",,,,
2022-02-10T19:31:23+01:00,241,30.73,17.59,1008.65,192.70,202.40,3,22.50,"$GNGGA,183118.000,4900.5235,N,00825.4378,E,2,7,2.51,97.6,M,47.9,M,,*7B",,,,
2022-02-10T19:31:44+01:00,242,30.73,17.68,1008.65,196.30,206.20,3,22.50,"$GNGGA,183139.000,4900.5255,N,00825.4450,E,2,7,2.51,98.7,M,47.9,M,,*7D",,,,
2022-02-10T19:32:05+01:00,243,30.72,17.67,1008.66,192.60,202.30,3,22.50,"$GNGGA,183200.000,4900.5264,N,00825.4459,E,2,7,2.51,100.2,M,47.9,M,,*4A",,,,
2022-02-10T19:32:26+01:00,244,30.71,17.57,1008.67,191.20,200.80,3,22.50,"$GNGGA,183221.000,4900.5240,N,00825.4361,E,2,6,3.09,100.3,M,47.9,M,,*4F",,,,
2022-02-10T19:32:47+01:00,245,30.70,17.56,1008.67,191.00,200.60,3,22.00,"$GNGGA,183242.000,4900.5264,N,00825.4388,E,2,7,2.51,98.2,M,47.9,M,,*77",,,,
2022-02-10T19:33:08+01:00,246,30.68,17.45,1008.67,189.10,198.60,3,22.00,"$GNGGA,183303.000,4900.5192,N,00825.4444,E,2,7,2.51,97.8,M,47.9,M,,*7B",,,,
2022-02-10T19:33:29+01:00,247,30.67,17.55,1008.67,187.80,197.20,3,22.00,"$GNGGA,183324.000,4900.5204,N,00825.4508,E,2,7,2.51,103.8,M,47.9,M,,*47",,,,
2022-02-10T19:33:50+01:00,248,30.65,17.49,1008.67,189.20,198.70,3,22.00,"$GNGGA,183345.000,4900.5254,N,00825.4544,E,2,7,2.81,112.2,M,47.9,M,,*4A",,,,
2022-02-10T19:34:11+01:00,249,30.64,17.55,1008.67,193.00,202.70,3,22.00,"$GNGGA,183406.000,4900.5260,N,00825.4504,E,2,7,2.51,119.4,M,47.9,M,,*49",,,,
2022-02-10T19:34:32+01:00,250,30.63,17.56,1008.67,193.80,203.50,3,22.00,"$GNGGA,183427.000,4900.5260,N,00825.4466,E,2,7,2.51,123.1,M,47.9,M,,*43",,,,
2022-02-10T19:34:53+01:00,251,30.62,17.56,1008.67,194.60,204.40,3,22.00,"$GNGGA,183448.000,4900.5269,N,00825.4577,E,2,7,2.52,123.0,M,47.9,M,,*40",,,,
2022-02-10T19:35:14+01:00,252,30.60,17.51,1008.67,187.70,197.10,3,22.00,"$GNGGA,183509.000,4900.5293,N,00825.4573,E,2,7,2.83,126.0,M,47.9,M,,*4C",,,,
2022-02-10T19:35:35+01:00,253,30.58,17.43,1008.67,184.70,194.00,3,22.00,"$GNGGA,183530.000,4900.5314,N,00825.4738,E,2,7,2.83,130.0,M,47.9,M,,*42",,,,
2022-02-10T19:35:56+01:00,254,30.57,17.50,1008.67,182.00,191.20,3,22.00,"$GNGGA,183551.000,4900.5311,N,00825.4640,E,2,7,2.52,134.8,M,47.9,M,,*4E",,,,
2022-02-10T19:36:17+01:00,255,30.56,17.61,1008.67,184.40,193.70,3,22.00,"$GNGGA,183612.000,4900.5323,N,00825.4639,E,2,7,2.52,135.6,M,47.9,M,,*4A",,,,
2022-02-10T19:36:38+01:00,256,30.55,17.67,1008.67,183.90,193.10,3,22.50,"$GNGGA,183633.000,4900.5321,N,00825.4622,E,2,7,2.52,134.0,M,47.9,M,,*46",,,,
2022-02-10T19:36:59+01:00,257,30.54,17.60,1008.67,181.20,190.30,3,22.50,"$GNGGA,183654.000,4900.5313,N,00825.4596,E,2,7,2.84,133.5,M,47.9,M,,*43",,,,
2022-02-10T19:37:20+01:00,258,30.52,17.56,1008.66,180.20,189.30,3,22.00,"$GNGGA,183715.000,4900.5264,N,00825.4632,E,2,7,2.52,131.9,M,47.9,M,,*4E",,,,
2022-02-10T19:37:41+01:00,259,30.50,17.53,1008.65,183.70,192.90,3,22.00,"$GNGGA,183736.000,4900.5285,N,00825.4606,E,2,7,2.52,131.9,M,47.9,M,,*47",,,,
2022-02-10T19:38:02+01:00,260,30.50,17.64,1008.63,190.60,200.20,3,22.50,"$GNGGA,183757.000,4900.5239,N,00825.4449,E,2,7,2.86,130.3,M,47.9,M,,*4C",,,,
2022-02-10T19:38:23+01:00,261,30.49,17.74,1008.62,192.00,201.70,3,22.00,"$GNGGA,183818.000,4900.5237,N,00825.4478,E,2,7,2.53,130.4,M,47.9,M,,*4B",,,,
2022-02-10T19:38:44+01:00,262,30.49,17.85,1008.62,186.70,196.10,3,22.50,"$GNGGA,183839.000,4900.5263,N,00825.4485,E,2,7,2.53,129.9,M,47.9,M,,*4E",,,,
2022-02-10T19:39:05+01:00,263,30.49,17.74,1008.63,178.90,187.90,3,22.00,"$GNGGA,183900.000,4900.5282,N,00825.4502,E,2,7,2.53,127.9,M,47.9,M,,*4A",,,,
2022-02-10T19:39:26+01:00,264,30.50,17.62,1008.62,177.80,186.70,3,22.00,"$GNGGA,183921.000,4900.5260,N,00825.4484,E,2,7,2.88,129.5,M,47.9,M,,*4E",,,,
2022-02-10T19:39:47+01:00,265,30.50,17.67,1008.62,178.90,187.90,3,22.50,"$GNGGA,183942.000,4900.5299,N,00825.4555,E,2,7,2.88,131.6,M,47.9,M,,*4A",,,,
2022-02-10T19:40:08+01:00,266,30.49,17.70,1008.62,181.40,190.50,3,22.00,"$GNGGA,184003.000,4900.5282,N,00825.4591,E,2,7,2.53,128.4,M,47.9,M,,*4F",,,,
2022-02-10T19:40:29+01:00,267,30.49,17.69,1008.62,181.00,190.10,3,22.00,"$GNGGA,184024.000,4900.5204,N,00825.4550,E,2,7,2.54,126.4,M,47.9,M,,*40",,,,
2022-02-10T19:40:50+01:00,268,30.48,17.66,1008.62,180.90,190.00,3,22.00,"$GNGGA,184045.000,4900.5174,N,00825.4429,E,2,7,2.54,127.0,M,47.9,M,,*49",,,,
2022-02-10T19:41:11+01:00,269,30.47,17.55,1008.62,179.80,188.80,3,22.00,"$GNGGA,184106.000,4900.5254,N,00825.4582,E,2,7,2.90,130.6,M,47.9,M,,*46",,,,
2022-02-10T19:41:32+01:00,270,30.47,17.56,1008.63,179.50,188.50,3,22.00,"$GNGGA,184127.000,4900.5267,N,00825.4667,E,2,7,2.54,129.5,M,47.9,M,,*4E",,,,
2022-02-10T19:41:53+01:00,271,30.46,17.68,1008.63,179.20,188.20,3,22.00,"$GNGGA,184148.000,4900.5204,N,00825.4579,E,2,7,2.54,125.4,M,47.9,M,,*43",,,,
2022-02-10T19:42:14+01:00,272,30.45,17.64,1008.64,178.40,187.40,3,22.00,"$GNGGA,184209.000,4900.5219,N,00825.4526,E,2,7,2.54,120.7,M,47.9,M,,*45",,,,
2022-02-10T19:42:35+01:00,273,30.45,17.75,1008.63,183.90,193.10,3,22.50,"$GNGGA,184230.000,4900.5147,N,00825.4363,E,2,7,2.55,120.6,M,47.9,M,,*40",,,,
2022-02-10T19:42:56+01:00,274,30.45,17.80,1008.63,188.90,198.40,3,22.50,"$GNGGA,184251.000,4900.5260,N,00825.4526,E,2,7,2.55,132.2,M,47.9,M,,*41",,,,
2022-02-10T19:43:17+01:00,275,30.46,17.73,1008.63,190.40,200.00,3,22.50,"$GNGGA,184312.000,4900.5281,N,00825.4658,E,2,7,2.55,131.1,M,47.9,M,,*42",,,,
2022-02-10T19:43:38+01:00,276,30.46,17.50,1008.63,184.20,193.50,3,22.00,"$GNGGA,184333.000,4900.5289,N,00825.4685,E,2,7,2.95,128.3,M,47.9,M,,*4F",,,,
2022-02-10T19:43:59+01:00,277,30.45,17.51,1008.62,180.10,189.20,3,22.00,"$GNGGA,184354.000,4900.5274,N,00825.4533,E,2,7,2.55,130.4,M,47.9,M,,*40",,,,
2022-02-10T19:44:20+01:00,278,30.44,17.54,1008.62,181.90,191.00,3,22.00,"$GNGGA,184415.000,4900.5274,N,00825.4543,E,2,7,2.96,129.5,M,47.9,M,,*43",,,,
2022-02-10T19:44:41+01:00,279,30.44,17.67,1008.63,185.50,194.80,3,22.50,"$GNGGA,184436.000,4900.5283,N,00825.4632,E,2,7,2.96,125.8,M,47.9,M,,*4E",,,,
2022-02-10T19:45:02+01:00,280,30.43,17.64,1008.64,190.60,200.20,3,22.00,"$GNGGA,184457.000,4900.5303,N,00825.4658,E,2,7,2.56,123.7,M,47.9,M,,*49",,,,
2022-02-10T19:45:23+01:00,281,30.43,17.47,1008.64,192.20,201.90,3,22.00,"$GNGGA,184518.000,4900.5288,N,00825.4646,E,2,7,2.56,126.1,M,47.9,M,,*4D",,,,
2022-02-10T19:45:44+01:00,282,30.42,17.44,1008.63,191.40,201.00,3,22.00,"$GNGGA,184539.000,4900.5265,N,00825.4422,E,2,7,2.57,132.0,M,47.9,M,,*48",,,,
2022-02-10T19:46:05+01:00,283,30.41,17.48,1008.63,188.90,198.40,3,22.00,"$GNGGA,184600.000,4900.5272,N,00825.4587,E,2,7,2.57,132.3,M,47.9,M,,*4A",,,,
2022-02-10T19:46:26+01:00,284,30.40,17.51,1008.63,188.90,198.40,3,22.00,"$GNGGA,184621.000,4900.5322,N,00825.4757,E,2,7,2.57,137.3,M,47.9,M,,*47",,,,
2022-02-10T19:46:47+01:00,285,30.39,17.57,1008.64,191.00,200.60,3,22.00,"$GNGGA,184642.000,4900.5290,N,00825.4769,E,2,7,2.57,137.1,M,47.9,M,,*45",,,,
2022-02-10T19:47:08+01:00,286,30.38,17.52,1008.63,192.20,201.90,3,22.00,"$GNGGA,184703.000,4900.5321,N,00825.4801,E,2,7,2.58,141.2,M,47.9,M,,*46",,,,
2022-02-10T19:47:29+01:00,287,30.37,17.62,1008.62,191.30,200.90,3,22.00,"$GNGGA,184724.000,4900.5280,N,00825.4639,E,2,7,3.02,143.6,M,47.9,M,,*44",,,,
2022-02-10T19:47:50+01:00,288,30.36,17.64,1008.62,188.90,198.40,3,22.00,"$GNGGA,184745.000,4900.5289,N,00825.4715,E,2,7,2.58,141.7,M,47.9,M,,*48",,,,
2022-02-10T19:48:11+01:00,289,30.36,17.63,1008.60,187.90,197.30,3,22.00,"$GNGGA,184806.000,4900.5294,N,00825.4696,E,2,7,3.03,139.2,M,47.9,M,,*43",,,,
2022-02-10T19:48:32+01:00,290,30.36,17.61,1008.60,186.50,195.90,3,22.00,"$GNGGA,184827.000,4900.5277,N,00825.4583,E,2,7,3.04,139.0,M,47.9,M,,*4F",,,,
2022-02-10T19:48:53+01:00,291,30.35,17.62,1008.61,187.70,197.10,3,22.00,"$GNGGA,184848.000,4900.5323,N,00825.4787,E,2,7,2.59,138.8,M,47.9,M,,*40",,,,
2022-02-10T19:49:14+01:00,292,30.35,17.65,1008.60,186.30,195.70,3,22.00,"$GNGGA,184909.000,4900.5298,N,00825.4713,E,2,7,2.59,131.9,M,47.9,M,,*40",,,,
2022-02-10T19:49:35+01:00,293,30.34,17.67,1008.60,184.40,193.70,3,22.00,"$GNGGA,184930.000,4900.5281,N,00825.4606,E,2,7,3.06,126.3,M,47.9,M,,*40",,,,
2022-02-10T19:49:56+01:00,294,30.34,17.66,1008.60,183.90,193.10,3,22.00,"$GNGGA,184951.000,4900.5201,N,00825.4358,E,2,7,3.07,125.1,M,47.9,M,,*41",,,,
2022-02-10T19:50:17+01:00,295,30.33,17.57,1008.61,185.20,194.50,3,22.00,"$GNGGA,185012.000,4900.5231,N,00825.4455,E,2,7,2.60,126.9,M,47.9,M,,*4C",,,,
2022-02-10T19:50:38+01:00,296,30.32,17.51,1008.61,183.80,193.00,3,22.00,"$GNGGA,185033.000,4900.5229,N,00825.4428,E,2,7,3.09,122.4,M,47.9,M,,*4B",,,,
2022-02-10T19:50:59+01:00,297,30.31,17.53,1008.61,185.40,194.70,3,22.00,"$GNGGA,185054.000,4900.5232,N,00825.4525,E,2,7,2.61,120.9,M,47.9,M,,*4C",,,,
2022-02-10T19:51:20+01:00,298,30.30,17.60,1008.61,186.10,195.50,3,22.00,"$GNGGA,185115.000,4900.5256,N,00825.4577,E,2,7,2.61,125.5,M,47.9,M,,*44",,,,
2022-02-10T19:51:41+01:00,299,30.29,17.58,1008.61,184.20,193.50,3,22.00,"$GNGGA,185136.000,4900.5246,N,00825.4489,E,2,7,3.11,128.3,M,47.9,M,,*49",,,,
2022-02-10T19:52:02+01:00,300,30.28,17.51,1008.60,182.90,192.10,3,22.00,"$GNGGA,185157.000,4900.5271,N,00825.4544,E,2,7,3.12,124.7,M,47.9,M,,*41",,,,
2022-02-10T19:52:23+01:00,301,30.28,17.57,1008.58,186.90,196.30,3,22.00,"$GNGGA,185218.000,4900.5280,N,00825.4587,E,2,7,3.13,123.7,M,47.9,M,,*4E",,,,
2022-02-10T19:52:44+01:00,302,30.26,17.57,1008.57,192.80,202.50,3,22.00,"$GNGGA,185239.000,4900.5266,N,00825.4426,E,2,7,3.14,125.2,M,47.9,M,,*4B",,,,
2022-02-10T19:53:05+01:00,303,30.26,17.64,1008.55,195.00,204.80,3,22.00,"$GNGGA,185300.000,4900.5327,N,00825.4536,E,2,7,3.14,128.5,M,47.9,M,,*4E",,,,
2022-02-10T19:53:26+01:00,304,30.25,17.67,1008.54,192.40,202.10,3,22.00,"$GNGGA,185321.000,4900.5324,N,00825.4694,E,2,7,3.16,127.4,M,47.9,M,,*49",,,,
2022-02-10T19:53:47+01:00,305,30.25,17.65,1008.54,187.10,196.50,3,22.00,"$GNGGA,185342.000,4900.5255,N,00825.4636,E,2,7,3.16,125.4,M,47.9,M,,*41",,,,
2022-02-10T19:54:08+01:00,306,30.25,17.68,1008.52,181.60,190.70,3,22.00,"$GNGGA,185403.000,4900.5225,N,00825.4360,E,2,7,3.17,124.2,M,47.9,M,,*44",,,,
2022-02-10T19:54:29+01:00,307,30.24,17.64,1008.52,185.80,195.10,3,22.00,"$GNGGA,185424.000,4900.5243,N,00825.4307,E,2,7,3.18,126.5,M,47.9,M,,*4A",,,,
2022-02-10T19:54:50+01:00,308,30.24,17.65,1008.52,191.60,201.20,3,22.00,"$GNGGA,185445.000,4900.5214,N,00825.4464,E,2,7,3.19,124.2,M,47.9,M,,*49",,,,
2022-02-10T19:55:11+01:00,309,30.24,17.49,1008.51,196.00,205.90,3,22.00,"$GNGGA,185506.000,4900.5169,N,00825.4380,E,2,7,3.20,120.8,M,47.9,M,,*4F",,,,
2022-02-10T19:55:32+01:00,310,30.24,17.56,1008.51,196.40,206.30,3,22.00,"$GNGGA,185527.000,4900.5173,N,00825.4203,E,2,7,3.21,120.7,M,47.9,M,,*43",,,,
2022-02-10T19:55:53+01:00,311,30.24,17.68,1008.51,197.40,207.30,3,22.00,"$GNGGA,185548.000,4900.5194,N,00825.4088,E,2,6,3.64,120.9,M,47.9,M,,*4C",,,,
2022-02-10T19:56:14+01:00,312,30.24,17.71,1008.50,192.90,202.60,3,22.50,"$GNGGA,185609.000,4900.5192,N,00825.4353,E,2,3,3.65,120.7,M,47.9,M,,*43",,,,
2022-02-10T19:56:35+01:00,313,30.24,17.59,1008.51,188.50,198.00,3,22.00,"$GNGGA,185630.000,4900.5223,N,00825.4533,E,2,3,3.66,120.7,M,47.9,M,,*43",,,,
2022-02-10T19:56:56+01:00,314,30.24,17.60,1008.52,185.80,195.10,3,22.00,"$GNGGA,185651.000,4900.5291,N,00825.4403,E,2,3,3.67,120.8,M,47.9,M,,*41",,,,
2022-02-10T19:57:17+01:00,315,30.25,17.70,1008.52,183.50,192.70,3,22.00,"$GNGGA,185712.000,4900.5240,N,00825.4278,E,2,3,3.68,120.7,M,47.9,M,,*41",,,,
2022-02-10T19:57:37+01:00,316,30.25,17.72,1008.52,180.30,189.40,3,22.50,"$GNGGA,185732.000,4900.5242,N,00825.4519,E,2,6,2.88,120.4,M,47.9,M,,*48",,,,
2022-02-10T19:57:58+01:00,317,30.25,17.58,1008.51,177.50,186.40,3,22.00,"$GNGGA,185753.000,4900.5196,N,00825.4458,E,2,6,2.88,119.3,M,47.9,M,,*4C",,,,
2022-02-10T19:58:19+01:00,318,30.25,17.62,1008.50,180.50,189.60,3,22.00,"$GNGGA,185814.000,4900.5249,N,00825.4412,E,2,3,3.71,119.4,M,47.9,M,,*4A",,,,
2022-02-10T19:58:40+01:00,319,30.25,17.62,1008.50,188.00,197.50,3,22.00,"$GNGGA,185835.000,4900.5295,N,00825.4556,E,2,3,3.72,119.2,M,47.9,M,,*4C",,,,
2022-02-10T19:59:01+01:00,320,30.25,17.52,1008.50,189.70,199.20,3,22.00,"$GNGGA,185856.000,4900.5249,N,00825.4559,E,2,6,3.73,119.5,M,47.9,M,,*44",,,,
2022-02-10T19:59:22+01:00,321,30.23,17.44,1008.49,191.30,200.90,3,22.00,"$GNGGA,185917.000,4900.5384,N,00825.4619,E,2,3,3.74,120.2,M,47.9,M,,*48",,,,
2022-02-10T19:59:43+01:00,322,30.21,17.54,1008.48,188.20,197.70,3,22.00,"$GNGGA,185938.000,4900.5304,N,00825.4616,E,2,6,2.91,120.9,M,47.9,M,,*46",,,,
2022-02-10T20:00:04+01:00,323,30.20,17.62,1008.48,190.60,200.20,3,22.00,"$GNGGA,185959.000,4900.5290,N,00825.4747,E,2,6,2.92,121.6,M,47.9,M,,*45",,,,
2022-02-10T20:00:25+01:00,324,30.19,17.55,1008.48,192.80,202.50,3,22.00,"$GNGGA,190020.000,4900.5291,N,00825.4655,E,2,5,3.05,122.0,M,47.9,M,,*4C",,,,
2022-02-10T20:00:46+01:00,325,30.18,17.55,1008.48,192.60,202.30,3,22.00,"$GNGGA,190041.000,4900.5293,N,00825.4548,E,2,5,3.05,123.2,M,47.9,M,,*45",,,,
2022-02-10T20:01:07+01:00,326,30.16,17.50,1008.47,190.00,199.60,3,22.00,"$GNGGA,190102.000,4900.5262,N,00825.4597,E,2,5,7.13,122.7,M,47.9,M,,*48",,,,
2022-02-10T20:01:28+01:00,327,30.14,17.52,1008.47,189.00,198.50,3,22.00,"$GNGGA,190123.000,4900.5260,N,00825.4701,E,2,6,2.29,122.8,M,47.9,M,,*44",,,,
2022-02-10T20:01:49+01:00,328,30.12,17.49,1008.47,187.10,196.50,3,21.50,"$GNGGA,190144.000,4900.5243,N,00825.4683,E,2,6,2.30,123.5,M,47.9,M,,*4B",,,,
2022-02-10T20:02:10+01:00,329,30.11,17.57,1008.47,185.90,195.20,3,22.00,"$GNGGA,190205.000,4900.5228,N,00825.4558,E,2,6,5.50,122.9,M,47.9,M,,*49",,,,
2022-02-10T20:02:31+01:00,330,30.10,17.63,1008.47,185.00,194.30,3,22.00,"$GNGGA,190226.000,4900.5242,N,00825.4541,E,2,6,2.31,121.5,M,47.9,M,,*43",,,,
2022-02-10T20:02:52+01:00,331,30.09,17.61,1008.47,187.00,196.40,3,22.00,"$GNGGA,190247.000,4900.5255,N,00825.4569,E,2,6,2.32,119.4,M,47.9,M,,*41",,,,
2022-02-10T20:03:13+01:00,332,30.09,17.61,1008.46,188.80,198.30,3,22.00,"$GNGGA,190308.000,4900.5232,N,00825.4511,E,2,6,2.33,117.6,M,47.9,M,,*48",,,,
2022-02-10T20:03:34+01:00,333,30.08,17.59,1008.46,188.50,198.00,3,22.00,"$GNGGA,190329.000,4900.5218,N,00825.4486,E,2,6,2.33,116.6,M,47.9,M,,*4D",,,,
2022-02-10T20:03:55+01:00,334,30.08,17.59,1008.46,186.00,195.40,3,22.00,"$GNGGA,190350.000,4900.5270,N,00825.4516,E,2,5,2.82,114.7,M,47.9,M,,*4F",,,,
2022-02-10T20:04:16+01:00,335,30.08,17.63,1008.45,185.10,194.40,3,22.00,"$GNGGA,190411.000,4900.5250,N,00825.4520,E,2,6,2.34,113.5,M,47.9,M,,*41",,,,
2022-02-10T20:04:37+01:00,336,30.08,17.68,1008.44,186.50,195.90,3,22.00,"$GNGGA,190432.000,4900.5266,N,00825.4483,E,2,6,2.35,113.3,M,47.9,M,,*4A",,,,
2022-02-10T20:04:58+01:00,337,30.09,17.76,1008.44,188.60,198.10,3,22.00,"$GNGGA,190453.000,4900.5282,N,00825.4551,E,2,7,1.93,116.6,M,47.9,M,,*47",,,,
2022-02-10T20:05:19+01:00,338,30.09,17.74,1008.44,192.40,202.10,3,22.00,"$GNGGA,190514.000,4900.5265,N,00825.4581,E,2,7,2.89,118.7,M,47.9,M,,*46",,,,
2022-02-10T20:05:40+01:00,339,30.09,17.54,1008.44,190.90,200.50,3,22.00,"$GNGGA,190535.000,4900.5262,N,00825.4577,E,2,7,1.94,119.7,M,47.9,M,,*45",,,,
2022-02-10T20:06:01+01:00,340,30.09,17.53,1008.43,188.50,198.00,3,22.00,"$GNGGA,190556.000,4900.5269,N,00825.4521,E,2,8,1.90,118.7,M,47.9,M,,*42",,,,
2022-02-10T20:06:22+01:00,341,30.09,17.55,1008.43,185.60,194.90,3,22.00,"$GNGGA,190617.000,4900.5264,N,00825.4559,E,2,8,1.90,120.0,M,47.9,M,,*4A",,,,
2022-02-10T20:06:43+01:00,342,30.09,17.57,1008.40,182.30,191.50,3,22.00,"$GNGGA,190638.000,4900.5259,N,00825.4569,E,2,8,1.90,119.5,M,47.9,M,,*45",,,,
2022-02-10T20:07:04+01:00,343,30.09,17.52,1008.40,180.30,189.40,3,22.00,"$GNGGA,190659.000,4900.5272,N,00825.4588,E,2,8,1.91,118.0,M,47.9,M,,*41",,,,
2022-02-10T20:07:25+01:00,344,30.09,17.56,1008.40,183.70,192.90,3,22.00,"$GNGGA,190720.000,4900.5276,N,00825.4568,E,2,8,2.83,116.3,M,47.9,M,,*49",,,,
2022-02-10T20:07:46+01:00,345,30.09,17.45,1008.39,189.20,198.70,3,22.00,"$GNGGA,190741.000,4900.5260,N,00825.4512,E,2,8,1.92,115.8,M,47.9,M,,*4F",,,,
2022-02-10T20:08:07+01:00,346,30.08,17.40,1008.38,192.10,201.80,3,22.00,"$GNGGA,190802.000,4900.5243,N,00825.4572,E,2,8,1.92,114.5,M,47.9,M,,*4C",,,,
2022-02-10T20:08:28+01:00,347,30.07,17.38,1008.37,190.40,200.00,3,21.50,"$GNGGA,190823.000,4900.5236,N,00825.4616,E,2,8,1.93,114.0,M,47.9,M,,*48",,,,
2022-02-10T20:08:49+01:00,348,30.06,17.36,1008.37,189.40,198.90,3,21.50,"$GNGGA,190844.000,4900.5247,N,00825.4568,E,2,8,1.93,114.0,M,47.9,M,,*45",,,,
2022-02-10T20:09:11+01:00,349,30.05,17.42,1008.38,188.80,198.30,3,21.50,"$GNGGA,190906.000,4900.5247,N,00825.4512,E,2,8,1.94,113.0,M,47.9,M,,*4F",,,,
2022-02-10T20:09:32+01:00,350,30.05,17.41,1008.38,185.90,195.20,3,21.50,"$GNGGA,190927.000,4900.5245,N,00825.4519,E,2,8,1.94,109.6,M,47.9,M,,*48",,,,
2022-02-10T20:09:53+01:00,351,30.04,17.36,1008.38,183.50,192.70,3,21.50,"$GNGGA,190948.000,4900.5282,N,00825.4393,E,2,8,2.86,110.7,M,47.9,M,,*47",,,,
2022-02-10T20:10:14+01:00,352,30.03,17.35,1008.37,184.00,193.30,3,21.50,"$GNGGA,191009.000,4900.5293,N,00825.4400,E,2,8,1.95,111.7,M,47.9,M,,*47",,,,
2022-02-10T20:10:35+01:00,353,30.01,17.32,1008.37,185.20,194.50,3,21.50,"$GNGGA,191030.000,4900.5250,N,00825.4525,E,2,8,1.95,110.7,M,47.9,M,,*45",,,,
2022-02-10T20:10:56+01:00,354,29.99,17.39,1008.37,187.90,197.30,3,21.50,"$GNGGA,191051.000,4900.5252,N,00825.4548,E,2,8,2.88,107.7,M,47.9,M,,*42",,,,
2022-02-10T20:11:17+01:00,355,29.98,17.48,1008.37,187.50,196.90,3,22.00,"$GNGGA,191112.000,4900.5295,N,00825.4393,E,2,8,2.88,107.9,M,47.9,M,,*41",,,,
2022-02-10T20:11:38+01:00,356,29.97,17.38,1008.37,187.20,196.60,3,21.50,"$GNGGA,191133.000,4900.5334,N,00825.4308,E,2,8,2.88,109.3,M,47.9,M,,*4E",,,,
2022-02-10T20:11:59+01:00,357,29.95,17.38,1008.37,184.00,193.30,3,21.50,"$GNGGA,191154.000,4900.5270,N,00825.4451,E,2,8,1.97,110.3,M,47.9,M,,*40",,,,
2022-02-10T20:12:20+01:00,358,29.94,17.41,1008.37,183.20,192.40,3,21.50,"$GNGGA,191215.000,4900.5243,N,00825.4518,E,2,8,2.89,112.5,M,47.9,M,,*42",,,,
2022-02-10T20:12:41+01:00,359,29.92,17.44,1008.36,181.90,191.00,3,21.50,"$GNGGA,191236.000,4900.5241,N,00825.4502,E,2,7,2.26,117.5,M,47.9,M,,*45",,,,
2022-02-10T20:13:02+01:00,360,29.91,17.45,1008.37,178.10,187.10,3,21.50,"$GNGGA,191257.000,4900.5220,N,00825.4523,E,2,7,2.27,121.4,M,47.9,M,,*43",,,,
2022-02-10T20:13:23+01:00,361,29.89,17.38,1008.36,179.70,188.70,3,21.50,"$GNGGA,191318.000,4900.5225,N,00825.4622,E,2,7,2.27,123.8,M,47.9,M,,*40",,,,
2022-02-10T20:13:44+01:00,362,29.87,17.42,1008.36,182.20,191.40,3,21.50,"$GNGGA,191339.000,4900.5229,N,00825.4667,E,2,7,2.28,123.8,M,47.9,M,,*41",,,,
2022-02-10T20:14:05+01:00,363,29.86,17.49,1008.36,186.40,195.80,3,21.50,"$GNGGA,191400.000,4900.5230,N,00825.4674,E,2,7,2.29,123.5,M,47.9,M,,*4A",,,,
2022-02-10T20:14:26+01:00,364,29.84,17.51,1008.36,181.50,190.60,3,21.50,"$GNGGA,191421.000,4900.5219,N,00825.4651,E,2,7,2.29,122.3,M,47.9,M,,*42",,,,
2022-02-10T20:14:47+01:00,365,29.84,17.51,1008.36,180.80,189.90,3,22.00,"$GNGGA,191442.000,4900.5223,N,00825.4636,E,2,7,2.30,121.2,M,47.9,M,,*45",,,,
2022-02-10T20:15:08+01:00,366,29.83,17.54,1008.36,181.60,190.70,3,21.50,"$GNGGA,191503.000,4900.5229,N,00825.4582,E,2,7,2.31,121.7,M,47.9,M,,*43",,,,
2022-02-10T20:15:29+01:00,367,29.82,17.49,1008.36,184.90,194.20,3,21.50,"$GNGGA,191524.000,4900.5231,N,00825.4579,E,2,7,3.23,125.0,M,47.9,M,,*4A",,,,
2022-02-10T20:15:50+01:00,368,29.81,17.46,1008.36,187.10,196.50,3,21.50,"$GNGGA,191545.000,4900.5222,N,00825.4599,E,2,7,2.32,127.0,M,47.9,M,,*42",,,,
2022-02-10T20:16:11+01:00,369,29.80,17.44,1008.35,185.10,194.40,3,21.50,"$GNGGA,191606.000,4900.5241,N,00825.4584,E,2,7,2.33,125.6,M,47.9,M,,*4A",,,,
2022-02-10T20:16:32+01:00,370,29.79,17.47,1008.35,183.30,192.50,3,21.50,"$GNGGA,191627.000,4900.5227,N,00825.4672,E,2,7,2.34,125.4,M,47.9,M,,*46",,,,
2022-02-10T20:16:53+01:00,371,29.78,17.47,1008.34,185.60,194.90,3,21.50,"$GNGGA,191648.000,4900.5218,N,00825.4664,E,2,7,4.80,124.1,M,47.9,M,,*49",,,,
2022-02-10T20:17:14+01:00,372,29.77,17.54,1008.36,187.20,196.60,3,21.50,"$GNGGA,191709.000,4900.5238,N,00825.4571,E,2,6,2.47,122.7,M,47.9,M,,*44",,,,
2022-02-10T20:17:35+01:00,373,29.76,17.48,1008.36,183.20,192.40,3,21.50,"$GNGGA,191730.000,4900.5242,N,00825.4558,E,2,7,4.88,122.1,M,47.9,M,,*4A",,,,
2022-02-10T20:17:56+01:00,374,29.75,17.41,1008.35,179.80,188.80,3,21.50,"$GNGGA,191751.000,4900.5237,N,00825.4515,E,2,7,4.92,116.2,M,47.9,M,,*49",,,,
2022-02-10T20:18:17+01:00,375,29.75,17.51,1008.36,181.90,191.00,3,21.50,"$GNGGA,191812.000,4900.5250,N,00825.4452,E,2,7,2.38,114.5,M,47.9,M,,*41",,,,
2022-02-10T20:18:38+01:00,376,29.74,17.45,1008.36,185.20,194.50,3,21.50,"$GNGGA,191833.000,4900.5287,N,00825.4341,E,2,7,6.39,109.4,M,47.9,M,,*45",,,,
2022-02-10T20:18:59+01:00,377,29.74,17.54,1008.35,182.80,192.00,3,21.50,"$GNGGA,191854.000,4900.5285,N,00825.4266,E,2,7,5.06,107.6,M,47.9,M,,*41",,,,
2022-02-10T20:19:20+01:00,378,29.74,17.55,1008.36,182.50,191.70,3,22.00,"$GNGGA,191915.000,4900.5317,N,00825.4188,E,2,7,5.10,104.4,M,47.9,M,,*4A",,,,
2022-02-10T20:19:41+01:00,379,29.74,17.51,1008.35,182.30,191.50,3,21.50,"$GNGGA,191936.000,4900.5346,N,00825.3982,E,2,7,5.15,100.6,M,47.9,M,,*49",,,,
2022-02-10T20:20:02+01:00,380,29.74,17.48,1008.36,184.30,193.60,3,21.50,"$GNGGA,191957.000,4900.5291,N,00825.4134,E,2,7,5.20,97.0,M,47.9,M,,*78",,,,
2022-02-10T20:20:23+01:00,381,29.74,17.44,1008.36,181.70,190.80,3,21.50,"$GNGGA,192018.000,4900.5322,N,00825.4076,E,2,7,5.25,95.6,M,47.9,M,,*76",,,,
2022-02-10T20:20:44+01:00,382,29.74,17.35,1008.36,180.00,189.10,3,21.50,"$GNGGA,192039.000,4900.5352,N,00825.4011,E,2,7,5.30,98.2,M,47.9,M,,*7E",,,,
2022-02-10T20:21:05+01:00,383,29.73,17.50,1008.36,180.40,189.50,3,21.50,"$GNGGA,192100.000,4900.5264,N,00825.4446,E,2,7,2.44,107.1,M,47.9,M,,*47",,,,
2022-02-10T20:21:26+01:00,384,29.72,17.45,1008.37,182.90,192.10,3,21.50,"$GNGGA,192121.000,4900.5256,N,00825.4468,E,2,7,5.41,111.4,M,47.9,M,,*49",,,,
2022-02-10T20:21:47+01:00,385,29.71,17.51,1008.38,183.00,192.20,3,21.00,"$GNGGA,192142.000,4900.5261,N,00825.4378,E,2,7,5.46,111.2,M,47.9,M,,*4F",,,,
2022-02-10T20:22:08+01:00,386,29.69,17.51,1008.38,183.30,192.50,3,21.00,"$GNGGA,192203.000,4900.5284,N,00825.4302,E,2,7,5.52,111.5,M,47.9,M,,*4D",,,,
2022-02-10T20:22:28+01:00,387,29.65,17.51,1008.39,185.40,194.70,3,21.00,"$GNGGA,192223.000,4900.5245,N,00825.4513,E,2,7,2.47,116.5,M,47.9,M,,*40",,,,
2022-02-10T20:22:49+01:00,388,29.61,17.54,1008.39,186.90,196.30,3,20.50,"$GNGGA,192244.000,4900.5259,N,00825.4550,E,2,7,2.47,116.5,M,47.9,M,,*4B",,,,
2022-02-10T20:23:10+01:00,389,29.57,17.71,1008.38,186.90,196.30,3,21.00,"$GNGGA,192305.000,4900.5249,N,00825.4543,E,2,7,7.00,116.5,M,47.9,M,,*4A",,,,
2022-02-10T20:23:31+01:00,390,29.54,17.93,1008.38,185.20,194.50,3,21.00,"$GNGGA,192326.000,4900.5275,N,00825.4378,E,2,7,7.06,116.9,M,47.9,M,,*40",,,,
2022-02-10T20:23:52+01:00,391,29.52,18.12,1008.38,182.60,191.80,3,21.50,"$GNGGA,192347.000,4900.5242,N,00825.4447,E,2,7,7.12,115.4,M,47.9,M,,*43",,,,
2022-02-10T20:24:13+01:00,392,29.51,18.21,1008.39,182.30,191.50,3,22.00,"$GNGGA,192408.000,4900.5232,N,00825.4468,E,2,7,2.51,113.4,M,47.9,M,,*41",,,,
