created_at,entry_id,field1,field2,field3,field4,field5,field6,field7,field8,latitude,longitude,elevation,status
2022-01-14T15:26:04+01:00,1,32.59,19.25,1019.87,482.10,506.30,0,0,"$GNGGA,142600.000,4900.5297,N,00825.4407,E,0,3,,66.1,M,47.9,M,,*68",,,,
2022-01-14T15:26:25+01:00,2,32.37,19.60,1019.87,415.50,436.30,0,0,"$GNGGA,142620.000,4900.5211,N,00825.4397,E,1,4,4.55,115.4,M,47.9,M,,*46",,,,
2022-01-14T15:26:45+01:00,3,32.27,19.48,1019.88,361.90,380.00,0,0,"$GNGGA,142640.000,4900.5228,N,00825.4627,E,1,4,4.55,119.3,M,47.9,M,,*4F",,,,
2022-01-14T15:27:06+01:00,4,32.25,19.30,1019.89,340.50,357.60,0,0,"$GNGGA,142701.000,4900.5200,N,00825.4595,E,1,4,4.56,122.5,M,47.9,M,,*46",,,,
2022-01-14T15:27:26+01:00,5,32.28,19.12,1019.88,350.00,367.60,0,0,"$GNGGA,142721.000,4900.5212,N,00825.4528,E,1,5,3.42,124.4,M,47.9,M,,*45",,,,
2022-01-14T15:27:46+01:00,6,32.33,18.98,1019.87,354.50,372.30,0,0,"$GNGGA,142741.000,4900.5214,N,00825.4550,E,1,5,3.85,124.9,M,47.9,M,,*4C",,,,
2022-01-14T15:28:07+01:00,7,32.39,18.88,1019.88,350.80,368.40,0,0,"$GNGGA,142802.000,4900.5183,N,00825.4537,E,1,5,3.42,124.7,M,47.9,M,,*4D",,,,
2022-01-14T15:28:27+01:00,8,32.45,18.83,1019.88,354.30,372.10,0,0,"$GNGGA,142822.000,4900.5181,N,00825.4482,E,1,5,3.42,123.7,M,47.9,M,,*45",,,,
2022-01-14T15:28:47+01:00,9,32.52,18.77,1019.88,349.50,367.00,0,0,"$GNGGA,142842.000,4900.5239,N,00825.4458,E,1,5,3.43,122.7,M,47.9,M,,*44",,,,
2022-01-14T15:29:08+01:00,10,32.57,18.70,1019.88,351.10,368.70,0,0,"$GNGGA,142903.000,4900.5240,N,00825.4446,E,1,5,3.43,119.4,M,47.9,M,,*4A",,,,
2022-01-14T15:29:28+01:00,11,32.63,18.67,1019.87,357.20,375.10,0,0,"$GNGGA,142923.000,4900.5250,N,00825.4450,E,1,5,3.43,118.1,M,47.9,M,,*4A",,,,
2022-01-14T15:29:48+01:00,12,32.68,18.69,1019.87,371.50,390.10,0,0,"$GNGGA,142943.000,4900.5232,N,00825.4333,E,1,5,3.44,116.8,M,47.9,M,,*4A",,,,
2022-01-14T15:30:09+01:00,13,32.72,18.67,1019.86,367.40,385.80,0,0,"$GNGGA,143004.000,4900.5225,N,00825.4363,E,1,5,3.44,116.6,M,47.9,M,,*4C",,,,
2022-01-14T15:30:30+01:00,14,32.77,18.66,1019.86,353.30,371.00,0,0,"$GNGGA,143025.000,4900.5221,N,00825.4288,E,1,5,3.44,116.3,M,47.9,M,,*4A",,,,
2022-01-14T15:30:50+01:00,15,32.80,18.64,1019.85,347.10,364.50,0,0,"$GNGGA,143045.000,4900.5221,N,00825.4268,E,1,5,3.44,115.4,M,47.9,M,,*46",,,,
2022-01-14T15:31:11+01:00,16,32.84,18.63,1019.86,353.20,370.90,0,0,"$GNGGA,143106.000,4900.5240,N,00825.4369,E,1,6,2.39,105.5,M,47.9,M,,*4F",,,,
2022-01-14T15:31:31+01:00,17,32.86,18.58,1019.85,360.40,378.50,0,0,"$GNGGA,143126.000,4900.5234,N,00825.4319,E,1,7,2.11,93.0,M,47.9,M,,*79",,,,
2022-01-14T15:31:52+01:00,18,32.89,18.52,1019.85,360.80,378.90,0,0,"$GNGGA,143147.000,4900.5227,N,00825.4224,E,1,7,2.11,88.9,M,47.9,M,,*70",,,,
2022-01-14T15:32:13+01:00,19,32.91,18.45,1019.84,357.80,375.70,0,0,"$GNGGA,143208.000,4900.5224,N,00825.4217,E,1,7,3.49,90.3,M,47.9,M,,*74",,,,
2022-01-14T15:32:33+01:00,20,32.93,18.45,1019.85,358.70,376.70,0,0,"$GNGGA,143228.000,4900.5221,N,00825.4176,E,1,7,2.11,93.0,M,47.9,M,,*7B",,,,
2022-01-14T15:32:54+01:00,21,32.95,18.38,1019.85,362.60,380.80,0,0,"$GNGGA,143249.000,4900.5251,N,00825.4315,E,1,7,2.45,95.8,M,47.9,M,,*73",,,,
2022-01-14T15:33:15+01:00,22,32.97,18.33,1019.86,367.40,385.80,0,0,"$GNGGA,143310.000,4900.5236,N,00825.4322,E,1,7,2.12,97.0,M,47.9,M,,*73",,,,
2022-01-14T15:33:35+01:00,23,32.99,18.35,1019.86,364.50,382.80,0,0,"$GNGGA,143330.000,4900.5216,N,00825.4325,E,1,7,2.12,96.5,M,47.9,M,,*70",,,,
2022-01-14T15:33:56+01:00,24,33.00,18.35,1019.86,346.30,363.70,0,0,"$GNGGA,143351.000,4900.5234,N,00825.4271,E,1,7,2.46,96.3,M,47.9,M,,*70",,,,
2022-01-14T15:34:17+01:00,25,33.01,18.36,1019.85,340.80,357.90,0,0,"$GNGGA,143412.000,4900.5224,N,00825.4207,E,1,7,2.12,95.8,M,47.9,M,,*79",,,,
2022-01-14T15:34:37+01:00,26,33.02,18.36,1019.84,342.30,359.50,0,0,"$GNGGA,143432.000,4900.5214,N,00825.4204,E,1,7,2.13,96.8,M,47.9,M,,*79",,,,
2022-01-14T15:34:58+01:00,27,33.02,18.37,1019.84,343.10,360.30,0,0,"$GNGGA,143453.000,4900.5220,N,00825.4281,E,1,7,2.47,97.5,M,47.9,M,,*79",,,,
2022-01-14T15:35:19+01:00,28,33.02,18.35,1019.83,340.30,357.40,0,0,"$GNGGA,143514.000,4900.5206,N,00825.4311,E,1,7,2.47,98.0,M,47.9,M,,*7D",,,,
2022-01-14T15:35:39+01:00,29,33.02,18.34,1019.83,340.50,357.60,0,0,"$GNGGA,143534.000,4900.5207,N,00825.4452,E,1,7,2.13,100.3,M,47.9,M,,*4C",,,,
2022-01-14T15:35:59+01:00,30,33.02,18.33,1019.83,356.70,374.60,0,0,"$GNGGA,143554.000,4900.5192,N,00825.4510,E,1,7,2.48,101.5,M,47.9,M,,*4B",,,,
2022-01-14T15:36:20+01:00,31,33.03,18.34,1019.83,370.20,388.80,0,0,"$GNGGA,143615.000,4900.5152,N,00825.4495,E,1,7,2.48,103.9,M,47.9,M,,*43",,,,
2022-01-14T15:36:40+01:00,32,33.03,18.26,1019.82,369.40,387.90,0,0,"$GNGGA,143635.000,4900.5174,N,00825.4468,E,1,7,2.49,104.1,M,47.9,M,,*49",,,,
2022-01-14T15:37:00+01:00,33,33.03,18.25,1019.81,353.00,370.70,0,0,"$GNGGA,143655.000,4900.5197,N,00825.4553,E,1,8,2.12,103.9,M,47.9,M,,*45",,,,
2022-01-14T15:37:21+01:00,34,33.04,18.25,1019.81,346.00,363.40,0,0,"$GNGGA,143716.000,4900.5202,N,00825.4478,E,1,8,2.12,104.7,M,47.9,M,,*4D",,,,
2022-01-14T15:37:42+01:00,35,33.04,18.21,1019.81,357.20,375.10,0,0,"$GNGGA,143737.000,4900.5164,N,00825.4477,E,1,8,2.12,108.7,M,47.9,M,,*4E",,,,
2022-01-14T15:38:02+01:00,36,33.04,18.22,1019.81,374.80,393.60,0,0,"$GNGGA,143757.000,4900.5172,N,00825.4433,E,1,8,2.13,111.5,M,47.9,M,,*44",,,,
2022-01-14T15:38:23+01:00,37,33.02,18.24,1019.80,367.50,385.90,0,0,"$GNGGA,143818.000,4900.5198,N,00825.4512,E,1,8,3.48,112.7,M,47.9,M,,*48",,,,
2022-01-14T15:38:43+01:00,38,33.00,18.26,1019.79,364.70,383.00,0,0,"$GNGGA,143838.000,4900.5211,N,00825.4563,E,1,8,2.13,114.9,M,47.9,M,,*49",,,,
2022-01-14T15:39:04+01:00,39,32.99,18.21,1019.79,352.90,370.60,0,0,"$GNGGA,143859.000,4900.5212,N,00825.4463,E,1,9,2.01,115.1,M,47.9,M,,*47",,,,
2022-01-14T15:39:25+01:00,40,32.96,18.20,1019.78,342.50,359.70,0,0,"$GNGGA,143920.000,4900.5215,N,00825.4386,E,1,9,2.01,115.4,M,47.9,M,,*46",,,,
2022-01-14T15:39:45+01:00,41,32.94,18.22,1019.78,337.10,354.00,0,0,"$GNGGA,143940.000,4900.5175,N,00825.4315,E,1,9,2.02,117.0,M,47.9,M,,*4A",,,,
2022-01-14T15:40:05+01:00,42,32.93,18.21,1019.78,351.00,368.60,0,0,"$GNGGA,144000.000,4900.5193,N,00825.4478,E,1,9,2.02,118.5,M,47.9,M,,*4E",,,,
2022-01-14T15:40:26+01:00,43,32.93,18.22,1019.78,368.70,387.20,0,0,"$GNGGA,144021.000,4900.5225,N,00825.4425,E,1,9,2.53,119.3,M,47.9,M,,*48",,,,
2022-01-14T15:40:46+01:00,44,32.93,18.19,1019.79,381.20,400.30,0,0,"$GNGGA,144041.000,4900.5220,N,00825.4417,E,1,9,2.02,119.4,M,47.9,M,,*49",,,,
2022-01-14T15:41:07+01:00,45,32.93,18.16,1019.79,377.90,396.80,0,0,"$GNGGA,144102.000,4900.5218,N,00825.4433,E,1,8,2.54,118.9,M,47.9,M,,*4C",,,,
2022-01-14T15:41:28+01:00,46,32.93,18.16,1019.78,372.50,391.20,0,0,"$GNGGA,144123.000,4900.5200,N,00825.4497,E,1,9,2.03,119.5,M,47.9,M,,*46",,,,
2022-01-14T15:41:49+01:00,47,32.92,18.17,1019.79,359.10,377.10,0,0,"$GNGGA,144144.000,4900.5195,N,00825.4500,E,1,9,2.55,118.0,M,47.9,M,,*40",,,,
2022-01-14T15:42:10+01:00,48,32.92,18.16,1019.79,357.00,374.90,0,0,"$GNGGA,144205.000,4900.5216,N,00825.4536,E,1,9,3.47,116.3,M,47.9,M,,*44",,,,
2022-01-14T15:42:31+01:00,49,32.91,18.19,1019.79,352.80,370.50,0,0,"$GNGGA,144226.000,4900.5203,N,00825.4495,E,1,9,2.56,113.8,M,47.9,M,,*46",,,,
2022-01-14T15:42:51+01:00,50,32.91,18.20,1019.77,354.30,372.10,0,0,"$GNGGA,144246.000,4900.5196,N,00825.4372,E,1,8,2.56,110.4,M,47.9,M,,*4F",,,,
2022-01-14T15:43:11+01:00,51,32.91,18.19,1019.77,355.80,373.60,0,0,"$GNGGA,144306.000,4900.5178,N,00825.4339,E,1,8,2.56,111.5,M,47.9,M,,*45",,,,
2022-01-14T15:43:32+01:00,52,32.87,18.20,1019.76,359.70,377.70,0,0,"$GNGGA,144327.000,4900.5190,N,00825.4411,E,1,8,2.16,111.9,M,47.9,M,,*45",,,,
2022-01-14T15:43:52+01:00,53,32.80,18.29,1019.76,355.80,373.60,0,0,"$GNGGA,144347.000,4900.5201,N,00825.4439,E,1,8,2.16,111.5,M,47.9,M,,*4E",,,,
2022-01-14T15:44:12+01:00,54,32.73,18.37,1019.75,350.70,368.30,0,0,"$GNGGA,144407.000,4900.5206,N,00825.4456,E,1,8,2.16,112.7,M,47.9,M,,*42",,,,
2022-01-14T15:44:34+01:00,55,32.69,18.37,1019.75,354.30,372.10,0,0,"$GNGGA,144429.000,4900.5201,N,00825.4501,E,1,8,2.58,115.1,M,47.9,M,,*41",,,,
2022-01-14T15:44:54+01:00,56,32.67,18.35,1019.75,356.80,374.70,0,0,"$GNGGA,144449.000,4900.5202,N,00825.4448,E,1,8,2.17,117.1,M,47.9,M,,*41",,,,
2022-01-14T15:45:14+01:00,57,32.68,18.29,1019.74,352.40,370.10,0,0,"$GNGGA,144509.000,4900.5220,N,00825.4441,E,1,8,2.17,119.2,M,47.9,M,,*40",,,,
2022-01-14T15:45:35+01:00,58,32.69,18.28,1019.74,352.60,370.30,0,0,"$GNGGA,144530.000,4900.5215,N,00825.4585,E,1,8,2.17,118.5,M,47.9,M,,*43",,,,
2022-01-14T15:45:55+01:00,59,32.70,18.29,1019.73,368.20,386.70,0,0,"$GNGGA,144550.000,4900.5204,N,00825.4589,E,1,8,2.17,115.4,M,47.9,M,,*45",,,,
2022-01-14T15:46:15+01:00,60,32.71,18.26,1019.73,383.10,402.30,0,0,"$GNGGA,144610.000,4900.5187,N,00825.4459,E,1,8,2.18,114.6,M,47.9,M,,*4A",,,,
2022-01-14T15:46:36+01:00,61,32.72,18.22,1019.73,377.00,395.90,0,0,"$GNGGA,144631.000,4900.5182,N,00825.4351,E,1,8,2.61,116.1,M,47.9,M,,*48",,,,
2022-01-14T15:46:56+01:00,62,32.72,18.20,1019.73,376.10,395.00,0,0,"$GNGGA,144651.000,4900.5195,N,00825.4410,E,1,8,2.61,118.0,M,47.9,M,,*45",,,,
2022-01-14T15:47:16+01:00,63,32.72,18.21,1019.74,374.30,393.10,0,0,"$GNGGA,144711.000,4900.5201,N,00825.4419,E,1,8,2.62,119.6,M,47.9,M,,*43",,,,
2022-01-14T15:47:37+01:00,64,32.71,18.23,1019.74,376.80,395.70,0,0,"$GNGGA,144732.000,4900.5231,N,00825.4366,E,1,8,2.19,122.5,M,47.9,M,,*49",,,,
2022-01-14T15:47:57+01:00,65,32.71,18.25,1019.75,369.70,388.20,0,0,"$GNGGA,144752.000,4900.5205,N,00825.4266,E,1,8,2.63,123.2,M,47.9,M,,*42",,,,
2022-01-14T15:48:17+01:00,66,32.70,18.26,1019.76,367.60,386.00,0,0,"$GNGGA,144812.000,4900.5219,N,00825.4327,E,1,8,2.63,124.0,M,47.9,M,,*45",,,,
2022-01-14T15:48:38+01:00,67,32.70,18.20,1019.76,364.20,382.50,0,0,"$GNGGA,144833.000,4900.5265,N,00825.4586,E,1,8,2.19,118.9,M,47.9,M,,*4B",,,,
2022-01-14T15:48:59+01:00,68,32.70,18.18,1019.77,366.60,385.00,0,0,"$GNGGA,144854.000,4900.5257,N,00825.4620,E,1,8,2.19,116.8,M,47.9,M,,*4B",,,,
2022-01-14T15:49:20+01:00,69,32.70,18.16,1019.78,361.40,379.50,0,0,"$GNGGA,144915.000,4900.5229,N,00825.4552,E,1,8,2.65,117.5,M,47.9,M,,*47",,,,
2022-01-14T15:49:41+01:00,70,32.70,18.13,1019.79,357.40,375.30,0,0,"$GNGGA,144936.000,4900.5207,N,00825.4447,E,1,8,2.65,119.8,M,47.9,M,,*4C",,,,
2022-01-14T15:50:02+01:00,71,32.69,18.18,1019.79,350.20,367.80,0,0,"$GNGGA,144957.000,4900.5183,N,00825.4378,E,1,8,2.66,121.6,M,47.9,M,,*49",,,,
2022-01-14T15:50:22+01:00,72,32.68,18.13,1019.81,345.00,362.30,0,0,"$GNGGA,145017.000,4900.5222,N,00825.4517,E,1,8,2.66,120.0,M,47.9,M,,*45",,,,
2022-01-14T15:50:43+01:00,73,32.67,18.11,1019.81,349.00,366.50,0,0,"$GNGGA,145038.000,4900.5277,N,00825.4373,E,1,8,2.66,120.7,M,47.9,M,,*4B",,,,
2022-01-14T15:51:03+01:00,74,32.64,18.14,1019.82,352.80,370.50,0,0,"$GNGGA,145058.000,4900.5268,N,00825.4389,E,1,8,2.67,122.1,M,47.9,M,,*43",,,,
2022-01-14T15:51:23+01:00,75,32.57,18.25,1019.81,352.90,370.60,0,0,"$GNGGA,145118.000,4900.5261,N,00825.4347,E,1,7,2.92,123.5,M,47.9,M,,*4D",,,,
2022-01-14T15:51:44+01:00,76,32.48,18.39,1019.80,347.20,364.60,0,0,"$GNGGA,145139.000,4900.5295,N,00825.4448,E,1,7,2.93,122.5,M,47.9,M,,*4D",,,,
2022-01-14T15:52:05+01:00,77,32.37,18.54,1019.80,349.10,366.60,0,0,"$GNGGA,145200.000,4900.5270,N,00825.4417,E,1,7,2.93,122.0,M,47.9,M,,*40",,,,
2022-01-14T15:52:26+01:00,78,32.29,18.67,1019.79,362.10,380.30,0,0,"$GNGGA,145221.000,4900.5251,N,00825.4423,E,1,7,2.94,119.5,M,47.9,M,,*4D",,,,
2022-01-14T15:52:47+01:00,79,32.23,18.67,1019.78,363.70,381.90,0,0,"$GNGGA,145242.000,4900.5237,N,00825.4322,E,1,7,2.95,116.3,M,47.9,M,,*46",,,,
2022-01-14T15:53:07+01:00,80,32.16,18.67,1019.78,358.70,376.70,0,0,"$GNGGA,145302.000,4900.5185,N,00825.4267,E,1,7,2.95,114.5,M,47.9,M,,*4D",,,,
2022-01-14T15:53:27+01:00,81,32.09,18.76,1019.77,347.30,364.70,0,0,"$GNGGA,145322.000,4900.5215,N,00825.4359,E,1,7,2.96,111.2,M,47.9,M,,*48",,,,
2022-01-14T15:53:48+01:00,82,32.02,18.87,1019.77,345.30,362.60,0,0,"$GNGGA,145343.000,4900.5231,N,00825.4424,E,1,7,2.96,109.2,M,47.9,M,,*4D",,,,
2022-01-14T15:54:08+01:00,83,32.00,18.82,1019.76,345.50,362.80,0,0,"$GNGGA,145403.000,4900.5225,N,00825.4438,E,1,7,2.97,106.2,M,47.9,M,,*48",,,,
2022-01-14T15:54:28+01:00,84,32.02,18.72,1019.75,345.10,362.40,0,0,"$GNGGA,145423.000,4900.5187,N,00825.4351,E,1,8,2.98,103.0,M,47.9,M,,*4E",,,,
2022-01-14T15:54:49+01:00,85,32.06,18.65,1019.75,353.70,371.40,0,0,"$GNGGA,145444.000,4900.5215,N,00825.4495,E,1,8,2.43,101.3,M,47.9,M,,*4F",,,,
2022-01-14T15:55:09+01:00,86,32.10,18.59,1019.74,357.30,375.20,0,0,"$GNGGA,145504.000,4900.5215,N,00825.4507,E,1,8,2.43,100.0,M,47.9,M,,*42",,,,
2022-01-14T15:55:29+01:00,87,32.15,18.56,1019.74,367.00,385.40,0,0,"$GNGGA,145524.000,4900.5208,N,00825.4506,E,1,8,2.43,99.0,M,47.9,M,,*7C",,,,
2022-01-14T15:55:50+01:00,88,32.19,18.56,1019.73,350.80,368.40,0,0,"$GNGGA,145545.000,4900.5213,N,00825.4577,E,1,8,2.43,97.0,M,47.9,M,,*79",,,,
2022-01-14T15:56:10+01:00,89,32.23,18.54,1019.73,355.60,373.40,0,0,"$GNGGA,145605.000,4900.5262,N,00825.4083,E,1,8,3.01,95.5,M,47.9,M,,*76",,,,
2022-01-14T15:56:30+01:00,90,32.27,18.47,1019.72,350.70,368.30,0,0,"$GNGGA,145625.000,4900.5262,N,00825.4276,E,1,8,2.44,90.0,M,47.9,M,,*7C",,,,
2022-01-14T15:56:51+01:00,91,32.30,18.49,1019.72,352.10,369.80,0,0,"$GNGGA,145646.000,4900.5215,N,00825.4399,E,1,8,3.02,88.4,M,47.9,M,,*77",,,,
2022-01-14T15:57:11+01:00,92,32.33,18.50,1019.72,345.20,362.50,0,0,"$GNGGA,145706.000,4900.5239,N,00825.4364,E,1,8,3.03,86.2,M,47.9,M,,*77",,,,
2022-01-14T15:57:32+01:00,93,32.35,18.52,1019.72,354.60,372.40,0,0,"$GNGGA,145727.000,4900.5224,N,00825.4248,E,1,7,2.53,85.6,M,47.9,M,,*7B",,,,
2022-01-14T15:57:53+01:00,94,32.36,18.56,1019.72,357.40,375.30,0,0,"$GNGGA,145748.000,4900.5222,N,00825.4363,E,1,7,2.53,81.2,M,47.9,M,,*7C",,,,
2022-01-14T15:58:13+01:00,95,32.34,18.63,1019.72,356.90,374.80,0,0,"$GNGGA,145808.000,4900.5211,N,00825.4395,E,1,7,2.54,78.1,M,47.9,M,,*7C",,,,
2022-01-14T15:58:33+01:00,96,32.29,18.72,1019.71,349.80,367.30,0,0,"$GNGGA,145828.000,4900.5168,N,00825.4385,E,1,8,2.45,75.8,M,47.9,M,,*79",,,,
2022-01-14T15:58:54+01:00,97,32.21,18.80,1019.71,359.30,377.30,0,0,"$GNGGA,145849.000,4900.5144,N,00825.4329,E,1,8,3.06,73.0,M,47.9,M,,*7E",,,,
2022-01-14T15:59:14+01:00,98,32.12,18.89,1019.69,355.80,373.60,0,0,"$GNGGA,145909.000,4900.5149,N,00825.3915,E,1,8,3.06,73.3,M,47.9,M,,*77",,,,
2022-01-14T15:59:34+01:00,99,32.06,18.97,1019.70,354.60,372.40,0,0,"$GNGGA,145929.000,4900.5177,N,00825.4108,E,1,8,3.07,74.0,M,47.9,M,,*7E",,,,
2022-01-14T15:59:56+01:00,100,32.02,18.92,1019.71,349.90,367.40,0,0,"$GNGGA,145951.000,4900.5187,N,00825.4335,E,1,8,3.08,75.5,M,47.9,M,,*79",,,,
2022-01-14T16:00:16+01:00,101,31.97,18.95,1019.71,356.40,374.30,0,0,"$GNGGA,150011.000,4900.5215,N,00825.4272,E,1,7,3.09,76.6,M,47.9,M,,*74",,,,
2022-01-14T16:00:36+01:00,102,31.94,18.95,1019.71,358.20,376.20,0,0,"$GNGGA,150031.000,4900.5195,N,00825.4087,E,1,7,2.56,76.7,M,47.9,M,,*7F",,,,
2022-01-14T16:00:57+01:00,103,31.88,19.01,1019.71,351.20,368.80,0,0,"$GNGGA,150052.000,4900.5184,N,00825.4376,E,1,7,3.10,79.6,M,47.9,M,,*7A",,,,
2022-01-14T16:01:17+01:00,104,31.82,19.12,1019.73,352.40,370.10,0,0,"$GNGGA,150112.000,4900.5152,N,00825.4460,E,1,8,3.11,81.8,M,47.9,M,,*73",,,,
2022-01-14T16:01:38+01:00,105,31.79,19.18,1019.73,350.00,367.60,0,0,"$GNGGA,150133.000,4900.5158,N,00825.4547,E,1,8,3.11,81.1,M,47.9,M,,*77",,,,
2022-01-14T16:01:59+01:00,106,31.77,19.15,1019.73,348.70,366.20,0,0,"$GNGGA,150154.000,4900.5177,N,00825.4327,E,1,8,3.12,83.0,M,47.9,M,,*7B",,,,
2022-01-14T16:02:19+01:00,107,31.73,19.17,1019.73,351.50,369.10,0,0,"$GNGGA,150214.000,4900.5161,N,00825.4225,E,1,8,3.13,87.6,M,47.9,M,,*7B",,,,
2022-01-14T16:02:40+01:00,108,31.72,19.21,1019.74,361.70,379.80,0,0,"$GNGGA,150235.000,4900.5208,N,00825.4413,E,1,7,2.73,84.9,M,47.9,M,,*73",,,,
2022-01-14T16:03:01+01:00,109,31.75,19.15,1019.74,355.70,373.50,0,0,"$GNGGA,150256.000,4900.5189,N,00825.4459,E,1,7,2.73,80.7,M,47.9,M,,*78",,,,
2022-01-14T16:03:21+01:00,110,31.78,18.99,1019.74,329.50,346.00,0,0,"$GNGGA,150316.000,4900.5182,N,00825.4532,E,1,7,2.73,79.7,M,47.9,M,,*7C",,,,
2022-01-14T16:03:42+01:00,111,31.78,18.90,1019.74,318.60,334.60,0,0,"$GNGGA,150337.000,4900.5189,N,00825.4557,E,1,7,2.73,81.4,M,47.9,M,,*73",,,,
2022-01-14T16:04:03+01:00,112,31.74,19.05,1019.73,329.00,345.50,0,0,"$GNGGA,150358.000,4900.5197,N,00825.4623,E,1,7,2.74,83.1,M,47.9,M,,*75",,,,
2022-01-14T16:04:23+01:00,113,31.69,19.18,1019.73,353.10,370.80,0,0,"$GNGGA,150418.000,4900.5206,N,00825.4759,E,1,7,2.74,84.9,M,47.9,M,,*7E",,,,
2022-01-14T16:04:44+01:00,114,31.67,19.14,1019.72,360.90,379.00,0,0,"$GNGGA,150439.000,4900.5196,N,00825.4838,E,1,7,2.74,85.3,M,47.9,M,,*74",,,,
2022-01-14T16:28:15+01:00,115,31.19,20.07,1019.64,332.50,349.20,2,18,"$GNGGA,152810.000,4900.5143,N,00825.4604,E,1,7,3.90,83.5,M,47.9,M,,*73",,,,
2022-01-14T16:28:36+01:00,116,30.86,20.06,1019.58,357.30,375.20,2,0,"$GNGGA,152831.000,4900.5147,N,00825.4351,E,1,7,3.91,83.5,M,47.9,M,,*70",,,,
2022-01-14T16:28:56+01:00,117,30.63,19.91,1019.53,339.00,356.00,2,0,"$GNGGA,152851.000,4900.5145,N,00825.4339,E,1,7,3.92,82.7,M,47.9,M,,*7A",,,,
2022-01-14T16:29:18+01:00,118,30.49,19.80,1019.49,333.60,350.30,2,0,"$GNGGA,152912.000,4900.5150,N,00825.4515,E,1,7,3.94,81.8,M,47.9,M,,*7A",,,,
2022-01-14T16:29:38+01:00,119,30.39,19.74,1019.46,328.80,345.30,2,0,"$GNGGA,152933.000,4900.5160,N,00825.4583,E,1,7,3.95,82.0,M,47.9,M,,*7F",,,,
2022-01-14T16:29:58+01:00,120,30.34,19.62,1019.44,334.20,351.00,2,0,"$GNGGA,152953.000,4900.5153,N,00825.4626,E,1,7,3.97,82.5,M,47.9,M,,*72",,,,
2022-01-14T16:30:19+01:00,121,30.31,19.51,1019.42,333.90,350.60,2,0,"$GNGGA,153014.000,4900.5162,N,00825.4718,E,1,8,2.68,83.1,M,47.9,M,,*7C",,,,
2022-01-14T16:30:39+01:00,122,30.29,19.50,1019.42,340.40,357.50,2,0,"$GNGGA,153034.000,4900.5168,N,00825.4559,E,1,8,2.68,85.6,M,47.9,M,,*72",,,,
2022-01-14T16:30:59+01:00,123,30.29,19.47,1019.41,332.70,349.40,2,0,"$GNGGA,153054.000,4900.5167,N,00825.4514,E,1,8,2.68,85.1,M,47.9,M,,*75",,,,
2022-01-14T16:31:21+01:00,124,30.30,19.44,1019.41,339.30,356.30,2,0,"$GNGGA,153116.000,4900.5151,N,00825.4595,E,1,8,4.02,86.1,M,47.9,M,,*77",,,,
2022-01-14T16:31:42+01:00,125,30.31,19.45,1019.41,344.50,361.80,2,0,"$GNGGA,153137.000,4900.5168,N,00825.4598,E,1,7,2.85,87.4,M,47.9,M,,*71",,,,
2022-01-14T16:32:03+01:00,126,30.32,19.38,1019.41,353.20,370.90,2,0,"$GNGGA,153158.000,4900.5171,N,00825.4600,E,1,8,2.69,89.1,M,47.9,M,,*74",,,,
2022-01-14T16:32:28+01:00,127,30.34,19.39,1019.41,338.80,355.80,2,0,"$GNGGA,153223.000,4900.5185,N,00825.4504,E,1,8,2.69,93.5,M,47.9,M,,*78",,,,
2022-01-14T16:32:48+01:00,128,30.37,19.32,1019.42,330.50,347.10,2,0,"$GNGGA,153243.000,4900.5183,N,00825.4480,E,1,8,2.69,94.8,M,47.9,M,,*7F",,,,
2022-01-14T16:33:08+01:00,129,30.41,19.31,1019.42,319.10,335.10,2,0,"$GNGGA,153303.000,4900.5170,N,00825.4330,E,1,8,2.70,96.5,M,47.9,M,,*7D",,,,
2022-01-14T16:33:30+01:00,130,30.44,19.27,1019.42,323.90,340.10,2,0,"$GNGGA,153325.000,4900.5165,N,00825.4479,E,1,8,2.70,99.4,M,47.9,M,,*79",,,,
2022-01-14T16:33:50+01:00,131,30.48,19.27,1019.40,330.10,346.70,2,0,"$GNGGA,153345.000,4900.5162,N,00825.4481,E,1,8,2.70,102.9,M,47.9,M,,*41",,,,
2022-01-14T16:34:10+01:00,132,30.51,19.22,1019.40,329.70,346.20,2,0,"$GNGGA,153405.000,4900.5183,N,00825.4497,E,1,8,2.71,106.3,M,47.9,M,,*45",,,,
2022-01-14T16:34:31+01:00,133,30.54,19.15,1019.39,312.20,327.90,2,0,"$GNGGA,153426.000,4900.5174,N,00825.4516,E,1,8,2.71,102.8,M,47.9,M,,*4B",,,,
2022-01-14T16:34:52+01:00,134,30.56,19.20,1019.39,304.30,319.60,2,0,"$GNGGA,153447.000,4900.5167,N,00825.4546,E,1,8,2.71,105.1,M,47.9,M,,*45",,,,
2022-01-14T16:35:13+01:00,135,30.59,19.22,1019.39,303.60,318.80,2,0,"$GNGGA,153508.000,4900.5179,N,00825.4604,E,1,8,2.71,109.3,M,47.9,M,,*4B",,,,
2022-01-14T16:35:34+01:00,136,30.60,19.21,1019.38,313.70,329.40,2,0,"$GNGGA,153529.000,4900.5178,N,00825.4660,E,1,8,2.72,110.8,M,47.9,M,,*4B",,,,
2022-01-14T16:35:54+01:00,137,30.61,19.19,1019.38,318.20,334.20,2,0,"$GNGGA,153549.000,4900.5193,N,00825.4712,E,1,8,2.72,111.9,M,47.9,M,,*4C",,,,
2022-01-14T16:36:15+01:00,138,30.62,19.13,1019.37,322.70,338.90,2,0,"$GNGGA,153610.000,4900.5196,N,00825.4733,E,1,8,2.72,112.8,M,47.9,M,,*47",,,,
2022-01-14T16:36:36+01:00,139,30.63,19.20,1019.37,331.30,347.90,2,0,"$GNGGA,153631.000,4900.5220,N,00825.4742,E,1,8,2.72,112.5,M,47.9,M,,*41",,,,
2022-01-14T16:36:56+01:00,140,30.64,19.17,1019.37,329.30,345.80,2,0,"$GNGGA,153651.000,4900.5213,N,00825.4729,E,1,8,2.73,112.3,M,47.9,M,,*4D",,,,
2022-01-14T16:37:17+01:00,141,30.66,19.16,1019.37,330.90,347.50,2,0,"$GNGGA,153712.000,4900.5193,N,00825.4629,E,1,7,2.90,111.4,M,47.9,M,,*47",,,,
2022-01-14T16:37:38+01:00,142,30.67,19.12,1019.36,322.90,339.10,2,0,"$GNGGA,153733.000,4900.5195,N,00825.4697,E,1,8,2.73,109.3,M,47.9,M,,*4B",,,,
2022-01-14T16:37:59+01:00,143,30.68,19.09,1019.36,333.00,349.70,2,0,"$GNGGA,153754.000,4900.5193,N,00825.4624,E,1,8,2.74,108.8,M,47.9,M,,*49",,,,
2022-01-14T16:38:20+01:00,144,30.70,19.04,1019.37,332.10,348.80,2,0,"$GNGGA,153815.000,4900.5201,N,00825.4623,E,1,8,2.74,109.8,M,47.9,M,,*4D",,,,
2022-01-14T16:38:41+01:00,145,30.71,19.05,1019.37,332.80,349.50,2,0,"$GNGGA,153836.000,4900.5188,N,00825.4577,E,1,8,2.74,109.4,M,47.9,M,,*40",,,,
2022-01-14T16:39:01+01:00,146,30.71,19.02,1019.37,317.10,333.00,2,0,"$GNGGA,153856.000,4900.5236,N,00825.4656,E,1,8,2.74,111.3,M,47.9,M,,*4E",,,,
2022-01-14T16:39:21+01:00,147,30.73,18.99,1019.37,328.70,345.20,2,0,"$GNGGA,153916.000,4900.5248,N,00825.4682,E,1,8,2.75,112.3,M,47.9,M,,*49",,,,
2022-01-14T16:39:42+01:00,148,30.74,18.99,1019.37,338.40,355.40,2,0,"$GNGGA,153937.000,4900.5232,N,00825.4712,E,1,8,2.75,112.1,M,47.9,M,,*4D",,,,
2022-01-14T16:40:02+01:00,149,30.75,19.04,1019.37,360.00,378.10,2,0,"$GNGGA,153957.000,4900.5207,N,00825.4690,E,1,8,4.40,107.1,M,47.9,M,,*42",,,,
2022-01-14T16:40:22+01:00,150,30.76,19.01,1019.36,360.90,379.00,2,0,"$GNGGA,154017.000,4900.5223,N,00825.4551,E,1,9,2.17,106.7,M,47.9,M,,*42",,,,
2022-01-14T16:40:43+01:00,151,30.77,18.95,1019.36,355.40,373.20,2,0,"$GNGGA,154038.000,4900.5231,N,00825.4556,E,1,9,2.17,106.1,M,47.9,M,,*4D",,,,
2022-01-14T16:41:04+01:00,152,30.77,18.96,1019.36,349.80,367.30,2,0,"$GNGGA,154059.000,4900.5254,N,00825.4492,E,1,8,2.87,109.4,M,47.9,M,,*42",,,,
2022-01-14T16:41:24+01:00,153,30.79,18.95,1019.36,332.00,348.70,2,0,"$GNGGA,154119.000,4900.5241,N,00825.4417,E,1,8,2.23,110.1,M,47.9,M,,*4D",,,,
2022-01-14T16:41:45+01:00,154,30.79,18.97,1019.36,310.70,326.30,2,0,"$GNGGA,154140.000,4900.5241,N,00825.4428,E,1,8,2.23,107.9,M,47.9,M,,*43",,,,
2022-01-14T16:42:05+01:00,155,30.80,19.00,1019.35,299.10,314.10,2,0,"$GNGGA,154200.000,4900.5236,N,00825.4543,E,1,8,2.24,107.2,M,47.9,M,,*44",,,,
2022-01-14T16:42:26+01:00,156,30.81,18.97,1019.36,302.10,317.30,2,0,"$GNGGA,154221.000,4900.5207,N,00825.4694,E,1,7,2.26,112.6,M,47.9,M,,*41",,,,
2022-01-14T16:42:48+01:00,157,30.82,19.01,1019.37,319.30,335.30,2,0,"$GNGGA,154242.000,4900.5209,N,00825.4433,E,1,6,2.68,114.2,M,47.9,M,,*4C",,,,
2022-01-14T16:43:08+01:00,158,30.82,19.04,1019.37,326.70,343.10,2,0,"$GNGGA,154303.000,4900.5232,N,00825.4398,E,1,7,2.27,115.0,M,47.9,M,,*4F",,,,
2022-01-14T16:43:29+01:00,159,30.82,18.98,1019.37,328.60,345.10,2,0,"$GNGGA,154324.000,4900.5227,N,00825.4403,E,1,8,2.26,117.2,M,47.9,M,,*45",,,,
2022-01-14T16:43:49+01:00,160,30.82,18.95,1019.37,328.90,345.40,2,0,"$GNGGA,154344.000,4900.5211,N,00825.4536,E,1,8,2.27,116.2,M,47.9,M,,*41",,,,
2022-01-14T16:44:10+01:00,161,30.83,18.95,1019.37,329.80,346.30,2,0,"$GNGGA,154405.000,4900.5210,N,00825.4551,E,1,8,2.27,113.1,M,47.9,M,,*45",,,,
2022-01-14T16:44:31+01:00,162,30.83,18.93,1019.37,327.80,344.20,2,0,"$GNGGA,154426.000,4900.5242,N,00825.4571,E,1,8,2.28,111.7,M,47.9,M,,*4A",,,,
2022-01-14T16:44:51+01:00,163,30.83,18.94,1019.36,321.40,337.50,2,0,"$GNGGA,154446.000,4900.5250,N,00825.4580,E,1,8,2.29,113.6,M,47.9,M,,*43",,,,
2022-01-14T16:45:11+01:00,164,30.84,18.89,1019.37,327.40,343.80,2,0,"$GNGGA,154506.000,4900.5221,N,00825.4605,E,1,8,2.29,114.4,M,47.9,M,,*4B",,,,
2022-01-14T16:45:32+01:00,165,30.84,18.83,1019.36,329.00,345.50,2,0,"$GNGGA,154527.000,4900.5204,N,00825.4519,E,1,8,2.30,110.7,M,47.9,M,,*4E",,,,
2022-01-14T16:45:53+01:00,166,30.85,18.81,1019.35,325.50,341.80,2,0,"$GNGGA,154548.000,4900.5210,N,00825.4609,E,1,8,3.08,104.0,M,47.9,M,,*48",,,,
2022-01-14T16:46:14+01:00,167,30.85,18.80,1019.35,312.10,327.80,2,0,"$GNGGA,154609.000,4900.5261,N,00825.4615,E,1,8,2.31,100.2,M,47.9,M,,*48",,,,
2022-01-14T16:46:35+01:00,168,30.86,18.85,1019.35,313.30,329.00,2,0,"$GNGGA,154630.000,4900.5222,N,00825.4554,E,1,8,3.11,98.8,M,47.9,M,,*7A",,,,
2022-01-14T16:46:55+01:00,169,30.86,18.83,1019.35,314.20,330.00,2,0,"$GNGGA,154650.000,4900.5194,N,00825.4360,E,1,8,2.33,104.7,M,47.9,M,,*49",,,,
2022-01-14T16:47:16+01:00,170,30.87,18.78,1019.35,320.80,336.90,2,0,"$GNGGA,154711.000,4900.5194,N,00825.4458,E,1,8,3.15,107.8,M,47.9,M,,*48",,,,
2022-01-14T16:47:37+01:00,171,30.87,18.79,1019.35,327.40,343.80,2,0,"$GNGGA,154732.000,4900.5228,N,00825.4611,E,1,8,2.34,110.9,M,47.9,M,,*47",,,,
2022-01-14T16:47:57+01:00,172,30.88,18.78,1019.35,332.20,348.90,2,0,"$GNGGA,154752.000,4900.5235,N,00825.4575,E,1,8,3.18,119.1,M,47.9,M,,*42",,,,
2022-01-14T16:48:17+01:00,173,30.88,18.78,1019.36,334.30,351.10,2,0,"$GNGGA,154812.000,4900.5229,N,00825.4623,E,1,8,2.35,122.4,M,47.9,M,,*47",,,,
2022-01-14T16:48:38+01:00,174,30.89,18.76,1019.37,325.00,341.30,2,0,"$GNGGA,154833.000,4900.5237,N,00825.4522,E,1,8,3.22,127.6,M,47.9,M,,*49",,,,
2022-01-14T16:48:58+01:00,175,30.89,18.79,1019.37,319.60,335.60,2,0,"$GNGGA,154853.000,4900.5277,N,00825.4710,E,1,8,2.36,126.9,M,47.9,M,,*42",,,,
2022-01-14T16:49:19+01:00,176,30.89,18.82,1019.38,312.70,328.40,2,0,"$GNGGA,154914.000,4900.5265,N,00825.4492,E,1,8,3.25,124.4,M,47.9,M,,*46",,,,
2022-01-14T16:49:40+01:00,177,30.89,18.81,1019.38,308.00,323.50,2,0,"$GNGGA,154935.000,4900.5250,N,00825.4715,E,1,8,2.38,121.4,M,47.9,M,,*47",,,,
2022-01-14T16:50:00+01:00,178,30.88,18.83,1019.38,312.10,327.80,2,0,"$GNGGA,154955.000,4900.5316,N,00825.4662,E,1,8,2.38,115.0,M,47.9,M,,*40",,,,
2022-01-14T16:50:21+01:00,179,30.88,18.79,1019.40,309.40,324.90,2,0,"$GNGGA,155016.000,4900.5321,N,00825.4707,E,1,6,2.93,103.3,M,47.9,M,,*42",,,,
2022-01-14T16:50:42+01:00,180,30.88,18.76,1019.40,301.10,316.20,2,0,"$GNGGA,155037.000,4900.5280,N,00825.4943,E,1,8,2.72,92.2,M,47.9,M,,*7C",,,,
2022-01-14T16:51:03+01:00,181,30.88,18.77,1019.40,293.90,308.60,2,0,"$GNGGA,155058.000,4900.5275,N,00825.4798,E,1,8,2.41,86.8,M,47.9,M,,*78",,,,
2022-01-14T16:51:24+01:00,182,30.89,18.77,1019.40,283.50,297.70,2,0,"$GNGGA,155119.000,4900.5236,N,00825.4705,E,1,8,2.41,86.9,M,47.9,M,,*7E",,,,
2022-01-14T16:51:45+01:00,183,30.89,18.73,1019.41,284.50,298.80,2,0,"$GNGGA,155140.000,4900.5242,N,00825.4844,E,1,8,2.42,84.0,M,47.9,M,,*73",,,,
2022-01-14T16:52:06+01:00,184,30.89,18.70,1019.42,296.00,310.90,2,0,"$GNGGA,155201.000,4900.5260,N,00825.4965,E,1,8,2.43,78.8,M,47.9,M,,*7D",,,,
2022-01-14T16:52:27+01:00,185,30.89,18.67,1019.42,310.30,325.90,2,0,"$GNGGA,155222.000,4900.5286,N,00825.4823,E,1,8,2.43,77.8,M,47.9,M,,*78",,,,
2022-01-14T16:52:48+01:00,186,30.89,18.66,1019.43,305.10,320.40,2,0,"$GNGGA,155243.000,4900.5298,N,00825.4844,E,1,8,2.44,77.9,M,47.9,M,,*77",,,,
2022-01-14T16:53:08+01:00,187,30.88,18.67,1019.42,286.80,301.20,2,0,"$GNGGA,155303.000,4900.5318,N,00825.4682,E,1,7,2.48,78.2,M,47.9,M,,*78",,,,
2022-01-14T16:53:29+01:00,188,30.88,18.66,1019.43,290.40,305.00,2,0,"$GNGGA,155324.000,4900.5273,N,00825.4562,E,1,7,2.91,74.0,M,47.9,M,,*76",,,,
2022-01-14T16:53:50+01:00,189,30.88,18.67,1019.43,295.30,310.10,2,0,"$GNGGA,155345.000,4900.5167,N,00825.4938,E,1,7,2.49,75.7,M,47.9,M,,*77",,,,
2022-01-14T16:54:11+01:00,190,30.87,18.65,1019.43,300.40,315.50,2,0,"$GNGGA,155406.000,4900.5219,N,00825.4755,E,1,8,2.47,79.2,M,47.9,M,,*70",,,,
2022-01-14T16:54:32+01:00,191,30.87,18.63,1019.43,302.00,317.20,2,0,"$GNGGA,155427.000,4900.5270,N,00825.4658,E,1,7,2.51,75.5,M,47.9,M,,*73",,,,
2022-01-14T16:54:52+01:00,192,30.87,18.66,1019.44,306.50,321.90,2,0,"$GNGGA,155447.000,4900.5248,N,00825.4647,E,1,8,2.48,71.0,M,47.9,M,,*76",,,,
2022-01-14T16:55:13+01:00,193,30.87,18.69,1019.42,306.80,322.20,2,0,"$GNGGA,155508.000,4900.5235,N,00825.4588,E,1,7,2.92,71.7,M,47.9,M,,*79",,,,
2022-01-14T16:55:34+01:00,194,30.87,18.70,1019.43,305.30,320.60,2,0,"$GNGGA,155529.000,4900.5203,N,00825.4802,E,1,8,2.50,76.8,M,47.9,M,,*79",,,,
2022-01-14T16:55:54+01:00,195,30.87,18.66,1019.43,296.00,310.90,2,0,"$GNGGA,155549.000,4900.5245,N,00825.4565,E,1,8,2.51,82.8,M,47.9,M,,*7B",,,,
2022-01-14T16:56:15+01:00,196,30.87,18.67,1019.43,292.00,306.70,2,0,"$GNGGA,155610.000,4900.5257,N,00825.4643,E,1,8,2.51,90.0,M,47.9,M,,*7B",,,,
2022-01-14T16:56:36+01:00,197,30.87,18.69,1019.43,292.30,307.00,2,0,"$GNGGA,155631.000,4900.5267,N,00825.4670,E,1,8,2.52,92.1,M,47.9,M,,*7B",,,,
2022-01-14T16:56:56+01:00,198,30.86,18.67,1019.43,312.80,328.50,2,0,"$GNGGA,155651.000,4900.5236,N,00825.4707,E,1,8,2.53,93.8,M,47.9,M,,*71",,,,
2022-01-14T16:57:17+01:00,199,30.85,18.65,1019.44,317.20,333.10,2,0,"$GNGGA,155712.000,4900.5295,N,00825.4636,E,1,7,2.93,93.6,M,47.9,M,,*70",,,,
2022-01-14T16:57:38+01:00,200,30.82,18.67,1019.44,305.40,320.70,2,0,"$GNGGA,155733.000,4900.5303,N,00825.4550,E,1,8,2.54,92.8,M,47.9,M,,*75",,,,
2022-01-14T16:57:59+01:00,201,30.80,18.74,1019.44,293.50,308.20,2,0,"$GNGGA,155753.000,4900.5298,N,00825.4483,E,1,7,2.58,89.8,M,47.9,M,,*76",,,,
2022-01-14T16:58:19+01:00,202,30.77,18.77,1019.44,299.80,314.80,2,0,"$GNGGA,155814.000,4900.5312,N,00825.4409,E,1,7,2.59,83.5,M,47.9,M,,*7D",,,,
2022-01-14T16:58:40+01:00,203,30.75,18.79,1019.44,309.80,325.30,2,0,"$GNGGA,155835.000,4900.5357,N,00825.4372,E,1,7,2.59,80.0,M,47.9,M,,*72",,,,
2022-01-14T16:59:00+01:00,204,30.73,18.78,1019.45,306.30,321.70,2,0,"$GNGGA,155855.000,4900.5379,N,00825.4475,E,1,7,2.60,76.8,M,47.9,M,,*73",,,,
2022-01-14T16:59:21+01:00,205,30.72,18.73,1019.45,305.80,321.10,2,0,"$GNGGA,155916.000,4900.5353,N,00825.4678,E,1,7,2.61,81.9,M,47.9,M,,*7A",,,,
2022-01-14T16:59:42+01:00,206,30.71,18.70,1019.46,310.40,326.00,2,0,"$GNGGA,155937.000,4900.5312,N,00825.4775,E,1,7,2.62,79.4,M,47.9,M,,*79",,,,
2022-01-14T17:00:02+01:00,207,30.70,18.67,1019.48,303.80,319.00,2,0,"$GNGGA,155957.000,4900.5362,N,00825.4512,E,1,7,2.73,77.8,M,47.9,M,,*79",,,,
2022-01-14T17:00:22+01:00,208,30.69,18.64,1019.49,302.80,318.00,2,0,"$GNGGA,160017.000,4900.5373,N,00825.4439,E,1,6,2.94,72.9,M,47.9,M,,*76",,,,
2022-01-14T17:00:43+01:00,209,30.68,18.65,1019.50,294.90,309.70,2,0,"$GNGGA,160038.000,4900.5327,N,00825.4682,E,1,5,4.46,71.2,M,47.9,M,,*7A",,,,
2022-01-14T17:01:03+01:00,210,30.67,18.66,1019.51,304.60,319.90,2,0,"$GNGGA,160058.000,4900.5292,N,00825.4800,E,1,7,2.75,74.1,M,47.9,M,,*75",,,,
2022-01-14T17:01:23+01:00,211,30.66,18.69,1019.51,303.60,318.80,2,0,"$GNGGA,160118.000,4900.5307,N,00825.5155,E,1,7,2.75,82.5,M,47.9,M,,*78",,,,
2022-01-14T17:01:44+01:00,212,30.66,18.70,1019.51,311.10,326.70,2,0,"$GNGGA,160139.000,4900.5321,N,00825.4938,E,1,7,2.76,94.1,M,47.9,M,,*7D",,,,
2022-01-14T17:02:04+01:00,213,30.65,18.67,1019.51,301.20,316.30,2,0,"$GNGGA,160159.000,4900.5273,N,00825.4585,E,1,7,2.77,107.8,M,47.9,M,,*44",,,,
2022-01-14T17:02:24+01:00,214,30.65,18.70,1019.53,294.30,309.10,2,0,"$GNGGA,160219.000,4900.5296,N,00825.4743,E,1,7,2.78,122.1,M,47.9,M,,*41",,,,
2022-01-14T17:02:45+01:00,215,30.65,18.72,1019.53,285.10,299.40,2,0,"$GNGGA,160240.000,4900.5264,N,00825.4621,E,1,7,2.78,127.6,M,47.9,M,,*47",,,,
2022-01-14T17:03:05+01:00,216,30.64,18.68,1019.53,295.00,309.80,2,0,"$GNGGA,160300.000,4900.5299,N,00825.4987,E,1,7,2.79,129.9,M,47.9,M,,*43",,,,
2022-01-14T17:03:26+01:00,217,30.64,18.67,1019.54,297.20,312.10,2,0,"$GNGGA,160321.000,4900.5318,N,00825.5117,E,1,7,2.80,136.2,M,47.9,M,,*4B",,,,
2022-01-14T17:03:47+01:00,218,30.63,18.69,1019.54,305.30,320.60,2,0,"$GNGGA,160342.000,4900.5278,N,00825.5008,E,1,7,2.81,139.0,M,47.9,M,,*4A",,,,
2022-01-14T17:04:07+01:00,219,30.62,18.66,1019.54,309.40,324.90,2,0,"$GNGGA,160402.000,4900.5305,N,00825.4878,E,1,7,2.81,140.8,M,47.9,M,,*4A",,,,
2022-01-14T17:04:27+01:00,220,30.62,18.64,1019.54,325.00,341.30,2,0,"$GNGGA,160422.000,4900.5291,N,00825.4593,E,1,7,2.82,141.7,M,47.9,M,,*41",,,,
2022-01-14T17:04:48+01:00,221,30.61,18.66,1019.54,336.40,353.30,2,0,"$GNGGA,160443.000,4900.5323,N,00825.4380,E,1,7,2.83,140.3,M,47.9,M,,*4E",,,,
2022-01-14T17:05:09+01:00,222,30.60,18.71,1019.55,347.20,364.60,2,0,"$GNGGA,160504.000,4900.5375,N,00825.4719,E,1,6,3.62,134.8,M,47.9,M,,*4C",,,,
2022-01-14T17:05:30+01:00,223,30.60,18.72,1019.55,334.90,351.70,2,0,"$GNGGA,160525.000,4900.5359,N,00825.4753,E,1,6,2.94,135.8,M,47.9,M,,*46",,,,
2022-01-14T17:05:50+01:00,224,30.60,18.74,1019.55,334.70,351.50,2,0,"$GNGGA,160545.000,4900.5343,N,00825.4892,E,1,7,2.85,138.7,M,47.9,M,,*4A",,,,
2022-01-14T17:06:10+01:00,225,30.60,18.77,1019.53,341.60,358.70,2,0,"$GNGGA,160605.000,4900.5226,N,00825.4747,E,1,7,2.86,121.4,M,47.9,M,,*40",,,,
2022-01-14T17:06:31+01:00,226,30.59,18.73,1019.54,348.20,365.70,2,0,"$GNGGA,160626.000,4900.5264,N,00825.4612,E,1,6,2.97,108.6,M,47.9,M,,*4E",,,,
2022-01-14T17:06:51+01:00,227,30.59,18.71,1019.53,349.60,367.10,2,0,"$GNGGA,160646.000,4900.5250,N,00825.4421,E,1,6,2.98,98.1,M,47.9,M,,*7D",,,,
2022-01-14T17:07:11+01:00,228,30.59,18.78,1019.52,345.20,362.50,2,0,"$GNGGA,160706.000,4900.5260,N,00825.4313,E,1,6,3.68,95.4,M,47.9,M,,*7B",,,,
2022-01-14T17:07:32+01:00,229,30.59,18.81,1019.52,346.00,363.40,2,0,"$GNGGA,160727.000,4900.5236,N,00825.4436,E,1,6,3.69,98.7,M,47.9,M,,*74",,,,
2022-01-14T17:07:52+01:00,230,30.59,18.82,1019.52,339.90,356.90,2,0,"$GNGGA,160747.000,4900.5202,N,00825.4586,E,1,7,2.89,108.2,M,47.9,M,,*4C",,,,
2022-01-14T17:08:12+01:00,231,30.59,18.82,1019.51,339.50,356.50,2,0,"$GNGGA,160807.000,4900.5209,N,00825.4528,E,1,7,2.90,111.6,M,47.9,M,,*4C",,,,
2022-01-14T17:08:33+01:00,232,30.58,18.77,1019.50,346.50,363.90,2,0,"$GNGGA,160828.000,4900.5216,N,00825.4536,E,1,7,2.91,112.5,M,47.9,M,,*41",,,,
2022-01-14T17:08:54+01:00,233,30.58,18.74,1019.51,352.30,370.00,2,0,"$GNGGA,160849.000,4900.5261,N,00825.4423,E,1,7,2.91,110.2,M,47.9,M,,*46",,,,
2022-01-14T17:09:14+01:00,234,30.58,18.69,1019.50,347.70,365.10,2,0,"$GNGGA,160909.000,4900.5305,N,00825.4269,E,1,7,2.92,108.3,M,47.9,M,,*43",,,,
2022-01-14T17:09:35+01:00,235,30.58,18.71,1019.50,341.20,358.30,2,0,"$GNGGA,160930.000,4900.5352,N,00825.4187,E,1,6,3.22,102.3,M,47.9,M,,*49",,,,
2022-01-14T17:09:55+01:00,236,30.58,18.69,1019.50,345.90,363.20,2,0,"$GNGGA,160950.000,4900.5318,N,00825.4367,E,1,6,3.23,95.0,M,47.9,M,,*70",,,,
2022-01-14T17:10:15+01:00,237,30.58,18.64,1019.50,351.90,369.50,2,0,"$GNGGA,161010.000,4900.5300,N,00825.4567,E,1,7,2.94,92.2,M,47.9,M,,*7A",,,,
2022-01-14T17:10:36+01:00,238,30.58,18.61,1019.49,360.20,378.30,2,0,"$GNGGA,161031.000,4900.5245,N,00825.4360,E,1,6,3.07,93.5,M,47.9,M,,*74",,,,
2022-01-14T17:10:56+01:00,239,30.58,18.67,1019.50,371.70,390.30,2,0,"$GNGGA,161051.000,4900.5233,N,00825.4459,E,1,7,2.95,95.3,M,47.9,M,,*75",,,,
2022-01-14T17:11:17+01:00,240,30.58,18.71,1019.49,376.80,395.70,2,0,"$GNGGA,161112.000,4900.5240,N,00825.4646,E,1,7,2.96,98.1,M,47.9,M,,*77",,,,
2022-01-14T17:11:38+01:00,241,30.58,18.79,1019.50,367.40,385.80,2,0,"$GNGGA,161133.000,4900.5209,N,00825.4622,E,1,7,2.97,101.2,M,47.9,M,,*48",,,,
2022-01-14T17:11:58+01:00,242,30.58,18.81,1019.51,339.20,356.20,2,0,"$GNGGA,161153.000,4900.5218,N,00825.4473,E,1,7,2.98,101.4,M,47.9,M,,*41",,,,
2022-01-14T17:12:19+01:00,243,30.59,18.82,1019.51,335.60,352.40,2,0,"$GNGGA,161214.000,4900.5216,N,00825.4554,E,1,7,2.98,98.3,M,47.9,M,,*7D",,,,
2022-01-14T17:12:40+01:00,244,30.58,18.82,1019.53,339.80,356.80,2,0,"$GNGGA,161235.000,4900.5207,N,00825.4673,E,1,6,3.20,98.3,M,47.9,M,,*7B",,,,
2022-01-14T17:13:00+01:00,245,30.58,18.84,1019.53,347.50,364.90,2,0,"$GNGGA,161255.000,4900.5215,N,00825.4894,E,1,6,3.20,100.7,M,47.9,M,,*4D",,,,
2022-01-14T17:13:21+01:00,246,30.57,18.83,1019.54,341.20,358.30,2,0,"$GNGGA,161316.000,4900.5221,N,00825.4755,E,1,7,3.00,105.4,M,47.9,M,,*4B",,,,
2022-01-14T17:13:42+01:00,247,30.57,18.80,1019.53,347.90,365.30,2,0,"$GNGGA,161337.000,4900.5210,N,00825.4595,E,1,7,3.01,105.3,M,47.9,M,,*42",,,,
2022-01-14T17:14:02+01:00,248,30.56,18.76,1019.54,349.50,367.00,2,0,"$GNGGA,161357.000,4900.5199,N,00825.4547,E,1,6,3.19,106.0,M,47.9,M,,*41",,,,
2022-01-14T17:14:23+01:00,249,30.56,18.71,1019.55,340.60,357.70,2,0,"$GNGGA,161418.000,4900.5188,N,00825.4601,E,1,6,3.39,105.8,M,47.9,M,,*45",,,,
2022-01-14T17:14:44+01:00,250,30.55,18.68,1019.55,342.30,359.50,2,0,"$GNGGA,161439.000,4900.5144,N,00825.4671,E,1,6,3.40,106.6,M,47.9,M,,*42",,,,
2022-01-14T17:15:04+01:00,251,30.55,18.71,1019.56,345.50,362.80,2,0,"$GNGGA,161459.000,4900.5129,N,00825.4626,E,1,5,4.13,107.2,M,47.9,M,,*4A",,,,
2022-01-14T17:15:25+01:00,252,30.55,18.70,1019.57,345.90,363.20,2,0,"$GNGGA,161520.000,4900.5175,N,00825.4291,E,1,5,4.15,107.9,M,47.9,M,,*49",,,,
2022-01-14T17:15:46+01:00,253,30.55,18.70,1019.58,342.80,360.00,2,0,"$GNGGA,161541.000,4900.5149,N,00825.4763,E,1,5,4.16,108.2,M,47.9,M,,*4E",,,,
2022-01-14T17:16:06+01:00,254,30.55,18.75,1019.60,342.30,359.50,2,0,"$GNGGA,161601.000,4900.5229,N,00825.4675,E,1,6,3.96,108.0,M,47.9,M,,*44",,,,
2022-01-14T17:16:27+01:00,255,30.55,18.78,1019.61,344.50,361.80,2,0,"$GNGGA,161622.000,4900.5192,N,00825.4481,E,1,6,3.97,107.9,M,47.9,M,,*48",,,,
2022-01-14T17:16:48+01:00,256,30.54,18.83,1019.62,347.50,364.90,2,0,"$GNGGA,161643.000,4900.5199,N,00825.4896,E,1,4,7.42,105.0,M,47.9,M,,*4B",,,,
2022-01-14T17:17:08+01:00,257,30.54,18.79,1019.63,350.10,367.70,2,0,"$GNGGA,161703.000,4900.5234,N,00825.5278,E,1,4,7.50,107.7,M,47.9,M,,*47",,,,
2022-01-14T17:17:29+01:00,258,30.54,18.73,1019.65,353.10,370.80,2,0,"$GNGGA,161724.000,4900.5261,N,00825.5593,E,1,6,4.31,113.3,M,47.9,M,,*47",,,,
2022-01-14T17:17:50+01:00,259,30.55,18.65,1019.65,355.70,373.50,2,0,"$GNGGA,161745.000,4900.5272,N,00825.5578,E,1,6,3.30,115.4,M,47.9,M,,*40",,,,
2022-01-14T17:18:10+01:00,260,30.55,18.61,1019.65,345.90,363.20,2,0,"$GNGGA,161805.000,4900.5227,N,00825.5586,E,1,7,3.09,121.6,M,47.9,M,,*44",,,,
2022-01-14T17:18:30+01:00,261,30.56,18.58,1019.65,337.30,354.20,2,0,"$GNGGA,161825.000,4900.5217,N,00825.5366,E,1,7,3.10,122.9,M,47.9,M,,*49",,,,
2022-01-14T17:18:51+01:00,262,30.56,18.54,1019.65,323.10,339.30,2,0,"$GNGGA,161846.000,4900.5231,N,00825.5180,E,1,7,3.10,112.3,M,47.9,M,,*4B",,,,
2022-01-14T17:19:11+01:00,263,30.57,18.51,1019.65,321.60,337.70,2,0,"$GNGGA,161906.000,4900.5273,N,00825.5168,E,1,7,3.11,108.7,M,47.9,M,,*40",,,,
2022-01-14T17:19:32+01:00,264,30.57,18.55,1019.64,319.60,335.60,2,0,"$GNGGA,161927.000,4900.5272,N,00825.5042,E,1,7,3.11,106.2,M,47.9,M,,*40",,,,
2022-01-14T17:19:53+01:00,265,30.57,18.57,1019.63,333.40,350.10,2,0,"$GNGGA,161948.000,4900.5217,N,00825.5074,E,1,7,5.40,107.1,M,47.9,M,,*4F",,,,
2022-01-14T17:20:13+01:00,266,30.56,18.58,1019.63,341.20,358.30,2,0,"$GNGGA,162008.000,4900.5149,N,00825.5010,E,1,7,3.12,110.3,M,47.9,M,,*4E",,,,
2022-01-14T17:20:34+01:00,267,30.56,18.73,1019.62,345.00,362.30,2,0,"$GNGGA,162029.000,4900.5165,N,00825.4780,E,1,5,4.48,106.7,M,47.9,M,,*45",,,,
2022-01-14T17:20:55+01:00,268,30.56,18.70,1019.62,336.50,353.40,2,0,"$GNGGA,162050.000,4900.5189,N,00825.4703,E,1,5,3.48,106.1,M,47.9,M,,*43",,,,
2022-01-14T17:21:15+01:00,269,30.55,18.66,1019.63,340.00,357.10,2,0,"$GNGGA,162110.000,4900.5163,N,00825.4861,E,1,6,3.31,105.8,M,47.9,M,,*4E",,,,
2022-01-14T17:21:35+01:00,270,30.56,18.66,1019.62,338.60,355.60,2,0,"$GNGGA,162130.000,4900.5194,N,00825.5006,E,1,7,3.14,101.5,M,47.9,M,,*43",,,,
2022-01-14T17:21:56+01:00,271,30.56,18.85,1019.62,336.90,353.80,2,0,"$GNGGA,162151.000,4900.5206,N,00825.4938,E,1,6,4.07,98.6,M,47.9,M,,*7F",,,,
2022-01-14T17:22:17+01:00,272,30.56,18.94,1019.62,327.10,343.50,2,0,"$GNGGA,162212.000,4900.5216,N,00825.4776,E,1,6,4.08,102.1,M,47.9,M,,*44",,,,
2022-01-14T17:22:37+01:00,273,30.56,19.05,1019.63,323.30,339.50,2,0,"$GNGGA,162232.000,4900.5220,N,00825.4809,E,1,6,4.08,108.7,M,47.9,M,,*48",,,,
2022-01-14T17:22:58+01:00,274,30.56,19.12,1019.64,328.50,345.00,2,0,"$GNGGA,162253.000,4900.5210,N,00825.4784,E,1,6,4.08,114.3,M,47.9,M,,*4F",,,,
2022-01-14T17:23:18+01:00,275,30.55,19.08,1019.63,330.30,346.90,2,0,"$GNGGA,162313.000,4900.5186,N,00825.4679,E,1,6,4.09,117.3,M,47.9,M,,*47",,,,
2022-01-14T17:23:38+01:00,276,30.54,19.00,1019.64,331.30,347.90,2,0,"$GNGGA,162333.000,4900.5199,N,00825.4479,E,1,6,4.09,118.3,M,47.9,M,,*46",,,,
2022-01-14T17:23:59+01:00,277,30.54,19.00,1019.65,328.40,344.90,2,0,"$GNGGA,162354.000,4900.5186,N,00825.4410,E,1,6,4.09,121.0,M,47.9,M,,*4F",,,,
2022-01-14T17:24:19+01:00,278,30.54,19.02,1019.65,333.30,350.00,2,0,"$GNGGA,162414.000,4900.5193,N,00825.4312,E,1,6,4.09,117.8,M,47.9,M,,*40",,,,
2022-01-14T17:24:40+01:00,279,30.54,19.01,1019.64,334.90,351.70,2,0,"$GNGGA,162435.000,4900.5192,N,00825.4500,E,1,6,4.09,113.1,M,47.9,M,,*4A",,,,
2022-01-14T17:25:01+01:00,280,30.54,19.11,1019.65,339.20,356.20,2,0,"$GNGGA,162456.000,4900.5202,N,00825.4810,E,1,7,3.19,109.3,M,47.9,M,,*47",,,,
2022-01-14T17:25:21+01:00,281,30.53,19.07,1019.65,334.30,351.10,2,0,"$GNGGA,162516.000,4900.5207,N,00825.4954,E,1,7,3.19,110.0,M,47.9,M,,*4D",,,,
2022-01-14T17:25:42+01:00,282,30.54,19.02,1019.65,330.80,347.40,2,0,"$GNGGA,162537.000,4900.5217,N,00825.4746,E,1,5,3.71,113.2,M,47.9,M,,*4F",,,,
2022-01-14T17:26:03+01:00,283,30.53,18.89,1019.66,326.80,343.20,2,0,"$GNGGA,162558.000,4900.5233,N,00825.4164,E,1,6,3.67,117.2,M,47.9,M,,*46",,,,
2022-01-14T17:26:23+01:00,284,30.53,18.85,1019.65,342.60,359.80,2,0,"$GNGGA,162618.000,4900.5228,N,00825.4089,E,1,6,5.49,116.6,M,47.9,M,,*46",,,,
2022-01-14T17:26:43+01:00,285,30.53,18.84,1019.66,349.10,366.60,2,0,"$GNGGA,162638.000,4900.5220,N,00825.4108,E,1,5,3.73,110.8,M,47.9,M,,*40",,,,
2022-01-14T17:27:04+01:00,286,30.52,18.86,1019.66,351.20,368.80,2,0,"$GNGGA,162659.000,4900.5197,N,00825.4172,E,1,6,3.38,108.5,M,47.9,M,,*4D",,,,
2022-01-14T17:27:24+01:00,287,30.52,18.86,1019.65,350.00,367.60,2,0,"$GNGGA,162719.000,4900.5202,N,00825.4599,E,1,7,3.22,111.1,M,47.9,M,,*40",,,,
2022-01-14T17:27:45+01:00,288,30.51,18.97,1019.66,340.80,357.90,2,0,"$GNGGA,162740.000,4900.5203,N,00825.4810,E,1,7,3.22,114.7,M,47.9,M,,*42",,,,
2022-01-14T17:28:06+01:00,289,30.51,19.00,1019.66,338.90,355.90,2,0,"$GNGGA,162801.000,4900.5202,N,00825.4614,E,1,6,3.39,110.5,M,47.9,M,,*4E",,,,
2022-01-14T17:28:26+01:00,290,30.50,18.77,1019.65,336.10,353.00,2,0,"$GNGGA,162821.000,4900.5205,N,00825.4686,E,1,6,3.40,104.6,M,47.9,M,,*48",,,,
2022-01-14T17:28:47+01:00,291,30.50,18.75,1019.65,347.30,364.70,2,0,"$GNGGA,162842.000,4900.5204,N,00825.4745,E,1,7,3.23,100.3,M,47.9,M,,*47",,,,
2022-01-14T17:29:08+01:00,292,30.49,18.77,1019.65,350.30,367.90,2,0,"$GNGGA,162903.000,4900.5194,N,00825.4695,E,1,7,3.23,93.9,M,47.9,M,,*74",,,,
2022-01-14T17:29:29+01:00,293,30.49,18.79,1019.65,335.80,352.60,2,0,"$GNGGA,162924.000,4900.5194,N,00825.4761,E,1,7,3.23,96.2,M,47.9,M,,*75",,,,
2022-01-14T17:29:49+01:00,294,30.48,18.70,1019.66,321.50,337.60,2,0,"$GNGGA,162944.000,4900.5183,N,00825.4647,E,1,7,3.24,100.2,M,47.9,M,,*49",,,,
2022-01-14T17:30:10+01:00,295,30.48,18.63,1019.65,305.60,320.90,2,0,"$GNGGA,163005.000,4900.5162,N,00825.4368,E,1,7,3.24,103.9,M,47.9,M,,*4B",,,,
2022-01-14T17:30:30+01:00,296,30.47,18.66,1019.66,308.60,324.10,2,0,"$GNGGA,163025.000,4900.5181,N,00825.4443,E,1,6,3.25,105.6,M,47.9,M,,*43",,,,
2022-01-14T17:30:50+01:00,297,30.47,18.63,1019.66,309.70,325.20,2,0,"$GNGGA,163045.000,4900.5186,N,00825.4428,E,1,7,3.24,105.9,M,47.9,M,,*40",,,,
2022-01-14T17:31:11+01:00,298,30.46,18.70,1019.67,306.80,322.20,2,0,"$GNGGA,163106.000,4900.5194,N,00825.4437,E,1,7,3.25,105.4,M,47.9,M,,*47",,,,
2022-01-14T17:31:31+01:00,299,30.46,18.79,1019.67,296.10,311.00,2,0,"$GNGGA,163126.000,4900.5201,N,00825.4586,E,1,7,5.35,104.1,M,47.9,M,,*42",,,,
2022-01-14T17:31:51+01:00,300,30.46,18.77,1019.69,291.50,306.10,2,0,"$GNGGA,163146.000,4900.5201,N,00825.4534,E,1,6,4.07,104.2,M,47.9,M,,*4F",,,,
2022-01-14T17:32:12+01:00,301,30.45,18.73,1019.69,298.60,313.60,2,0,"$GNGGA,163207.000,4900.5208,N,00825.4601,E,1,6,4.07,105.0,M,47.9,M,,*46",,,,
2022-01-14T17:32:32+01:00,302,30.44,18.77,1019.69,307.40,322.80,2,0,"$GNGGA,163227.000,4900.5216,N,00825.4672,E,1,7,3.26,108.3,M,47.9,M,,*44",,,,
2022-01-14T17:32:52+01:00,303,30.43,18.80,1019.69,306.10,321.50,2,0,"$GNGGA,163247.000,4900.5209,N,00825.4596,E,1,7,3.26,111.1,M,47.9,M,,*4F",,,,
2022-01-14T17:33:13+01:00,304,30.43,18.80,1019.68,303.20,318.40,2,0,"$GNGGA,163308.000,4900.5217,N,00825.4534,E,1,7,5.27,115.2,M,47.9,M,,*42",,,,
2022-01-14T17:33:33+01:00,305,30.42,18.74,1019.67,303.80,319.00,2,0,"$GNGGA,163328.000,4900.5217,N,00825.4597,E,1,7,3.26,123.7,M,47.9,M,,*4E",,,,
2022-01-14T17:33:53+01:00,306,30.41,18.75,1019.67,300.00,315.10,2,0,"$GNGGA,163348.000,4900.5210,N,00825.4589,E,1,7,3.27,124.1,M,47.9,M,,*40",,,,
2022-01-14T17:34:14+01:00,307,30.41,18.70,1019.66,295.40,310.20,2,0,"$GNGGA,163409.000,4900.5214,N,00825.4581,E,1,7,3.27,123.9,M,47.9,M,,*41",,,,
2022-01-14T17:34:35+01:00,308,30.40,18.68,1019.64,286.30,300.70,2,0,"$GNGGA,163430.000,4900.5200,N,00825.4550,E,1,7,3.27,123.9,M,47.9,M,,*42",,,,
2022-01-14T17:34:56+01:00,309,30.40,18.73,1019.64,282.00,296.20,2,0,"$GNGGA,163451.000,4900.5193,N,00825.4282,E,1,7,5.18,120.9,M,47.9,M,,*4D",,,,
2022-01-14T17:35:17+01:00,310,30.40,18.66,1019.63,292.30,307.00,2,0,"$GNGGA,163512.000,4900.5206,N,00825.4366,E,1,7,3.27,120.2,M,47.9,M,,*4E",,,,
2022-01-14T17:35:37+01:00,311,30.39,18.65,1019.62,298.10,313.10,2,0,"$GNGGA,163532.000,4900.5213,N,00825.4730,E,1,6,4.02,126.4,M,47.9,M,,*4E",,,,
2022-01-14T17:35:58+01:00,312,30.38,18.62,1019.62,301.30,316.40,2,0,"$GNGGA,163553.000,4900.5199,N,00825.4431,E,1,5,4.12,126.5,M,47.9,M,,*49",,,,
2022-01-14T17:36:19+01:00,313,30.37,18.76,1019.62,295.00,309.80,2,0,"$GNGGA,163614.000,4900.5218,N,00825.4255,E,1,6,3.43,126.9,M,47.9,M,,*4B",,,,
2022-01-14T17:36:39+01:00,314,30.36,18.87,1019.62,306.10,321.50,2,0,"$GNGGA,163634.000,4900.5215,N,00825.4465,E,1,6,3.43,128.8,M,47.9,M,,*4E",,,,
2022-01-14T17:37:00+01:00,315,30.35,18.90,1019.61,334.20,351.00,2,0,"$GNGGA,163655.000,4900.5213,N,00825.4600,E,1,5,3.51,129.8,M,47.9,M,,*4F",,,,
2022-01-14T17:37:21+01:00,316,30.35,19.12,1019.61,349.30,366.80,2,0,"$GNGGA,163716.000,4900.5241,N,00825.4588,E,1,7,3.28,127.0,M,47.9,M,,*47",,,,
2022-01-14T17:37:41+01:00,317,30.35,18.98,1019.61,333.30,350.00,2,0,"$GNGGA,163736.000,4900.5226,N,00825.4728,E,1,7,5.02,127.9,M,47.9,M,,*4B",,,,
2022-01-14T17:38:01+01:00,318,30.35,18.85,1019.61,352.70,370.40,2,0,"$GNGGA,163756.000,4900.5228,N,00825.4770,E,1,7,4.99,126.5,M,47.9,M,,*40",,,,
2022-01-14T17:38:22+01:00,319,30.34,18.86,1019.60,356.50,374.40,2,0,"$GNGGA,163817.000,4900.5209,N,00825.4691,E,1,7,3.75,125.0,M,47.9,M,,*44",,,,
2022-01-14T17:38:42+01:00,320,30.34,18.89,1019.61,358.70,376.70,2,0,"$GNGGA,163837.000,4900.5208,N,00825.4616,E,1,6,3.42,125.9,M,47.9,M,,*44",,,,
2022-01-14T17:39:03+01:00,321,30.34,18.84,1019.62,347.40,364.80,2,0,"$GNGGA,163858.000,4900.5189,N,00825.4513,E,1,5,5.88,128.1,M,47.9,M,,*47",,,,
2022-01-14T17:39:24+01:00,322,30.35,18.74,1019.62,354.80,372.60,2,0,"$GNGGA,163919.000,4900.5174,N,00825.4309,E,1,5,5.89,136.4,M,47.9,M,,*47",,,,
2022-01-14T17:39:44+01:00,323,30.35,18.71,1019.62,358.10,376.10,2,0,"$GNGGA,163939.000,4900.5156,N,00825.4678,E,1,5,5.90,143.6,M,47.9,M,,*4E",,,,
2022-01-14T17:40:05+01:00,324,30.35,18.73,1019.62,352.80,370.50,2,0,"$GNGGA,164000.000,4900.5149,N,00825.4770,E,1,5,5.91,143.3,M,47.9,M,,*49",,,,
2022-01-14T17:40:26+01:00,325,30.36,18.79,1019.63,336.40,353.30,2,0,"$GNGGA,164021.000,4900.5147,N,00825.4402,E,1,5,5.92,143.9,M,47.9,M,,*4B",,,,
2022-01-14T17:40:46+01:00,326,30.36,18.94,1019.63,342.10,359.30,2,0,"$GNGGA,164041.000,4900.5075,N,00825.4818,E,1,6,2.81,143.8,M,47.9,M,,*4D",,,,
2022-01-14T17:41:06+01:00,327,30.37,18.99,1019.62,347.00,364.40,2,0,"$GNGGA,164101.000,4900.5150,N,00825.4619,E,1,7,2.38,135.5,M,47.9,M,,*4E",,,,
2022-01-14T17:41:27+01:00,328,30.37,18.86,1019.62,347.90,365.30,2,0,"$GNGGA,164122.000,4900.5175,N,00825.4634,E,1,8,2.23,127.9,M,47.9,M,,*4D",,,,
2022-01-14T17:41:47+01:00,329,30.38,18.79,1019.62,353.00,370.70,2,0,"$GNGGA,164142.000,4900.5244,N,00825.4728,E,1,7,2.24,122.1,M,47.9,M,,*43",,,,
2022-01-14T17:42:08+01:00,330,30.38,18.75,1019.61,359.00,377.00,2,0,"$GNGGA,164203.000,4900.5253,N,00825.4728,E,1,7,2.25,119.3,M,47.9,M,,*48",,,,
2022-01-14T17:42:29+01:00,331,30.39,18.83,1019.60,359.00,377.00,2,0,"$GNGGA,164224.000,4900.5253,N,00825.4659,E,1,8,2.23,117.2,M,47.9,M,,*4C",,,,
2022-01-14T17:42:50+01:00,332,30.39,18.89,1019.60,341.60,358.70,2,0,"$GNGGA,164245.000,4900.5244,N,00825.4680,E,1,8,4.69,119.6,M,47.9,M,,*4B",,,,
2022-01-14T17:43:10+01:00,333,30.40,18.94,1019.60,345.30,362.60,2,0,"$GNGGA,164305.000,4900.5251,N,00825.4666,E,1,8,2.24,117.4,M,47.9,M,,*41",,,,
2022-01-14T17:43:31+01:00,334,30.40,18.85,1019.60,345.10,362.40,2,0,"$GNGGA,164326.000,4900.5273,N,00825.4678,E,1,7,4.64,116.5,M,47.9,M,,*42",,,,
2022-01-14T17:43:51+01:00,335,30.41,18.82,1019.61,350.70,368.30,2,0,"$GNGGA,164346.000,4900.5227,N,00825.4817,E,1,7,2.25,118.4,M,47.9,M,,*4E",,,,
2022-01-14T17:44:11+01:00,336,30.42,18.78,1019.62,342.30,359.50,2,0,"$GNGGA,164406.000,4900.5250,N,00825.4780,E,1,7,2.26,118.2,M,47.9,M,,*49",,,,
2022-01-14T17:44:32+01:00,337,30.42,18.78,1019.63,337.30,354.20,2,0,"$GNGGA,164427.000,4900.5230,N,00825.4757,E,1,7,4.58,117.1,M,47.9,M,,*45",,,,
2022-01-14T17:44:52+01:00,338,30.43,18.77,1019.64,335.40,352.20,2,0,"$GNGGA,164447.000,4900.5236,N,00825.4656,E,1,7,2.26,112.3,M,47.9,M,,*4D",,,,
2022-01-14T17:45:12+01:00,339,30.44,18.80,1019.64,332.10,348.80,2,0,"$GNGGA,164507.000,4900.5207,N,00825.4582,E,1,8,2.24,113.4,M,47.9,M,,*4B",,,,
2022-01-14T17:45:33+01:00,340,30.44,18.74,1019.65,333.70,350.40,2,0,"$GNGGA,164528.000,4900.5219,N,00825.4580,E,1,7,2.26,114.0,M,47.9,M,,*45",,,,
2022-01-14T17:45:53+01:00,341,30.44,18.67,1019.64,332.10,348.80,2,0,"$GNGGA,164548.000,4900.5254,N,00825.4664,E,1,7,2.26,114.9,M,47.9,M,,*4A",,,,
2022-01-14T17:46:13+01:00,342,30.45,18.74,1019.65,336.20,353.10,2,0,"$GNGGA,164608.000,4900.5252,N,00825.4761,E,1,7,2.26,116.2,M,47.9,M,,*46",,,,
2022-01-14T17:46:34+01:00,343,30.45,18.78,1019.64,343.40,360.60,2,0,"$GNGGA,164629.000,4900.5247,N,00825.4788,E,1,8,2.25,116.3,M,47.9,M,,*4B",,,,
2022-01-14T17:46:54+01:00,344,30.45,18.75,1019.64,351.50,369.10,2,0,"$GNGGA,164649.000,4900.5234,N,00825.4693,E,1,8,2.25,116.2,M,47.9,M,,*43",,,,
2022-01-14T17:47:15+01:00,345,30.48,18.70,1019.64,343.30,360.50,2,0,"$GNGGA,164710.000,4900.5276,N,00825.4687,E,1,8,2.25,115.7,M,47.9,M,,*4B",,,,
2022-01-14T17:47:36+01:00,346,30.52,18.54,1019.65,337.20,354.10,2,0,"$GNGGA,164731.000,4900.5270,N,00825.4612,E,1,8,2.25,115.5,M,47.9,M,,*40",,,,
2022-01-14T17:47:56+01:00,347,30.54,18.45,1019.64,337.30,354.20,2,0,"$GNGGA,164751.000,4900.5267,N,00825.4650,E,1,8,2.25,114.5,M,47.9,M,,*47",,,,
2022-01-14T17:48:16+01:00,348,30.55,18.45,1019.64,343.60,360.80,2,0,"$GNGGA,164811.000,4900.5267,N,00825.4728,E,1,8,2.25,115.0,M,47.9,M,,*46",,,,
2022-01-14T17:48:37+01:00,349,30.55,18.40,1019.64,340.80,357.90,2,0,"$GNGGA,164832.000,4900.5262,N,00825.4759,E,1,8,2.25,113.8,M,47.9,M,,*4A",,,,
2022-01-14T17:48:58+01:00,350,30.55,18.42,1019.63,331.60,348.20,2,0,"$GNGGA,164853.000,4900.5279,N,00825.4691,E,1,8,2.25,111.1,M,47.9,M,,*49",,,,
2022-01-14T17:49:19+01:00,351,30.55,18.36,1019.64,340.00,357.10,2,0,"$GNGGA,164914.000,4900.5262,N,00825.4591,E,1,8,4.28,111.8,M,47.9,M,,*40",,,,
2022-01-14T17:49:40+01:00,352,30.55,18.39,1019.64,359.30,377.30,2,0,"$GNGGA,164935.000,4900.5261,N,00825.4470,E,1,6,2.33,111.2,M,47.9,M,,*46",,,,
2022-01-14T17:50:00+01:00,353,30.55,18.49,1019.64,364.50,382.80,2,0,"$GNGGA,164955.000,4900.5251,N,00825.4625,E,1,6,2.33,110.5,M,47.9,M,,*47",,,,
2022-01-14T17:50:20+01:00,354,30.55,18.49,1019.64,360.30,378.40,2,0,"$GNGGA,165015.000,4900.5236,N,00825.4711,E,1,6,2.33,110.0,M,47.9,M,,*49",,,,
2022-01-14T17:50:41+01:00,355,30.55,18.44,1019.65,351.10,368.70,2,0,"$GNGGA,165036.000,4900.5227,N,00825.4684,E,1,7,4.20,110.2,M,47.9,M,,*42",,,,
2022-01-14T17:51:01+01:00,356,30.55,18.42,1019.65,358.50,376.50,2,0,"$GNGGA,165056.000,4900.5241,N,00825.4780,E,1,7,2.27,112.3,M,47.9,M,,*43",,,,
2022-01-14T17:51:21+01:00,357,30.56,18.39,1019.66,355.30,373.10,2,0,"$GNGGA,165116.000,4900.5243,N,00825.4630,E,1,8,2.26,114.9,M,47.9,M,,*4C",,,,
2022-01-14T17:51:42+01:00,358,30.60,18.34,1019.66,355.20,373.00,2,0,"$GNGGA,165137.000,4900.5221,N,00825.4550,E,1,8,2.26,116.5,M,47.9,M,,*40",,,,
2022-01-14T17:52:03+01:00,359,30.67,18.29,1019.65,338.20,355.20,2,0,"$GNGGA,165158.000,4900.5201,N,00825.4692,E,1,8,4.12,114.9,M,47.9,M,,*49",,,,
2022-01-14T17:52:23+01:00,360,30.75,18.26,1019.65,329.20,345.70,2,0,"$GNGGA,165218.000,4900.5228,N,00825.4690,E,1,8,2.26,114.0,M,47.9,M,,*4F",,,,
2022-01-14T17:52:44+01:00,361,30.81,18.20,1019.65,337.10,354.00,2,0,"$GNGGA,165239.000,4900.5234,N,00825.4747,E,1,8,2.26,113.5,M,47.9,M,,*48",,,,
2022-01-14T17:53:04+01:00,362,30.84,18.24,1019.64,349.90,367.40,2,0,"$GNGGA,165259.000,4900.5229,N,00825.4786,E,1,8,2.26,115.3,M,47.9,M,,*4F",,,,
2022-01-14T17:53:25+01:00,363,30.84,18.22,1019.64,344.20,361.50,2,0,"$GNGGA,165320.000,4900.5210,N,00825.4590,E,1,8,2.26,117.3,M,47.9,M,,*4D",,,,
2022-01-14T17:53:46+01:00,364,30.83,18.25,1019.63,328.20,344.70,2,0,"$GNGGA,165341.000,4900.5214,N,00825.4532,E,1,8,2.26,115.6,M,47.9,M,,*41",,,,
2022-01-14T17:54:06+01:00,365,30.81,18.32,1019.63,320.60,336.70,2,0,"$GNGGA,165401.000,4900.5227,N,00825.4694,E,1,8,2.26,114.0,M,47.9,M,,*4A",,,,
2022-01-14T17:54:27+01:00,366,30.82,18.29,1019.63,339.80,356.80,2,0,"$GNGGA,165422.000,4900.5223,N,00825.4750,E,1,7,2.43,114.1,M,47.9,M,,*4B",,,,
2022-01-14T17:54:48+01:00,367,30.84,18.22,1019.62,346.80,364.20,2,0,"$GNGGA,165443.000,4900.5222,N,00825.4706,E,1,7,2.43,113.8,M,47.9,M,,*40",,,,
2022-01-14T17:55:08+01:00,368,30.84,18.17,1019.62,351.30,368.90,2,0,"$GNGGA,165503.000,4900.5231,N,00825.4702,E,1,7,2.43,114.0,M,47.9,M,,*4C",,,,
2022-01-14T17:55:28+01:00,369,30.84,18.19,1019.61,334.10,350.90,2,0,"$GNGGA,165523.000,4900.5216,N,00825.4598,E,1,7,2.43,113.1,M,47.9,M,,*4C",,,,
2022-01-14T17:55:49+01:00,370,30.83,18.18,1019.61,328.00,344.50,2,0,"$GNGGA,165544.000,4900.5146,N,00825.4670,E,1,7,2.43,111.8,M,47.9,M,,*45",,,,
2022-01-14T17:56:09+01:00,371,30.81,18.20,1019.61,330.10,346.70,2,0,"$GNGGA,165604.000,4900.5137,N,00825.4711,E,1,7,2.43,112.3,M,47.9,M,,*4A",,,,
2022-01-14T17:56:29+01:00,372,30.79,18.18,1019.62,344.90,362.20,2,0,"$GNGGA,165624.000,4900.5178,N,00825.4731,E,1,7,2.43,112.4,M,47.9,M,,*46",,,,
2022-01-14T17:56:50+01:00,373,30.77,18.18,1019.62,340.80,357.90,2,0,"$GNGGA,165645.000,4900.5226,N,00825.4632,E,1,7,2.43,109.9,M,47.9,M,,*4C",,,,
2022-01-14T17:57:10+01:00,374,30.75,18.19,1019.63,333.90,350.60,2,0,"$GNGGA,165705.000,4900.5231,N,00825.4558,E,1,8,1.99,108.8,M,47.9,M,,*4B",,,,
2022-01-14T17:57:30+01:00,375,30.76,18.21,1019.62,334.70,351.50,2,0,"$GNGGA,165725.000,4900.5225,N,00825.4569,E,1,8,1.99,108.0,M,47.9,M,,*46",,,,
2022-01-14T17:57:51+01:00,376,30.80,18.08,1019.62,336.40,353.30,2,0,"$GNGGA,165746.000,4900.5208,N,00825.4503,E,1,8,1.99,108.0,M,47.9,M,,*40",,,,
2022-01-14T17:58:11+01:00,377,30.86,17.96,1019.62,323.00,339.20,2,0,"$GNGGA,165806.000,4900.5195,N,00825.4516,E,1,9,2.59,110.3,M,47.9,M,,*4C",,,,
2022-01-14T17:58:31+01:00,378,30.93,17.97,1019.63,298.70,313.70,2,0,"$GNGGA,165826.000,4900.5229,N,00825.4562,E,1,9,1.78,112.7,M,47.9,M,,*4F",,,,
2022-01-14T17:58:52+01:00,379,31.00,17.99,1019.64,290.80,305.40,2,0,"$GNGGA,165847.000,4900.5238,N,00825.4697,E,1,9,1.78,114.6,M,47.9,M,,*46",,,,
2022-01-14T17:59:12+01:00,380,31.07,17.93,1019.64,305.70,321.00,2,0,"$GNGGA,165907.000,4900.5225,N,00825.4662,E,1,9,1.78,115.5,M,47.9,M,,*47",,,,
2022-01-14T17:59:33+01:00,381,31.12,17.86,1019.65,316.50,332.40,2,0,"$GNGGA,165928.000,4900.5252,N,00825.4561,E,1,9,1.78,119.2,M,47.9,M,,*41",,,,
2022-01-14T17:59:54+01:00,382,31.17,17.93,1019.64,317.50,333.40,2,0,"$GNGGA,165949.000,4900.5223,N,00825.4618,E,1,9,1.78,118.7,M,47.9,M,,*49",,,,
2022-01-14T18:00:14+01:00,383,31.21,17.90,1019.63,302.90,318.10,2,0,"$GNGGA,170009.000,4900.5195,N,00825.4666,E,1,7,2.19,120.2,M,47.9,M,,*43",,,,
2022-01-14T18:00:35+01:00,384,31.24,17.87,1019.62,303.70,318.90,2,0,"$GNGGA,170030.000,4900.5200,N,00825.4558,E,1,7,1.88,120.5,M,47.9,M,,*44",,,,
2022-01-14T18:00:56+01:00,385,31.27,17.85,1019.60,322.60,338.80,2,0,"$GNGGA,170051.000,4900.5235,N,00825.4357,E,1,7,1.88,120.7,M,47.9,M,,*4E",,,,
2022-01-14T18:01:16+01:00,386,31.28,17.86,1019.60,326.90,343.30,2,0,"$GNGGA,170111.000,4900.5205,N,00825.4279,E,1,7,1.88,119.3,M,47.9,M,,*4B",,,,
2022-01-14T18:01:36+01:00,387,31.30,17.87,1019.61,315.70,331.50,2,0,"$GNGGA,170131.000,4900.5183,N,00825.4273,E,1,7,2.17,117.9,M,47.9,M,,*4F",,,,
2022-01-14T18:01:57+01:00,388,31.31,17.92,1019.61,297.20,312.10,2,0,"$GNGGA,170152.000,4900.5194,N,00825.4512,E,1,7,1.88,120.9,M,47.9,M,,*4D",,,,
2022-01-14T18:02:17+01:00,389,31.32,17.96,1019.62,290.20,304.80,2,0,"$GNGGA,170212.000,4900.5202,N,00825.4462,E,1,7,1.89,122.4,M,47.9,M,,*4E",,,,
2022-01-14T18:02:37+01:00,390,31.33,17.84,1019.62,295.20,310.00,2,0,"$GNGGA,170232.000,4900.5217,N,00825.4508,E,1,7,1.89,122.3,M,47.9,M,,*42",,,,
2022-01-14T18:02:58+01:00,391,31.34,17.83,1019.62,311.40,327.00,2,0,"$GNGGA,170253.000,4900.5221,N,00825.4393,E,1,6,2.35,122.3,M,47.9,M,,*41",,,,
2022-01-14T18:03:18+01:00,392,31.35,17.87,1019.64,317.70,333.60,2,0,"$GNGGA,170313.000,4900.5167,N,00825.4319,E,1,6,2.35,121.0,M,47.9,M,,*47",,,,
2022-01-14T18:03:39+01:00,393,31.35,17.90,1019.63,314.00,329.80,2,0,"$GNGGA,170334.000,4900.5186,N,00825.4302,E,1,6,2.36,120.8,M,47.9,M,,*4D",,,,
2022-01-14T18:04:00+01:00,394,31.35,17.88,1019.65,295.90,310.70,2,0,"$GNGGA,170355.000,4900.5156,N,00825.4592,E,1,6,2.36,120.4,M,47.9,M,,*44",,,,
2022-01-14T18:04:20+01:00,395,31.35,17.81,1019.65,290.50,305.10,2,0,"$GNGGA,170415.000,4900.5078,N,00825.4537,E,1,6,2.36,119.2,M,47.9,M,,*49",,,,
2022-01-14T18:04:41+01:00,396,31.34,17.82,1019.66,285.90,300.20,2,0,"$GNGGA,170436.000,4900.5137,N,00825.4493,E,1,6,2.37,117.3,M,47.9,M,,*43",,,,
2022-01-14T18:05:02+01:00,397,31.34,17.79,1019.67,291.70,306.30,2,0,"$GNGGA,170457.000,4900.5142,N,00825.4529,E,1,5,2.95,115.7,M,47.9,M,,*4B",,,,
2022-01-14T18:05:24+01:00,398,31.34,17.87,1019.68,300.10,315.20,2,0,"$GNGGA,170519.000,4900.5139,N,00825.4532,E,1,5,2.95,115.5,M,47.9,M,,*44",,,,
2022-01-14T18:05:45+01:00,399,31.34,17.83,1019.68,291.80,306.40,2,0,"$GNGGA,170540.000,4900.5163,N,00825.4466,E,1,5,2.95,116.1,M,47.9,M,,*40",,,,
2022-01-14T18:06:06+01:00,400,31.34,17.86,1019.69,285.60,299.90,2,0,"$GNGGA,170601.000,4900.5101,N,00825.4431,E,1,5,2.95,116.3,M,47.9,M,,*42",,,,
2022-01-14T18:06:26+01:00,401,31.33,18.00,1019.68,281.10,295.20,2,0,"$GNGGA,170621.000,4900.5337,N,00825.3994,E,1,6,3.59,116.1,M,47.9,M,,*42",,,,
2022-01-14T18:06:47+01:00,402,31.33,17.99,1019.68,287.80,302.20,2,0,"$GNGGA,170642.000,4900.5227,N,00825.4346,E,1,6,3.58,116.7,M,47.9,M,,*42",,,,
2022-01-14T18:07:08+01:00,403,31.33,17.96,1019.68,284.10,298.40,2,0,"$GNGGA,170703.000,4900.5135,N,00825.4546,E,1,5,2.95,116.5,M,47.9,M,,*41",,,,
2022-01-14T18:07:28+01:00,404,31.32,17.94,1019.68,296.40,311.30,2,0,"$GNGGA,170723.000,4900.5135,N,00825.4516,E,1,6,2.40,116.2,M,47.9,M,,*4A",,,,
2022-01-14T18:07:48+01:00,405,31.31,17.94,1019.68,295.80,310.60,2,0,"$GNGGA,170743.000,4900.5167,N,00825.4417,E,1,6,3.55,115.2,M,47.9,M,,*4D",,,,
2022-01-14T18:08:09+01:00,406,31.31,17.91,1019.68,295.10,309.90,2,0,"$GNGGA,170804.000,4900.5199,N,00825.4669,E,1,5,2.69,113.5,M,47.9,M,,*47",,,,
2022-01-14T18:08:29+01:00,407,31.29,17.95,1019.68,274.50,288.30,2,0,"$GNGGA,170824.000,4900.5246,N,00825.4598,E,1,6,2.41,112.5,M,47.9,M,,*41",,,,
2022-01-14T18:08:50+01:00,408,31.28,17.95,1019.68,269.90,283.40,2,0,"$GNGGA,170845.000,4900.5176,N,00825.4297,E,1,6,3.52,112.1,M,47.9,M,,*49",,,,
2022-01-14T18:09:11+01:00,409,31.26,17.97,1019.68,280.40,294.50,2,0,"$GNGGA,170906.000,4900.5124,N,00825.4368,E,1,6,3.51,112.4,M,47.9,M,,*4F",,,,
2022-01-14T18:09:31+01:00,410,31.25,18.03,1019.67,276.90,290.80,2,0,"$GNGGA,170926.000,4900.5143,N,00825.4169,E,1,6,3.50,111.2,M,47.9,M,,*4B",,,,
2022-01-14T18:09:51+01:00,411,31.24,18.01,1019.67,275.10,288.90,2,0,"$GNGGA,170946.000,4900.5128,N,00825.4160,E,1,5,2.66,110.9,M,47.9,M,,*44",,,,
