
SmartAQnet Scooter Sensors!
Initializing A9G...
Resp:

+CREG: 2

^STN: 37
+CIEV: "Complete the Charge",100%

+CTZV:22/02/05,23:08:16,+01

+CREG: 1

A9/A9G
V02.02.20190915R
Ai_Thinker_Co._Ltd.
READY
----
Init Ready Done!
Resp:

----
Resp:
AT

OK
----
Reading NVS done...
Resp:
AT+CPIN?

+CPIN:READY
----
Msg: SIM PIN is ready!
Resp:
AT+CREG=1

OK
----
Msg: Netwoek Set!
Resp:
AT+CREG?

+CREG: 1
----
Msg: Network Registered!
Resp:
AT+GPS=1

OK
----
Msg: GPS Set!
Resp:
AT+CGATT=1

+CGATT:1

OK
----
Msg: PS Attached!
Resp:
AT+CGDCONT?

OK
----
Msg: Context Set!
Resp:
AT+CGDCONT=1,"IP","pinternet.interkom.de"

OK
----
Msg: Context Changed!
Resp:
AT+CGACT=1,1

OK
----
Msg: Context Selected!
Resp:
AT+CGACT?

+CGACT: 1, 1
----
Msg: Context is Correct!
Resp:
AT+CIPSTATUS
+CIPSTATUS:
STATE:IP INITIAL
----
Msg: Status INITIAL!
Resp:
AT+CIPSTART="TCP","api.thingspeak.com",80
CONNECT OK
----
Msg: Connected!
Resp:
AT+GPSRD=5

OK
----
Msg: GPS Read Set!
Msg: Getting data from GPS using AT Cmd
Resp:
$GNGGA,230830.087,4900.4711,N,00825.4379,E,0,2,,433.5,M,47.9,M,,*59
$GPGSA,A,1,22,32,,,,,,,,,,,,,*1F
$BDGSA,A,1,,,,,,,,,,,,,,,*0F
$GPGSV,3,1,11,21,78,316,,08,59,177,,01,48,288,,32,41,095,33*71
$GPGSV,3,2,11,22,35,118,32,27,29,154,,10,25,053,29,14,22,307,*73
$GPGSV,3,3,11,03,19,226,,24,01,022,,17,01,317,*41
$BDGSV,1,1,00*68
$GNRMC,230830.087,V,4900.4711,N,00825.4379,E,1.864,273.55,050222,,,N*5F
$GNVTG,273.55,T,,M,1.864,N,3.454,K,N*27
---
Msg: Getting data from GPS using AT done
Resp:
AT+GPSRD=0

OK
----
Msg: GPS Read Off!
Msg: Getting data from Sensors
Temperature for the device 1 (index 0) is: 85.00
Msg: 1
Msg: 2
Resp:
AT+CIPSEND

>
----
Msg: Send Started!
Resp:
GET https://api.thingspeak.com/update?api_key=AYKVFH212TKGNW2B&field1=31.20&field2=19.35&field3=1008.45&field4=204.10&field5=214.40&field6=0&field7=85.00&field8=$GNGGA,230830.087,4900.4711,N,00825.4379,E,0,2,,433.5,M,47.9,M,,*59

----
Resp:

OK



+CIPRCV,1:1
CLOSED
----
Msg: Send Completed!
Resp:
AT+CIPSTATUS
+CIPSTATUS:
STATE:CLOSED
----

*****Error No.0

*****Error State.19
Resp:
AT+CREG=1

OK
----
Msg: Netwoek Set!
Resp:
AT+CREG?

+CREG: 1
----
Msg: Network Registered!
Resp:
AT+GPS=1

OK
----
Msg: GPS Set!
Resp:
AT+CGATT=1

+CGATT:1

OK
----
Msg: PS Attached!
Resp:
AT+CGDCONT?

+CGDCONT:1,"IP","pinternet.interkom.de
----
Msg: Context Exists!
Resp:
AT+CGACT=1,1

OK
----
Msg: Context Selected!
Resp:
AT+CGACT?

+CGACT: 1, 1
----
Msg: Context is Correct!
Resp:
AT+CIPSTATUS
+CIPSTATUS:
STATE:CLOSED
----
Msg: Status CLOSED!
Resp:
AT+CIPSTART="TCP","api.thingspeak.com",80
CONNECT OK
----
Msg: Connected!
Resp:
AT+GPSRD=5

OK
----
Msg: GPS Read Set!
Msg: Getting data from GPS using AT Cmd
Resp:
$GNGGA,230911.087,4900.5476,N,00824.2711,E,0,2,,399.7,M,47.9,M,,*50
$GPGSA,A,1,22,32,,,,,,,,,,,,,*1F
$BDGSA,A,1,,,,,,,,,,,,,,,*0F
$GPGSV,3,1,11,21,78,316,,08,59,177,15,01,48,288,,32,41,095,32*74
$GPGSV,3,2,11,22,35,118,28,27,28,154,,10,25,053,23,14,22,307,*73
$GPGSV,3,3,11,03,19,226,,24,01,022,,17,01,317,*41
$BDGSV,1,1,00*68
$GNRMC,230911.087,V,4900.5476,N,00824.2711,E,0.681,117.73,050222,,,N*52
$GNVTG,117.73,T,,M,0.681,N,1.261,K,N*24
---
Msg: Getting data from GPS using AT done
Resp:
AT+GPSRD=0

OK
----
Msg: GPS Read Off!
Msg: Getting data from Sensors
Temperature for the device 1 (index 0) is: 85.00
Msg: 1
Msg: 2
Resp:
AT+CIPSEND

>
----
Msg: Send Started!
Resp:
GET https://api.thingspeak.com/update?api_key=AYKVFH212TKGNW2B&field1=31.06&field2=19.04&field3=1008.48&field4=201.30&field5=211.40&field6=1&field7=85.00&field8=$GNGGA,230911.087,4900.5476,N,00824.2711,E,0,2,,399.7,M,47.9,M,,*50

----
Resp:

OK



+CIPRCV,1:2
CLOSED
----
Msg: Send Completed!
Resp:
AT+CIPSTATUS
+CIPSTATUS:
STATE:CLOSED
----

*****Error No.1

*****Error State.19
Resp:
AT+CREG=1

OK
----
Msg: Netwoek Set!
Resp:
AT+CREG?

+CREG: 1
----
Msg: Network Registered!
Resp:
AT+GPS=1

OK
----
Msg: GPS Set!
Resp:
AT+CGATT=1

+CGATT:1

OK
----
Msg: PS Attached!
Resp:
AT+CGDCONT?

+CGDCONT:1,"IP","pinternet.interkom.de
----
Msg: Context Exists!
Resp:
AT+CGACT=1,1

OK
----
Msg: Context Selected!
Resp:
AT+CGACT?

+CGACT: 1, 1
----
Msg: Context is Correct!
Resp:
AT+CIPSTATUS
+CIPSTATUS:
STATE:CLOSED
----
Msg: Status CLOSED!
Resp:
AT+CIPSTART="TCP","api.thingspeak.com",80
CONNECT OK
----
Msg: Connected!
Resp:
AT+GPSRD=5

OK
----
Msg: GPS Read Set!
Msg: Getting data from GPS using AT Cmd
Resp:
$GNGGA,230952.087,4900.5569,N,00824.1777,E,0,3,,465.4,M,47.9,M,,*5D
$GPGSA,A,1,22,32,10,,,,,,,,,,,,*1E
$BDGSA,A,1,,,,,,,,,,,,,,,*0F
$GPGSV,3,1,11,21,78,316,,08,59,177,15,01,49,288,15,32,41,095,31*72
$GPGSV,3,2,11,22,35,118,31,27,28,154,,10,25,053,28,14,22,306,*71
$GPGSV,3,3,11,03,19,227,,24,01,022,,17,01,317,*40
$BDGSV,1,1,00*68
$GNRMC,230952.087,V,4900.5569,N,00824.1777,E,1.089,86.56,050222,,,N*68
$GNVTG,86.56,T,,M,1.089,N,2.017,K,N*15
---
Msg: Getting data from GPS using AT done
Resp:
AT+GPSRD=0

OK
----
Msg: GPS Read Off!
Msg: Getting data from Sensors
Temperature for the device 1 (index 0) is: 85.00
Msg: 1
Msg: 2
Resp:
AT+CIPSEND

>
----
Msg: Send Started!
Resp:
GET https://api.thingspeak.com/update?api_key=AYKVFH212TKGNW2B&field1=31.01&field2=18.86&field3=1008.49&field4=200.70&field5=210.80&field6=2&field7=85.00&field8=$GNGGA,230952.087,4900.5569,N,00824.1777,E,0,3,,465.4,M,47.9,M,,*5D

----
Resp:

OK



+CIPRCV,1:3
CLOSED
----
Msg: Send Completed!
Resp:
AT+CIPSTATUS
+CIPSTATUS:
STATE:CLOSED
----

*****Error No.2

*****Error State.19
Resp:
AT+CREG=1

OK
----
Msg: Netwoek Set!
Resp:
AT+CREG?

+CREG: 1
----
Msg: Network Registered!
Resp:
AT+GPS=1

OK
----
Msg: GPS Set!
Resp:
AT+CGATT=1

+CGATT:1

OK
----
Msg: PS Attached!
Resp:
AT+CGDCONT?

+CGDCONT:1,"IP","pinternet.interkom.de
----
Msg: Context Exists!
Resp:
AT+CGACT=1,1

OK
----
Msg: Context Selected!
Resp:
AT+CGACT?

+CGACT: 1, 1
----
Msg: Context is Correct!
Resp:
AT+CIPSTATUS
+CIPSTATUS:
STATE:CLOSED
----
Msg: Status CLOSED!
Resp:
AT+CIPSTART="TCP","api.thingspeak.com",80
CONNECT OK
----
Msg: Connected!
Resp:
AT+GPSRD=5

OK
----
Msg: GPS Read Set!
Msg: Getting data from GPS using AT Cmd
Resp:
$GNGGA,231033.087,4900.5656,N,00824.0136,E,0,3,,513.6,M,47.9,M,,*5D
$GPGSA,A,1,22,32,10,,,,,,,,,,,,*1E
$BDGSA,A,1,,,,,,,,,,,,,,,*0F
$GPGSV,3,1,11,21,79,318,,08,59,177,14,01,49,288,14,32,41,094,32*7F
$GPGSV,3,2,11,22,35,118,29,27,28,154,,10,25,053,26,14,22,306,*76
$GPGSV,3,3,11,03,19,227,,17,02,317,,24,01,021,*40
$BDGSV,1,1,00*68
$GNRMC,231033.087,V,4900.5656,N,00824.0136,E,0.790,120.73,050222,,,N*5E
$GNVTG,120.73,T,,M,0.790,N,1.463,K,N*25
---
Msg: Getting data from GPS using AT done
Resp:
AT+GPSRD=0

OK
----
Msg: GPS Read Off!
Msg: Getting data from Sensors
Temperature for the device 1 (index 0) is: 85.00
Msg: 1
Msg: 2
Resp:
AT+CIPSEND

>
----
Msg: Send Started!
Resp:
GET https://api.thingspeak.com/update?api_key=AYKVFH212TKGNW2B&field1=31.00&field2=18.81&field3=1008.48&field4=196.20&field5=206.10&field6=3&field7=85.00&field8=$GNGGA,231033.087,4900.5656,N,00824.0136,E,0,3,,513.6,M,47.9,M,,*5D

----
Resp:

OK



+CIPRCV,1:4
CLOSED
----
Msg: Send Completed!
Resp:
AT+CIPSTATUS
+CIPSTATUS:
STATE:CLOSED
----

*****Error No.3

*****Error State.19
Resp:
AT+CREG=1

OK
----
Msg: Netwoek Set!
Resp:
AT+CREG?

+CREG: 1
----
Msg: Network Registered!
Resp:
AT+GPS=1

OK
----
Msg: GPS Set!
Resp:
AT+CGATT=1

+CGATT:1

OK
----
Msg: PS Attached!
Resp:
AT+CGDCONT?

+CGDCONT:1,"IP","pinternet.interkom.de
----
Msg: Context Exists!
Resp:
AT+CGACT=1,1

OK
----
Msg: Context Selected!
Resp:
AT+CGACT?

+CGACT: 1, 1
----
Msg: Context is Correct!
Resp:
AT+CIPSTATUS
+CIPSTATUS:
STATE:CLOSED
----
Msg: Status CLOSED!
Resp:
AT+CIPSTART="TCP","api.thingspeak.com",80
CONNECT OK
----
Msg: Connected!
Resp:
AT+GPSRD=5

OK
----
Msg: GPS Read Set!
Msg: Getting data from GPS using AT Cmd
Resp:
$GNGGA,231116.000,4900.5646,N,00824.1824,E,0,4,,470.8,M,47.9,M,,*53
$GPGSA,A,1,22,32,10,27,,,,,,,,,,,*1B
$BDGSA,A,1,,,,,,,,,,,,,,,*0F
$GPGSV,3,1,12,21,79,320,,08,58,176,13,01,49,289,15,32,41,094,31*73
$GPGSV,3,2,12,22,35,118,29,39,31,158,,27,28,154,14,10,24,054,29*7D
$GPGSV,3,3,12,14,22,305,,03,20,227,,17,02,317,,24,01,021,*7A
$BDGSV,1,1,00*68
$GNRMC,231116.000,V,4900.5646,N,00824.1824,E,7.951,91.14,050222,,,N*63
$GNVTG,91.14,T,,M,7.951,N,14.734,K,N*2E
---
Msg: Getting data from GPS using AT done
Resp:
AT+GPSRD=0

OK
----
Msg: GPS Read Off!
Msg: Getting data from Sensors
Temperature for the device 1 (index 0) is: 85.00
Msg: 1
Msg: 2
Resp:
AT+CIPSEND

>
----
Msg: Send Started!
Resp:
GET https://api.thingspeak.com/update?api_key=AYKVFH212TKGNW2B&field1=31.03&field2=18.55&field3=1008.50&field4=195.60&field5=205.40&field6=4&field7=85.00&field8=$GNGGA,231116.000,4900.5646,N,00824.1824,E,0,4,,470.8,M,47.9,M,,*53

----
Resp:

OK



+CIPRCV,1:5
CLOSED
----
Msg: Send Completed!
Resp:
AT+CIPSTATUS
+CIPSTATUS:
STATE:CLOSED
----

*****Error No.4

*****Error State.19
Resp:
AT+CREG=1

OK
----
Msg: Netwoek Set!
Resp:
AT+CREG?

+CREG: 1
----
Msg: Network Registered!
Resp:
AT+GPS=1

OK
----
Msg: GPS Set!
Resp:
AT+CGATT=1

+CGATT:1

OK
----
Msg: PS Attached!
Resp:
AT+CGDCONT?

+CGDCONT:1,"IP","pinternet.interkom.de
----
Msg: Context Exists!
Resp:
AT+CGACT=1,1

OK
----
Msg: Context Selected!
Resp:
AT+CGACT?

+CGACT: 1, 1
----
Msg: Context is Correct!
Resp:
AT+CIPSTATUS
+CIPSTATUS:
STATE:CLOSED
----
Msg: Status CLOSED!
Resp:
AT+CIPSTART="TCP","api.thingspeak.com",80
CONNECT OK
----
Msg: Connected!
Resp:
AT+GPSRD=5

OK
----
Msg: GPS Read Set!
Msg: Getting data from GPS using AT Cmd
Resp:
$GNGGA,231157.000,4900.5513,N,00824.5384,E,0,4,,342.4,M,47.9,M,,*5A
$GPGSA,A,1,22,32,10,27,,,,,,,,,,,*1B
$BDGSA,A,1,,,,,,,,,,,,,,,*0F
$GPGSV,3,1,12,21,79,320,,08,58,176,16,01,49,289,16,32,41,093,30*73
$GPGSV,3,2,12,22,36,117,31,37,32,162,,27,27,154,19,10,24,054,29*7E
$GPGSV,3,3,12,14,22,305,,03,20,227,,17,02,317,,24,01,021,*7A
$BDGSV,1,1,00*68
$GNRMC,231157.000,V,4900.5513,N,00824.5384,E,3.781,85.64,050222,,,N*65
$GNVTG,85.64,T,,M,3.781,N,7.006,K,N*1F
---
Msg: Getting data from GPS using AT done
Resp:
AT+GPSRD=0

OK
----
Msg: GPS Read Off!
Msg: Getting data from Sensors
Temperature for the device 1 (index 0) is: 85.00
Msg: 1
Msg: 2
Resp:
AT+CIPSEND

>
----
Msg: Send Started!
Resp:
GET https://api.thingspeak.com/update?api_key=AYKVFH212TKGNW2B&field1=31.08&field2=18.45&field3=1008.49&field4=205.30&field5=215.60&field6=5&field7=85.00&field8=$GNGGA,231157.000,4900.5513,N,00824.5384,E,0,4,,342.4,M,47.9,M,,*5A

----
Resp:

OK



+CIPRCV,1:6
CLOSED
----
Msg: Send Completed!
Resp:
AT+CIPSTATUS
+CIPSTATUS:
STATE:CLOSED
----

*****Error No.5

*****Error State.19
Resp:
AT+CREG=1

OK
----
Msg: Netwoek Set!
Resp:
AT+CREG?

+CREG: 1
----
Msg: Network Registered!
Resp:
AT+GPS=1

OK
----
Msg: GPS Set!
Resp:
AT+CGATT=1

+CGATT:1

OK
----
Msg: PS Attached!
Resp:
AT+CGDCONT?

+CGDCONT:1,"IP","pinternet.interkom.de
----
Msg: Context Exists!
Resp:
AT+CGACT=1,1

OK
----
Msg: Context Selected!
Resp:
AT+CGACT?

+CGACT: 1, 1
----
Msg: Context is Correct!
Resp:
AT+CIPSTATUS
+CIPSTATUS:
STATE:CLOSED
----
Msg: Status CLOSED!
Resp:
AT+CIPSTART="TCP","api.thingspeak.com",80
CONNECT OK
----
Msg: Connected!
Resp:
AT+GPSRD=5

OK
----
Msg: GPS Read Set!
Msg: Getting data from GPS using AT Cmd
Resp:
$GNGGA,231238.000,4900.5403,N,00824.9323,E,0,4,,248.6,M,47.9,M,,*58
$GPGSA,A,1,22,32,10,27,,,,,,,,,,,*1B
$BDGSA,A,1,,,,,,,,,,,,,,,*0F
$GPGSV,3,1,11,21,80,321,14,08,57,176,,01,50,289,,32,41,093,32*77
$GPGSV,3,2,11,22,36,116,31,27,27,154,15,10,24,054,30,14,22,305,*7B
$GPGSV,3,3,11,03,20,227,,17,03,317,,24,01,020,*4A
$BDGSV,1,1,00*68
$GNRMC,231238.000,V,4900.5403,N,00824.9323,E,8.617,87.11,050222,,,N*6B
$GNVTG,87.11,T,,M,8.617,N,15.967,K,N*27
---
Msg: Getting data from GPS using AT done
Resp:
AT+GPSRD=0

OK
----
Msg: GPS Read Off!
Msg: Getting data from Sensors
Temperature for the device 1 (index 0) is: 85.00
Msg: 1
Msg: 2
Resp:
AT+CIPSEND

>
----
Msg: Send Started!
Resp:
GET https://api.thingspeak.com/update?api_key=AYKVFH212TKGNW2B&field1=31.14&field2=18.56&field3=1008.49&field4=204.90&field5=215.20&field6=6&field7=85.00&field8=$GNGGA,231238.000,4900.5403,N,00824.9323,E,0,4,,248.6,M,47.9,M,,*58

----
Resp:

OK



+CIPRCV,1:7
CLOSED
----
Msg: Send Completed!
Resp:
AT+CIPSTATUS
+CIPSTATUS:
STATE:CLOSED
----

*****Error No.6

*****Error State.19
Resp:
AT+CREG=1

OK
----
Msg: Netwoek Set!
Resp:
AT+CREG?

+CREG: 1
----
Msg: Network Registered!
Resp:
AT+GPS=1

OK
----
Msg: GPS Set!
Resp:
AT+CGATT=1

+CGATT:1

OK
----
Msg: PS Attached!
Resp:
AT+CGDCONT?

+CGDCONT:1,"IP","pinternet.interkom.de
----
Msg: Context Exists!
Resp:
AT+CGACT=1,1

OK
----
Msg: Context Selected!
Resp:
AT+CGACT?

+CGACT: 1, 1
----
Msg: Context is Correct!
Resp:
AT+CIPSTATUS
+CIPSTATUS:
STATE:CLOSED
----
Msg: Status CLOSED!
Resp:
AT+CIPSTART="TCP","api.thingspeak.com",80
CONNECT OK
----
Msg: Connected!
Resp:
AT+GPSRD=5

OK
----
Msg: GPS Read Set!
Msg: Getting data from GPS using AT Cmd
Resp:
$GNGGA,231319.000,4900.5353,N,00824.9841,E,0,3,,219.4,M,47.9,M,,*56
$GPGSA,A,1,22,32,10,,,,,,,,,,,,*1E
$BDGSA,A,1,,,,,,,,,,,,,,,*0F
$GPGSV,3,1,11,21,80,321,,08,57,176,15,01,50,289,,32,41,093,36*72
$GPGSV,3,2,11,22,36,116,31,27,27,154,,10,24,054,29,14,22,305,*77
$GPGSV,3,3,11,03,20,227,,17,03,317,,24,01,020,*4A
$BDGSV,1,1,00*68
$GNRMC,231319.000,V,4900.5353,N,00824.9841,E,1.467,59.23,050222,,,N*6A
$GNVTG,59.23,T,,M,1.467,N,2.717,K,N*16
---
Msg: Getting data from GPS using AT done
Resp:
AT+GPSRD=0

OK
----
Msg: GPS Read Off!
Msg: Getting data from Sensors
Temperature for the device 1 (index 0) is: 85.00
Msg: 1
Msg: 2
Resp:
AT+CIPSEND

>
----
Msg: Send Started!
Resp:
GET https://api.thingspeak.com/update?api_key=AYKVFH212TKGNW2B&field1=31.19&field2=18.44&field3=1008.49&field4=207.50&field5=217.90&field6=7&field7=85.00&field8=$GNGGA,231319.000,4900.5353,N,00824.9841,E,0,3,,219.4,M,47.9,M,,*56

----
Resp:

OK



+CIPRCV,1:8
CLOSED
----
Msg: Send Completed!
Resp:
AT+CIPSTATUS
+CIPSTATUS:
STATE:CLOSED
----

*****Error No.7

*****Error State.19
Resp:
AT+CREG=1

OK
----
Msg: Netwoek Set!
Resp:
AT+CREG?

+CREG: 1
----
Msg: Network Registered!
Resp:
AT+GPS=1

OK
----
Msg: GPS Set!
Resp:
AT+CGATT=1

+CGATT:1

OK
----
Msg: PS Attached!
Resp:
AT+CGDCONT?

+CGDCONT:1,"IP","pinternet.interkom.de
----
Msg: Context Exists!
Resp:
AT+CGACT=1,1

OK
----
Msg: Context Selected!
Resp:
AT+CGACT?

+CGACT: 1, 1
----
Msg: Context is Correct!
Resp:
AT+CIPSTATUS
+CIPSTATUS:
STATE:CLOSED
----
Msg: Status CLOSED!
Resp:
AT+CIPSTART="TCP","api.thingspeak.com",80
CONNECT OK
----
Msg: Connected!
Resp:
AT+GPSRD=5

OK
----
Msg: GPS Read Set!
Msg: Getting data from GPS using AT Cmd
Resp:
$GNGGA,231401.000,4900.5384,N,00824.8912,E,0,3,,212.4,M,47.9,M,,*5F
$GPGSA,A,1,22,32,10,,,,,,,,,,,,*1E
$BDGSA,A,1,,,,,,,,,,,,,,,*0F
$GPGSV,3,1,11,21,80,323,,08,57,176,12,01,50,290,15,32,41,092,36*7A
$GPGSV,3,2,11,22,37,116,29,27,26,154,,10,23,054,29,14,22,304,*78
$GPGSV,3,3,11,03,21,227,,17,03,317,,24,01,020,*4B
$BDGSV,1,1,00*68
$GNRMC,231401.000,V,4900.5384,N,00824.8912,E,1.516,264.77,050222,,,N*52
$GNVTG,264.77,T,,M,1.516,N,2.809,K,N*2C
---
Msg: Getting data from GPS using AT done
Resp:
AT+GPSRD=0

OK
----
Msg: GPS Read Off!
Msg: Getting data from Sensors
Temperature for the device 1 (index 0) is: 85.00
Msg: 1
Msg: 2
Resp:
AT+CIPSEND

>
----
Msg: Send Started!
Resp:
GET https://api.thingspeak.com/update?api_key=AYKVFH212TKGNW2B&field1=31.25&field2=18.49&field3=1008.47&field4=207.50&field5=217.90&field6=8&field7=85.00&field8=$GNGGA,231401.000,4900.5384,N,00824.8912,E,0,3,,212.4,M,47.9,M,,*5F

----
Resp:

OK

+CIPRCV,1:9


CLOSED
----
Msg: Send Completed!
Resp:
AT+CIPSTATUS
+CIPSTATUS:
STATE:CLOSED
----

*****Error No.8

*****Error State.19
Resp:
AT+CREG=1

OK
----
Msg: Netwoek Set!
Resp:
AT+CREG?

+CREG: 1
----
Msg: Network Registered!
Resp:
AT+GPS=1

OK
----
Msg: GPS Set!
Resp:
AT+CGATT=1

+CGATT:1

OK
----
Msg: PS Attached!
Resp:
AT+CGDCONT?

+CGDCONT:1,"IP","pinternet.interkom.de
----
Msg: Context Exists!
Resp:
AT+CGACT=1,1

OK
----
Msg: Context Selected!
Resp:
AT+CGACT?

+CGACT: 1, 1
----
Msg: Context is Correct!
Resp:
AT+CIPSTATUS
+CIPSTATUS:
STATE:CLOSED
----
Msg: Status CLOSED!
Resp:
AT+CIPSTART="TCP","api.thingspeak.com",80
CONNECT OK
----
Msg: Connected!
Resp:
AT+GPSRD=5

OK
----
Msg: GPS Read Set!
Msg: Getting data from GPS using AT Cmd
Resp:
$GNGGA,231442.000,4900.5356,N,00824.9728,E,0,4,,174.0,M,47.9,M,,*51
$GPGSA,A,1,22,32,27,10,,,,,,,,,,,*1B
$BDGSA,A,1,,,,,,,,,,,,,,,*0F
$GPGSV,3,1,12,21,80,323,,08,57,176,19,01,50,290,,32,41,092,38*78
$GPGSV,3,2,12,22,37,116,31,27,26,154,14,10,23,054,29,14,22,304,*77
$GPGSV,3,3,12,03,21,227,,17,03,317,,24,01,020,,36,,,*4D
$BDGSV,1,1,00*68
$GNRMC,231442.000,V,4900.5356,N,00824.9728,E,7.818,89.34,050222,,,N*6F
$GNVTG,89.34,T,,M,7.818,N,14.488,K,N*2D
---
Msg: Getting data from GPS using AT done
Resp:
AT+GPSRD=0

OK
----
Msg: GPS Read Off!
Msg: Getting data from Sensors
Temperature for the device 1 (index 0) is: 85.00
Msg: 1
Msg: 2
Resp:
AT+CIPSEND

>
----
Msg: Send Started!
Resp:
GET https://api.thingspeak.com/update?api_key=AYKVFH212TKGNW2B&field1=31.29&field2=18.34&field3=1008.46&field4=204.30&field5=214.60&field6=9&field7=85.00&field8=$GNGGA,231442.000,4900.5356,N,00824.9728,E,0,4,,174.0,M,47.9,M,,*51

----
Resp:

OK

+CIPRCV,2:10


CLOSED
----
Msg: Send Completed!
Resp:
AT+CIPSTATUS
+CIPSTATUS:
STATE:CLOSED
----

*****Error No.9

*****Error State.19
A9G Reset....
Resp:

+CREG: 2

^STN: 37
+CIEV: "Complete the Charge",100%

+CTZV:22/02/05,23:15:33,+01

+CREG: 1

A9/A9G
V02.02.20190915R
Ai_Thinker_Co._Ltd.
READY
----
Resp:

----
Resp:
AT

OK
----
Msg: Module READY!
Resp:
AT+CREG=1

OK
----
Msg: Netwoek Set!
Resp:
AT+CREG?

+CREG: 1
----
Msg: Network Registered!
Resp:
AT+GPS=1

OK
----
Msg: GPS Set!
Resp:
AT+CGATT=1

+CGATT:1

OK
----
Msg: PS Attached!
Resp:
AT+CGDCONT?

OK
----
Msg: Context Set!
Resp:
AT+CGDCONT=1,"IP","pinternet.interkom.de"

OK
----
Msg: Context Changed!
Resp:
AT+CGACT=1,1

OK
----
Msg: Context Selected!
Resp:
AT+CGACT?

+CGACT: 1, 1
----
Msg: Context is Correct!
Resp:
AT+CIPSTATUS
+CIPSTATUS:
STATE:IP INITIAL
----
Msg: Status INITIAL!
Resp:
AT+CIPSTART="TCP","api.thingspeak.com",80
CONNECT OK
----
Msg: Connected!
Resp:
AT+GPSRD=5

OK
----
Msg: GPS Read Set!
Msg: Getting data from GPS using AT Cmd
Resp:
$GNGGA,231546.097,4900.5563,N,00824.7583,E,0,3,,232.5,M,47.9,M,,*54
$GPGSA,A,1,32,22,10,,,,,,,,,,,,*1E
$BDGSA,A,1,,,,,,,,,,,,,,,*0F
$GPGSV,3,1,11,21,81,327,,08,56,176,19,01,51,290,,32,41,091,38*7D
$GPGSV,3,2,11,22,37,115,30,27,25,154,17,10,22,054,25,14,22,303,*7C
$GPGSV,3,3,11,03,22,228,,17,04,317,,24,01,019,*4A
$BDGSV,1,1,00*68
$GNRMC,231546.097,V,4900.5563,N,00824.7583,E,1.424,260.05,050222,,,N*5B
$GNVTG,260.05,T,,M,1.424,N,2.639,K,N*20
---
Msg: Getting data from GPS using AT done
Resp:
AT+GPSRD=0

OK
----
Msg: GPS Read Off!
Msg: Getting data from Sensors
Temperature for the device 1 (index 0) is: 85.00
Msg: 1
Msg: 2
Resp:
AT+CIPSEND

>
----
Msg: Send Started!
Resp:
GET https://api.thingspeak.com/update?api_key=AYKVFH212TKGNW2B&field1=31.33&field2=18.48&field3=1008.42&field4=201.10&field5=211.20&field6=10&field7=85.00&field8=$GNGGA,231546.097,4900.5563,N,00824.7583,E,0,3,,232.5,M,47.9,M,,*54

----
Resp:

OK



+CIPRCV,2:11
CLOSED
----
Msg: Send Completed!
Resp:
AT+CIPSTATUS
+CIPSTATUS:
STATE:CLOSED
----

*****Error No.10

*****Error State.19
Resp:
AT+CREG=1

OK
----
Msg: Netwoek Set!
Resp:
AT+CREG?

+CREG: 1
----
Msg: Network Registered!
Resp:
AT+GPS=1

OK
----
Msg: GPS Set!
Resp:
AT+CGATT=1

+CGATT:1

OK
----
Msg: PS Attached!
Resp:
AT+CGDCONT?

+CGDCONT:1,"IP","pinternet.interkom.de
----
Msg: Context Exists!
Resp:
AT+CGACT=1,1

OK
----
Msg: Context Selected!
Resp:
AT+CGACT?

+CGACT: 1, 1
----
Msg: Context is Correct!
Resp:
AT+CIPSTATUS
+CIPSTATUS:
STATE:CLOSED
----
Msg: Status CLOSED!
Resp:
AT+CIPSTART="TCP","api.thingspeak.com",80
CONNECT OK
----
Msg: Connected!
Resp:
AT+GPSRD=5

OK
----
Msg: GPS Read Set!
Msg: Getting data from GPS using AT Cmd
Resp:
$GNGGA,231627.097,4900.4727,N,00825.4640,E,0,3,,432.5,M,47.9,M,,*5B
$GPGSA,A,1,32,10,27,,,,,,,,,,,,*1B
$BDGSA,A,1,,,,,,,,,,,,,,,*0F
$GPGSV,3,1,11,21,81,327,,08,56,176,14,01,51,290,,32,41,090,35*7C
$GPGSV,3,2,11,22,37,115,25,27,25,154,16,10,22,054,24,14,22,303,*78
$GPGSV,3,3,11,03,22,228,,17,04,317,,24,01,019,*4A
$BDGSV,1,1,00*68
$GNRMC,231627.097,V,4900.4727,N,00825.4640,E,10.542,99.30,050222,,,N*51
$GNVTG,99.30,T,,M,10.542,N,19.534,K,N*17
---
Msg: Getting data from GPS using AT done
Resp:
AT+GPSRD=0

OK
----
Msg: GPS Read Off!
Msg: Getting data from Sensors
Temperature for the device 1 (index 0) is: 85.00
Msg: 1
Msg: 2
Resp:
AT+CIPSEND

>
----
Msg: Send Started!
Resp:
GET https://api.thingspeak.com/update?api_key=AYKVFH212TKGNW2B&field1=31.38&field2=18.21&field3=1008.41&field4=204.00&field5=214.30&field6=11&field7=85.00&field8=$GNGGA,231627.097,4900.4727,N,00825.4640,E,0,3,,432.5,M,47.9,M,,*5B

----
Resp:

OK



+CIPRCV,2:12
CLOSED
----
Msg: Send Completed!
Resp:
AT+CIPSTATUS
+CIPSTATUS:
STATE:CLOSED
----

*****Error No.11

*****Error State.19
Resp:
AT+CREG=1

OK
----
Msg: Netwoek Set!
Resp:
AT+CREG?

+CREG: 1
----
Msg: Network Registered!
Resp:
AT+GPS=1

OK
----
Msg: GPS Set!
Resp:
AT+CGATT=1

+CGATT:1

OK
----
Msg: PS Attached!
Resp:
AT+CGDCONT?

+CGDCONT:1,"IP","pinternet.interkom.de
----
Msg: Context Exists!
Resp:
AT+CGACT=1,1

OK
----
Msg: Context Selected!
Resp:
AT+CGACT?

+CGACT: 1, 1
----
Msg: Context is Correct!
Resp:
AT+CIPSTATUS
+CIPSTATUS:
STATE:CLOSED
----
Msg: Status CLOSED!
Resp:
AT+CIPSTART="TCP","api.thingspeak.com",80
CONNECT OK
----
Msg: Connected!
Resp:
AT+GPSRD=5

OK
----
Msg: GPS Read Set!
Msg: Getting data from GPS using AT Cmd
Resp:
$GNGGA,231709.000,4900.5264,N,00825.4707,E,0,3,,167.7,M,47.9,M,,*5E
$GPGSA,A,1,32,10,22,,,,,,,,,,,,*1E
$BDGSA,A,1,,,,,,,,,,,,,,,*0F
$GPGSV,3,1,11,21,81,327,,08,55,176,19,01,52,291,,32,41,090,36*73
$GPGSV,3,2,11,22,37,115,28,27,25,154,16,10,22,054,28,14,22,303,*79
$GPGSV,3,3,11,03,22,228,,17,04,317,,24,01,019,*4A
$BDGSV,1,1,00*68
$GNRMC,231709.000,V,4900.5264,N,00825.4707,E,9.515,92.63,050222,,,N*64
$GNVTG,92.63,T,,M,9.515,N,17.632,K,N*2B
---
Msg: Getting data from GPS using AT done
Resp:
AT+GPSRD=0

OK
----
Msg: GPS Read Off!
Msg: Getting data from Sensors
Temperature for the device 1 (index 0) is: 85.00
Msg: 1
Msg: 2
Resp:
AT+CIPSEND

>
----
Msg: Send Started!
Resp:
GET https://api.thingspeak.com/update?api_key=AYKVFH212TKGNW2B&field1=31.41&field2=18.16&field3=1008.41&field4=202.00&field5=212.20&field6=12&field7=85.00&field8=$GNGGA,231709.000,4900.5264,N,00825.4707,E,0,3,,167.7,M,47.9,M,,*5E

----
Resp:

OK



+CIPRCV,2:13
CLOSED
----
Msg: Send Completed!
Resp:
AT+CIPSTATUS
+CIPSTATUS:
STATE:CLOSED
----

*****Error No.12

*****Error State.19
Resp:
AT+CREG=1

OK
----
Msg: Netwoek Set!
Resp:
AT+CREG?

+CREG: 1
----
Msg: Network Registered!
Resp:
AT+GPS=1

OK
----
Msg: GPS Set!
Resp:
AT+CGATT=1

+CGATT:1

OK
----
Msg: PS Attached!
Resp:
AT+CGDCONT?

+CGDCONT:1,"IP","pinternet.interkom.de
----
Msg: Context Exists!
Resp:
AT+CGACT=1,1

OK
----
Msg: Context Selected!
Resp:
AT+CGACT?

+CGACT: 1, 1
----
Msg: Context is Correct!
Resp:
AT+CIPSTATUS
+CIPSTATUS:
STATE:CLOSED
----
Msg: Status CLOSED!
Resp:
AT+CIPSTART="TCP","api.thingspeak.com",80
CONNECT OK
----
Msg: Connected!
Resp:
AT+GPSRD=5

OK
----
Msg: GPS Read Set!
Msg: Getting data from GPS using AT Cmd
Resp:
$GNGGA,231750.000,4900.5395,N,00825.3737,E,0,4,,206.1,M,47.9,M,,*5C
$GPGSA,A,1,32,10,27,22,,,,,,,,,,,*1B
$BDGSA,A,1,,,,,,,,,,,,,,,*0F
$GPGSV,3,1,12,21,81,330,,08,55,176,15,01,52,291,,32,42,090,34*7B
$GPGSV,3,2,12,22,38,114,19,37,32,162,,27,24,155,17,10,22,054,27*7D
$GPGSV,3,3,12,14,22,303,,03,22,228,,17,05,318,,24,01,018,*73
$BDGSV,1,1,00*68
$GNRMC,231750.000,V,4900.5395,N,00825.3737,E,9.466,88.86,050222,,,N*66
$GNVTG,88.86,T,,M,9.466,N,17.541,K,N*29
---
Msg: Getting data from GPS using AT done
Resp:
AT+GPSRD=0

OK
----
Msg: GPS Read Off!
Msg: Getting data from Sensors
Temperature for the device 1 (index 0) is: 85.00
Msg: 1
Msg: 2
Resp:
AT+CIPSEND

>
----
Msg: Send Started!
Resp:
GET https://api.thingspeak.com/update?api_key=AYKVFH212TKGNW2B&field1=31.44&field2=18.39&field3=1008.42&field4=215.90&field5=226.70&field6=13&field7=85.00&field8=$GNGGA,231750.000,4900.5395,N,00825.3737,E,0,4,,206.1,M,47.9,M,,*5C

----
Resp:

OK



+CIPRCV,2:14
CLOSED
----
Msg: Send Completed!
Resp:
AT+CIPSTATUS
+CIPSTATUS:
STATE:CLOSED
----

*****Error No.13

*****Error State.19
Resp:
AT+CREG=1

OK
----
Msg: Netwoek Set!
Resp:
AT+CREG?

+CREG: 1
----
Msg: Network Registered!
Resp:
AT+GPS=1

OK
----
Msg: GPS Set!
Resp:
AT+CGATT=1

+CGATT:1

OK
----
Msg: PS Attached!
Resp:
AT+CGDCONT?

+CGDCONT:1,"IP","pinternet.interkom.de
----
Msg: Context Exists!
Resp:
AT+CGACT=1,1

OK
----
Msg: Context Selected!
Resp:
AT+CGACT?

+CGACT: 1, 1
----
Msg: Context is Correct!
Resp:
AT+CIPSTATUS
+CIPSTATUS:
STATE:CLOSED
----
Msg: Status CLOSED!
Resp:
AT+CIPSTART="TCP","api.thingspeak.com",80
CONNECT OK
----
Msg: Connected!
Resp:
AT+GPSRD=5

OK
----
Msg: GPS Read Set!
Msg: Getting data from GPS using AT Cmd
Resp:
$GNGGA,231831.000,4900.5283,N,00825.4216,E,1,4,6.27,195.8,M,47.9,M,,*4F
$GPGSA,A,3,32,10,27,22,,,,,,,,,6.35,6.27,0.99*04
$BDGSA,A,3,,,,,,,,,,,,,6.35,6.27,0.99*10
$GPGSV,3,1,11,21,81,330,,08,54,176,15,01,52,291,,32,42,090,33*7E
$GPGSV,3,2,11,22,38,114,27,27,24,155,13,03,23,228,,14,22,302,*7C
$GPGSV,3,3,11,10,21,054,24,17,05,318,,24,01,018,*4B
$BDGSV,1,1,00*68
$GNRMC,231831.000,A,4900.5283,N,00825.4216,E,10.180,92.16,050222,,,A*46
$GNVTG,92.16,T,,M,10.180,N,18.863,K,A*13
---
Msg: Getting data from GPS using AT done
Resp:
AT+GPSRD=0

OK
----
Msg: GPS Read Off!
Msg: Getting data from Sensors
Temperature for the device 1 (index 0) is: 85.00
Msg: 1
Msg: 2
Resp:
AT+CIPSEND

>
----
Msg: Send Started!
Resp:
GET https://api.thingspeak.com/update?api_key=AYKVFH212TKGNW2B&field1=31.46&field2=18.49&field3=1008.41&field4=214.30&field5=225.10&field6=14&field7=85.00&field8=$GNGGA,231831.000,4900.5283,N,00825.4216,E,1,4,6.27,195.8,M,47.9,M,,*4F

----
Resp:

OK

+CIPRCV,2:15


CLOSED
----
Msg: Send Completed!
Resp:
AT+CIPSTATUS
+CIPSTATUS:
STATE:CLOSED
----

*****Error No.14

*****Error State.19
Resp:
AT+CREG=1

OK
----
Msg: Netwoek Set!
Resp:
AT+CREG?

+CREG: 1
----
Msg: Network Registered!
Resp:
AT+GPS=1

OK
----
Msg: GPS Set!
Resp:
AT+CGATT=1

+CGATT:1

OK
----
Msg: PS Attached!
Resp:
AT+CGDCONT?

+CGDCONT:1,"IP","pinternet.interkom.de
----
Msg: Context Exists!
Resp:
AT+CGACT=1,1

OK
----
Msg: Context Selected!
Resp:
AT+CGACT?

+CGACT: 1, 1
----
Msg: Context is Correct!
Resp:
AT+CIPSTATUS
+CIPSTATUS:
STATE:CLOSED
----
Msg: Status CLOSED!
Resp:
AT+CIPSTART="TCP","api.thingspeak.com",80
CONNECT OK
----
Msg: Connected!
Resp:
AT+GPSRD=5

OK
----
Msg: GPS Read Set!
Msg: Getting data from GPS using AT Cmd
Resp:
$GNGGA,231912.000,4900.5338,N,00825.3823,E,1,4,6.37,200.1,M,47.9,M,,*42
$GPGSA,A,3,32,10,27,22,,,,,,,,,6.45,6.37,0.99*02
$BDGSA,A,3,,,,,,,,,,,,,6.45,6.37,0.99*16
$GPGSV,3,1,11,21,82,332,,08,54,176,18,01,52,291,,32,42,089,34*7D
$GPGSV,3,2,11,22,38,114,30,27,24,155,16,03,23,228,,14,22,302,*7F
$GPGSV,3,3,11,10,21,054,23,17,05,318,,24,01,018,*4C
$BDGSV,1,1,00*68
$GNRMC,231912.000,A,4900.5338,N,00825.3823,E,9.919,94.21,050222,,,A*7E
$GNVTG,94.21,T,,M,9.919,N,18.379,K,A*21
---
Msg: Getting data from GPS using AT done
Resp:
AT+GPSRD=0

OK
----
Msg: GPS Read Off!
Msg: Getting data from Sensors
Temperature for the device 1 (index 0) is: 85.00
Msg: 1
Msg: 2
Resp:
AT+CIPSEND

>
----
Msg: Send Started!
Resp:
GET https://api.thingspeak.com/update?api_key=AYKVFH212TKGNW2B&field1=31.48&field2=18.29&field3=1008.39&field4=213.50&field5=224.20&field6=15&field7=85.00&field8=$GNGGA,231912.000,4900.5338,N,00825.3823,E,1,4,6.37,200.1,M,47.9,M,,*42

----
Resp:

OK



+CIPRCV,2:16
CLOSED
----
Msg: Send Completed!
Resp:
AT+CIPSTATUS
+CIPSTATUS:
STATE:CLOSED
----

*****Error No.15

*****Error State.19
Resp:
AT+CREG=1

OK
----
Msg: Netwoek Set!
Resp:
AT+CREG?

+CREG: 1
----
Msg: Network Registered!
Resp:
AT+GPS=1

OK
----
Msg: GPS Set!
Resp:
AT+CGATT=1

+CGATT:1

OK
----
Msg: PS Attached!
Resp:
AT+CGDCONT?

+CGDCONT:1,"IP","pinternet.interkom.de
----
Msg: Context Exists!
Resp:
AT+CGACT=1,1

OK
----
Msg: Context Selected!
Resp:
AT+CGACT?

+CGACT: 1, 1
----
Msg: Context is Correct!
Resp:
AT+CIPSTATUS
+CIPSTATUS:
STATE:CLOSED
----
Msg: Status CLOSED!
Resp:
AT+CIPSTART="TCP","api.thingspeak.com",80
CONNECT OK
----
Msg: Connected!
Resp:
AT+GPSRD=5

OK
----
Msg: GPS Read Set!
Msg: Getting data from GPS using AT Cmd
Resp:
$GNGGA,231953.000,4900.5351,N,00825.3489,E,1,4,6.47,189.7,M,47.9,M,,*47
$GPGSA,A,3,32,10,27,22,,,,,,,,,6.55,6.47,0.99*04
$BDGSA,A,3,,,,,,,,,,,,,6.55,6.47,0.99*10
$GPGSV,3,1,11,21,82,335,,08,54,175,,01,53,292,,32,42,089,33*75
$GPGSV,3,2,11,22,38,113,32,27,24,155,14,03,23,229,,14,22,302,*79
$GPGSV,3,3,11,10,21,054,25,17,05,318,,24,01,018,*4A
$BDGSV,1,1,00*68
$GNRMC,231953.000,A,4900.5351,N,00825.3489,E,10.529,89.29,050222,,,A*4B
$GNVTG,89.29,T,,M,10.529,N,19.511,K,A*1B
---
Msg: Getting data from GPS using AT done
Resp:
AT+GPSRD=0

OK
----
Msg: GPS Read Off!
Msg: Getting data from Sensors
Temperature for the device 1 (index 0) is: 85.00
Msg: 1
Msg: 2
Resp:
AT+CIPSEND

>
----
Msg: Send Started!
Resp:
GET https://api.thingspeak.com/update?api_key=AYKVFH212TKGNW2B&field1=31.50&field2=18.45&field3=1008.41&field4=201.60&field5=211.70&field6=16&field7=85.00&field8=$GNGGA,231953.000,4900.5351,N,00825.3489,E,1,4,6.47,189.7,M,47.9,M,,*47

----
Resp:

OK



+CIPRCV,2:17
CLOSED
----
Msg: Send Completed!
Resp:
AT+CIPSTATUS
+CIPSTATUS:
STATE:CLOSED
----

*****Error No.16

*****Error State.19
Resp:
AT+CREG=1

OK
----
Msg: Netwoek Set!
Resp:
AT+CREG?

+CREG: 1
----
Msg: Network Registered!
Resp:
AT+GPS=1

OK
----
Msg: GPS Set!
Resp:
AT+CGATT=1

+CGATT:1

OK
----
Msg: PS Attached!
Resp:
AT+CGDCONT?

+CGDCONT:1,"IP","pinternet.interkom.de
----
Msg: Context Exists!
Resp:
AT+CGACT=1,1

OK
----
Msg: Context Selected!
Resp:
AT+CGACT?

+CGACT: 1, 1
----
Msg: Context is Correct!
Resp:
AT+CIPSTATUS
+CIPSTATUS:
STATE:CLOSED
----
Msg: Status CLOSED!
Resp:
AT+CIPSTART="TCP","api.thingspeak.com",80
CONNECT OK
----
Msg: Connected!
Resp:
AT+GPSRD=5

OK
----
Msg: GPS Read Set!
Msg: Getting data from GPS using AT Cmd
Resp:
$GNGGA,232034.000,4900.5318,N,00825.3999,E,1,4,6.59,184.8,M,47.9,M,,*40
$GPGSA,A,3,32,10,27,22,,,,,,,,,6.66,6.59,0.99*0B
$BDGSA,A,3,,,,,,,,,,,,,6.66,6.59,0.99*1F
$GPGSV,3,1,11,21,82,335,,08,54,175,,01,53,292,,32,42,088,36*71
$GPGSV,3,2,11,22,38,113,23,27,23,155,11,03,23,229,,14,22,302,*7B
$GPGSV,3,3,11,10,21,054,26,17,05,318,,24,01,017,*46
$BDGSV,1,1,01,09,,,29*6B
$GNRMC,232034.000,A,4900.5318,N,00825.3999,E,11.824,92.07,050222,,,A*46
$GNVTG,92.07,T,,M,11.824,N,21.910,K,A*1A
---
Msg: Getting data from GPS using AT done
Resp:
AT+GPSRD=0

OK
----
Msg: GPS Read Off!
Msg: Getting data from Sensors
Temperature for the device 1 (index 0) is: 85.00
Msg: 1
Msg: 2
Resp:
AT+CIPSEND

>
----
Msg: Send Started!
Resp:
GET https://api.thingspeak.com/update?api_key=AYKVFH212TKGNW2B&field1=31.50&field2=18.25&field3=1008.42&field4=200.50&field5=210.60&field6=17&field7=85.00&field8=$GNGGA,232034.000,4900.5318,N,00825.3999,E,1,4,6.59,184.8,M,47.9,M,,*40

----
Resp:

OK

+CIPRCV,2:18


CLOSED
----
Msg: Send Completed!
Resp:
AT+CIPSTATUS
+CIPSTATUS:
STATE:CLOSED
----

*****Error No.17

*****Error State.19
Resp:
AT+CREG=1

OK
----
Msg: Netwoek Set!
Resp:
AT+CREG?

+CREG: 1
----
Msg: Network Registered!
Resp:
AT+GPS=1

OK
----
Msg: GPS Set!
Resp:
AT+CGATT=1

+CGATT:1

OK
----
Msg: PS Attached!
Resp:
AT+CGDCONT?

+CGDCONT:1,"IP","pinternet.interkom.de
----
Msg: Context Exists!
Resp:
AT+CGACT=1,1

OK
----
Msg: Context Selected!
Resp:
AT+CGACT?

+CGACT: 1, 1
----
Msg: Context is Correct!
Resp:
AT+CIPSTATUS
+CIPSTATUS:
STATE:CLOSED
----
Msg: Status CLOSED!
Resp:
AT+CIPSTART="TCP","api.thingspeak.com",80
CONNECT OK
----
Msg: Connected!
Resp:
AT+GPSRD=5

OK
----
Msg: GPS Read Set!
Msg: Getting data from GPS using AT Cmd
Resp:
$GNGGA,232116.000,4900.5417,N,00825.1318,E,1,4,9.37,170.7,M,47.9,M,,*4B
$GPGSA,A,3,32,10,22,,,,,,,,,,9.42,9.37,0.99*00
$BDGSA,A,3,09,,,,,,,,,,,,9.42,9.37,0.99*18
$GPGSV,3,1,12,21,82,339,16,01,53,292,13,08,53,175,14,32,42,088,38*77
$GPGSV,3,2,12,22,39,112,30,33,29,210,,03,24,229,,27,23,155,*71
$GPGSV,3,3,12,14,22,301,,10,20,054,24,17,06,318,,24,01,017,*72
$BDGSV,1,1,01,09,27,079,29*50
$GNRMC,232116.000,A,4900.5417,N,00825.1318,E,9.317,269.90,050222,,,A*44
$GNVTG,269.90,T,,M,9.317,N,17.265,K,A*1C
---
Msg: Getting data from GPS using AT done
Resp:
AT+GPSRD=0

OK
----
Msg: GPS Read Off!
Msg: Getting data from Sensors
Temperature for the device 1 (index 0) is: 85.00
Msg: 1
Msg: 2
Resp:
AT+CIPSEND

>
----
Msg: Send Started!
Resp:
GET https://api.thingspeak.com/update?api_key=AYKVFH212TKGNW2B&field1=31.51&field2=18.15&field3=1008.41&field4=215.70&field5=226.50&field6=18&field7=85.00&field8=$GNGGA,232116.000,4900.5417,N,00825.1318,E,1,4,9.37,170.7,M,47.9,M,,*4B

----
Resp:

OK

+CIPRCV,2:19


CLOSED
----
Msg: Send Completed!
Resp:
AT+CIPSTATUS
+CIPSTATUS:
STATE:CLOSED
----

*****Error No.18

*****Error State.19
Resp:
AT+CREG=1

OK
----
Msg: Netwoek Set!
Resp:
AT+CREG?

+CREG: 1
----
Msg: Network Registered!
Resp:
AT+GPS=1

OK
----
Msg: GPS Set!
Resp:
AT+CGATT=1

+CGATT:1

OK
----
Msg: PS Attached!
Resp:
AT+CGDCONT?

+CGDCONT:1,"IP","pinternet.interkom.de
----
Msg: Context Exists!
Resp:
AT+CGACT=1,1

OK
----
Msg: Context Selected!
Resp:
AT+CGACT?

+CGACT: 1, 1
----
Msg: Context is Correct!
Resp:
AT+CIPSTATUS
+CIPSTATUS:
STATE:CLOSED
----
Msg: Status CLOSED!
Resp:
AT+CIPSTART="TCP","api.thingspeak.com",80
CONNECT OK
----
Msg: Connected!
Resp:
AT+GPSRD=5

OK
----
Msg: GPS Read Set!
Msg: Getting data from GPS using AT Cmd
Resp:
$GNGGA,232157.000,4900.5522,N,00824.7721,E,1,5,5.45,178.8,M,47.9,M,,*4F
$GPGSA,A,3,32,10,27,22,,,,,,,,,5.54,5.45,0.98*06
$BDGSA,A,3,09,,,,,,,,,,,,5.54,5.45,0.98*1B
$GPGSV,3,1,12,21,82,339,17,01,53,292,,08,53,175,14,32,42,087,39*7A
$GPGSV,3,2,12,22,39,112,30,39,31,158,,03,24,229,,27,23,155,16*7A
$GPGSV,3,3,12,14,22,301,,10,20,054,23,17,06,318,,24,01,017,*75
$BDGSV,1,1,02,09,27,079,29,20,06,211,*65
$GNRMC,232157.000,A,4900.5522,N,00824.7721,E,11.006,274.82,050222,,,A*7A
$GNVTG,274.82,T,,M,11.006,N,20.393,K,A*25
---
Msg: Getting data from GPS using AT done
Resp:
AT+GPSRD=0

OK
----
Msg: GPS Read Off!
Msg: Getting data from Sensors
Temperature for the device 1 (index 0) is: 85.00
Msg: 1
Msg: 2
Resp:
AT+CIPSEND

>
----
Msg: Send Started!
Resp:
GET https://api.thingspeak.com/update?api_key=AYKVFH212TKGNW2B&field1=31.52&field2=18.14&field3=1008.42&field4=201.00&field5=211.10&field6=19&field7=85.00&field8=$GNGGA,232157.000,4900.5522,N,00824.7721,E,1,5,5.45,178.8,M,47.9,M,,*4F

----
Resp:

OK



+CIPRCV,2:20
CLOSED
----
Msg: Send Completed!
Resp:
AT+CIPSTATUS
+CIPSTATUS:
STATE:CLOSED
----

*****Error No.19

*****Error State.19
A9G Reset....
Resp:

+CREG: 2

^STN: 37
+CIEV: "Complete the Charge",100%

+CTZV:22/02/05,23:22:50,+01

+CREG: 1

A9/A9G
V02.02.20190915R
Ai_Thinker_Co._Ltd.
READY
----
Resp:

----
Resp:
AT

OK
----
Msg: Module READY!
Resp:
AT+CREG=1

OK
----
Msg: Netwoek Set!
Resp:
AT+CREG?

+CREG: 1
----
Msg: Network Registered!
Resp:
AT+GPS=1

OK
----
Msg: GPS Set!
Resp:
AT+CGATT=1

+CGATT:1

OK
----
Msg: PS Attached!
Resp:
AT+CGDCONT?

OK
----
Msg: Context Set!
Resp:
AT+CGDCONT=1,"IP","pinternet.interkom.de"

OK
----
Msg: Context Changed!
Resp:
AT+CGACT=1,1

OK
----
Msg: Context Selected!
Resp:
AT+CGACT?

+CGACT: 1, 1
----
Msg: Context is Correct!
Resp:
AT+CIPSTATUS
+CIPSTATUS:
STATE:IP INITIAL
----
Msg: Status INITIAL!
Resp:
AT+CIPSTART="TCP","api.thingspeak.com",80
CONNECT OK
----
Msg: Connected!
Resp:
AT+GPSRD=5

OK
----
Msg: GPS Read Set!
Msg: Getting data from GPS using AT Cmd
Resp:
$GNGGA,232304.103,4900.5206,N,00825.3705,E,0,2,,156.9,M,47.9,M,,*5A
$GPGSA,A,1,32,22,,,,,,,,,,,,,*1F
$BDGSA,A,1,,,,,,,,,,,,,,,*0F
$GPGSV,2,1,08,01,54,293,,08,52,175,,32,42,086,39,22,39,112,31*7F
$GPGSV,2,2,08,03,25,229,,27,22,155,,10,19,054,,24,01,016,*70
$BDGSV,1,1,00*68
$GNRMC,232304.103,V,4900.5206,N,00825.3705,E,4.066,275.93,050222,,,N*55
$GNVTG,275.93,T,,M,4.066,N,7.534,K,N*27
---
Msg: Getting data from GPS using AT done
Resp:
AT+GPSRD=0

OK
----
Msg: GPS Read Off!
Msg: Getting data from Sensors
Temperature for the device 1 (index 0) is: 85.00
Msg: 1
Msg: 2
Resp:
AT+CIPSEND

>
----
Msg: Send Started!
Resp:
GET https://api.thingspeak.com/update?api_key=AYKVFH212TKGNW2B&field1=31.50&field2=18.17&field3=1008.41&field4=195.30&field5=205.10&field6=20&field7=85.00&field8=$GNGGA,232304.103,4900.5206,N,00825.3705,E,0,2,,156.9,M,47.9,M,,*5A

----
Resp:

OK



+CIPRCV,2:21
CLOSED
----
Msg: Send Completed!
Resp:
AT+CIPSTATUS
+CIPSTATUS:
STATE:CLOSED
----

*****Error No.20

*****Error State.19
Resp:
AT+CREG=1

OK
----
Msg: Netwoek Set!
Resp:
AT+CREG?

+CREG: 1
----
Msg: Network Registered!
Resp:
AT+GPS=1

OK
----
Msg: GPS Set!
Resp:
AT+CGATT=1

+CGATT:1

OK
----
Msg: PS Attached!
Resp:
AT+CGDCONT?

+CGDCONT:1,"IP","pinternet.interkom.de
----
Msg: Context Exists!
Resp:
AT+CGACT=1,1

OK
----
Msg: Context Selected!
Resp:
AT+CGACT?

+CGACT: 1, 1
----
Msg: Context is Correct!
Resp:
AT+CIPSTATUS
+CIPSTATUS:
STATE:CLOSED
----
Msg: Status CLOSED!
Resp:
AT+CIPSTART="TCP","api.thingspeak.com",80
CONNECT OK
----
Msg: Connected!
Resp:
AT+GPSRD=5

OK
----
Msg: GPS Read Set!
Msg: Getting data from GPS using AT Cmd
Resp:
$GNGGA,232346.103,4900.5187,N,00825.3692,E,0,4,,136.9,M,47.9,M,,*59
$GPGSA,A,1,32,22,10,,,,,,,,,,,,*1E
$BDGSA,A,1,09,,,,,,,,,,,,,,*06
$GPGSV,2,1,08,01,54,293,,08,52,175,,32,42,086,38,22,39,111,30*7C
$GPGSV,2,2,08,03,25,229,,27,22,155,,10,19,054,18,24,01,016,*79
$BDGSV,1,1,01,09,28,079,28*5E
$GNRMC,232346.103,V,4900.5187,N,00825.3692,E,3.889,269.60,050222,,,N*59
$GNVTG,269.60,T,,M,3.889,N,7.206,K,N*2E
---
Msg: Getting data from GPS using AT done
Resp:
AT+GPSRD=0

OK
----
Msg: GPS Read Off!
Msg: Getting data from Sensors
Temperature for the device 1 (index 0) is: 85.00
Msg: 1
Msg: 2
Resp:
AT+CIPSEND

>
----
Msg: Send Started!
Resp:
GET https://api.thingspeak.com/update?api_key=AYKVFH212TKGNW2B&field1=31.51&field2=18.24&field3=1008.41&field4=209.70&field5=220.20&field6=21&field7=85.00&field8=$GNGGA,232346.103,4900.5187,N,00825.3692,E,0,4,,136.9,M,47.9,M,,*59

----
Resp:

OK



+CIPRCV,2:22
CLOSED
----
Msg: Send Completed!
Resp:
AT+CIPSTATUS
+CIPSTATUS:
STATE:CLOSED
----

*****Error No.21

*****Error State.19
Resp:
AT+CREG=1

OK
----
Msg: Netwoek Set!
Resp:
AT+CREG?

+CREG: 1
----
Msg: Network Registered!
Resp:
AT+GPS=1

OK
----
Msg: GPS Set!
Resp:
AT+CGATT=1

+CGATT:1

OK
----
Msg: PS Attached!
Resp:
AT+CGDCONT?

+CGDCONT:1,"IP","pinternet.interkom.de
----
Msg: Context Exists!
Resp:
AT+CGACT=1,1

OK
----
Msg: Context Selected!
Resp:
AT+CGACT?

+CGACT: 1, 1
----
Msg: Context is Correct!
Resp:
AT+CIPSTATUS
+CIPSTATUS:
STATE:CLOSED
----
Msg: Status CLOSED!
Resp:
AT+CIPSTART="TCP","api.thingspeak.com",80
CONNECT OK
----
Msg: Connected!
Resp:
AT+GPSRD=5

OK
----
Msg: GPS Read Set!
Msg: Getting data from GPS using AT Cmd
Resp:
$GNGGA,232427.000,4900.5400,N,00825.3450,E,1,4,11.80,149.8,M,47.9,M,,*73
$GPGSA,A,3,32,22,27,,,,,,,,,,11.84,11.80,0.98*03
$BDGSA,A,3,09,,,,,,,,,,,,11.84,11.80,0.98*1F
$GPGSV,3,1,09,01,55,294,,08,52,175,,32,42,086,33,22,39,111,29*79
$GPGSV,3,2,09,03,25,230,,27,22,155,18,14,22,300,,10,19,054,*77
$GPGSV,3,3,09,24,01,016,*40
$BDGSV,1,1,01,09,28,079,26*50
$GNRMC,232427.000,A,4900.5400,N,00825.3450,E,2.740,96.87,050222,,,A*75
$GNVTG,96.87,T,,M,2.740,N,5.076,K,A*16
---
Msg: Getting data from GPS using AT done
Resp:
AT+GPSRD=0

OK
----
Msg: GPS Read Off!
Msg: Getting data from Sensors
Temperature for the device 1 (index 0) is: 85.00
Msg: 1
Msg: 2
Resp:
AT+CIPSEND

>
----
Msg: Send Started!
Resp:
GET https://api.thingspeak.com/update?api_key=AYKVFH212TKGNW2B&field1=31.50&field2=18.06&field3=1008.41&field4=199.70&field5=209.70&field6=22&field7=85.00&field8=$GNGGA,232427.000,4900.5400,N,00825.3450,E,1,4,11.80,149.8,M,47.9,M,,*73

----
Resp:

OK



+CIPRCV,2:23
CLOSED
----
Msg: Send Completed!
Resp:
AT+CIPSTATUS
+CIPSTATUS:
STATE:CLOSED
----

*****Error No.22

*****Error State.19
Resp:
AT+CREG=1

OK
----
Msg: Netwoek Set!
Resp:
AT+CREG?

+CREG: 1
----
Msg: Network Registered!
Resp:
AT+GPS=1

OK
----
Msg: GPS Set!
Resp:
AT+CGATT=1

+CGATT:1

OK
----
Msg: PS Attached!
Resp:
AT+CGDCONT?

+CGDCONT:1,"IP","pinternet.interkom.de
----
Msg: Context Exists!
Resp:
AT+CGACT=1,1

OK
----
Msg: Context Selected!
Resp:
AT+CGACT?

+CGACT: 1, 1
----
Msg: Context is Correct!
Resp:
AT+CIPSTATUS
+CIPSTATUS:
STATE:CLOSED
----
Msg: Status CLOSED!
Resp:
AT+CIPSTART="TCP","api.thingspeak.com",80
CONNECT OK
----
Msg: Connected!
Resp:
AT+GPSRD=5

OK
----
Msg: GPS Read Set!
Msg: Getting data from GPS using AT Cmd
Resp:
$GNGGA,232508.000,4900.5441,N,00825.2914,E,1,5,5.87,195.9,M,47.9,M,,*45
$GPGSA,A,3,32,22,10,27,,,,,,,,,5.95,5.87,0.97*0A
$BDGSA,A,3,09,,,,,,,,,,,,5.95,5.87,0.97*17
$GPGSV,3,1,09,01,55,294,,08,51,175,,32,42,085,28,22,40,111,24*70
$GPGSV,3,2,09,37,32,162,,03,25,230,,14,22,299,,27,21,155,17*72
$GPGSV,3,3,09,10,19,055,15*4D
$BDGSV,1,1,02,09,28,079,26,02,02,100,*62
$GNRMC,232508.000,A,4900.5441,N,00825.2914,E,4.562,105.07,050222,,,A*47
$GNVTG,105.07,T,,M,4.562,N,8.453,K,A*2F
---
Msg: Getting data from GPS using AT done
Resp:
AT+GPSRD=0

OK
----
Msg: GPS Read Off!
Msg: Getting data from Sensors
Temperature for the device 1 (index 0) is: 85.00
Msg: 1
Msg: 2
Resp:
AT+CIPSEND

>
----
Msg: Send Started!
Resp:
GET https://api.thingspeak.com/update?api_key=AYKVFH212TKGNW2B&field1=31.50&field2=18.24&field3=1008.40&field4=198.10&field5=208.10&field6=23&field7=85.00&field8=$GNGGA,232508.000,4900.5441,N,00825.2914,E,1,5,5.87,195.9,M,47.9,M,,*45

----
Resp:

OK



+CIPRCV,2:24
CLOSED
----
Msg: Send Completed!
Resp:
AT+CIPSTATUS
+CIPSTATUS:
STATE:CLOSED
----

*****Error No.23

*****Error State.19
Resp:
AT+CREG=1

OK
----
Msg: Netwoek Set!
Resp:
AT+CREG?

+CREG: 1
----
Msg: Network Registered!
Resp:
AT+GPS=1

OK
----
Msg: GPS Set!
Resp:
AT+CGATT=1

+CGATT:1

OK
----
Msg: PS Attached!
Resp:
AT+CGDCONT?

+CGDCONT:1,"IP","pinternet.interkom.de
----
Msg: Context Exists!
Resp:
AT+CGACT=1,1

OK
----
Msg: Context Selected!
Resp:
AT+CGACT?

+CGACT: 1, 1
----
Msg: Context is Correct!
Resp:
AT+CIPSTATUS
+CIPSTATUS:
STATE:CLOSED
----
Msg: Status CLOSED!
Resp:
AT+CIPSTART="TCP","api.thingspeak.com",80
CONNECT OK
----
Msg: Connected!
Resp:
AT+GPSRD=5

OK
----
Msg: GPS Read Set!
Msg: Getting data from GPS using AT Cmd
Resp:
$GNGGA,232549.000,4900.5410,N,00825.2897,E,1,5,5.96,236.2,M,47.9,M,,*4F
$GPGSA,A,3,32,22,10,27,,,,,,,,,6.04,5.96,0.97*01
$BDGSA,A,3,09,,,,,,,,,,,,6.04,5.96,0.97*1C
$GPGSV,3,1,09,01,55,294,,08,51,175,,32,42,085,26,22,40,111,27*7D
$GPGSV,3,2,09,03,26,230,,14,22,299,,27,21,155,20,10,19,055,19*74
$GPGSV,3,3,09,17,08,318,*44
$BDGSV,1,1,03,27,54,136,,09,28,079,28,02,02,100,*5D
$GNRMC,232549.000,A,4900.5410,N,00825.2897,E,7.156,114.46,050222,,,A*49
$GNVTG,114.46,T,,M,7.156,N,13.260,K,A*16
---
Msg: Getting data from GPS using AT done
Resp:
AT+GPSRD=0

OK
----
Msg: GPS Read Off!
Msg: Getting data from Sensors
Temperature for the device 1 (index 0) is: 85.00
Msg: 1
Msg: 2
Resp:
AT+CIPSEND

>
----
Msg: Send Started!
Resp:
GET https://api.thingspeak.com/update?api_key=AYKVFH212TKGNW2B&field1=31.49&field2=18.29&field3=1008.39&field4=193.70&field5=203.40&field6=24&field7=85.00&field8=$GNGGA,232549.000,4900.5410,N,00825.2897,E,1,5,5.96,236.2,M,47.9,M,,*4F

----
Resp:

OK



+CIPRCV,2:25
CLOSED
----
Msg: Send Completed!
Resp:
AT+CIPSTATUS
+CIPSTATUS:
STATE:CLOSED
----

*****Error No.24

*****Error State.19
Resp:
AT+CREG=1

OK
----
Msg: Netwoek Set!
Resp:
AT+CREG?

+CREG: 1
----
Msg: Network Registered!
Resp:
AT+GPS=1

OK
----
Msg: GPS Set!
Resp:
AT+CGATT=1

+CGATT:1

OK
----
Msg: PS Attached!
Resp:
AT+CGDCONT?

+CGDCONT:1,"IP","pinternet.interkom.de
----
Msg: Context Exists!
Resp:
AT+CGACT=1,1

OK
----
Msg: Context Selected!
Resp:
AT+CGACT?

+CGACT: 1, 1
----
Msg: Context is Correct!
Resp:
AT+CIPSTATUS
+CIPSTATUS:
STATE:CLOSED
----
Msg: Status CLOSED!
Resp:
AT+CIPSTART="TCP","api.thingspeak.com",80
CONNECT OK
----
Msg: Connected!
Resp:
AT+GPSRD=5

OK
----
Msg: GPS Read Set!
Msg: Getting data from GPS using AT Cmd
Resp:
$GNGGA,232630.000,4900.5308,N,00825.3410,E,1,5,6.06,223.0,M,47.9,M,,*42
$GPGSA,A,3,32,22,10,27,,,,,,,,,6.14,6.06,0.97*0A
$BDGSA,A,3,09,,,,,,,,,,,,6.14,6.06,0.97*17
$GPGSV,3,1,09,01,55,294,,08,51,175,,32,42,084,32,22,40,110,24*7B
$GPGSV,3,2,09,03,26,230,,14,22,299,,27,21,156,20,10,18,055,13*7C
$GPGSV,3,3,09,17,08,318,*44
$BDGSV,2,1,06,27,54,136,,09,28,079,29,05,18,121,,29,14,307,*6F
$BDGSV,2,2,06,28,04,130,,02,02,100,*63
$GNRMC,232630.000,A,4900.5308,N,00825.3410,E,3.184,112.05,050222,,,A*42
$GNVTG,112.05,T,,M,3.184,N,5.900,K,A*26
---
Msg: Getting data from GPS using AT done
Resp:
AT+GPSRD=0

OK
----
Msg: GPS Read Off!
Msg: Getting data from Sensors
Temperature for the device 1 (index 0) is: 85.00
Msg: 1
Msg: 2
Resp:
AT+CIPSEND

>
----
Msg: Send Started!
Resp:
GET https://api.thingspeak.com/update?api_key=AYKVFH212TKGNW2B&field1=31.48&field2=18.42&field3=1008.39&field4=211.70&field5=222.30&field6=25&field7=85.00&field8=$GNGGA,232630.000,4900.5308,N,00825.3410,E,1,5,6.06,223.0,M,47.9,M,,*42

----
Resp:

OK



+CIPRCV,2:26
CLOSED
----
Msg: Send Completed!
Resp:
AT+CIPSTATUS
+CIPSTATUS:
STATE:CLOSED
----

*****Error No.25

*****Error State.19
Resp:
AT+CREG=1

OK
----
Msg: Netwoek Set!
Resp:
AT+CREG?

+CREG: 1
----
Msg: Network Registered!
Resp:
AT+GPS=1

OK
----
Msg: GPS Set!
Resp:
AT+CGATT=1

+CGATT:1

OK
----
Msg: PS Attached!
Resp:
AT+CGDCONT?

+CGDCONT:1,"IP","pinternet.interkom.de
----
Msg: Context Exists!
Resp:
AT+CGACT=1,1

OK
----
Msg: Context Selected!
Resp:
AT+CGACT?

+CGACT: 1, 1
----
Msg: Context is Correct!
Resp:
AT+CIPSTATUS
+CIPSTATUS:
STATE:CLOSED
----
Msg: Status CLOSED!
Resp:
AT+CIPSTART="TCP","api.thingspeak.com",80
CONNECT OK
----
Msg: Connected!
Resp:
AT+GPSRD=5

OK
----
Msg: GPS Read Set!
Msg: Getting data from GPS using AT Cmd
Resp:
$GNGGA,232712.000,4900.5377,N,00825.3235,E,1,5,6.17,227.8,M,47.9,M,,*46
$GPGSA,A,3,32,22,10,27,,,,,,,,,6.24,6.17,0.97*09
$BDGSA,A,3,09,,,,,,,,,,,,6.24,6.17,0.97*14
$GPGSV,3,1,09,01,56,295,,08,51,175,,32,42,084,36,22,40,110,27*7E
$GPGSV,3,2,09,03,26,230,,14,22,299,,27,21,156,21,10,18,055,20*7D
$GPGSV,3,3,09,17,08,318,*44
$BDGSV,2,1,08,30,68,293,,27,54,137,12,09,28,078,28,06,27,061,*66
$BDGSV,2,2,08,05,18,121,,29,14,307,,28,04,130,,02,02,100,*69
$GNRMC,232712.000,A,4900.5377,N,00825.3235,E,4.766,98.25,050222,,,A*76
$GNVTG,98.25,T,,M,4.766,N,8.832,K,A*17
---
Msg: Getting data from GPS using AT done
Resp:
AT+GPSRD=0

OK
----
Msg: GPS Read Off!
Msg: Getting data from Sensors
Temperature for the device 1 (index 0) is: 85.00
Msg: 1
Msg: 2
Resp:
AT+CIPSEND

>
----
Msg: Send Started!
Resp:
GET https://api.thingspeak.com/update?api_key=AYKVFH212TKGNW2B&field1=31.48&field2=18.35&field3=1008.38&field4=199.50&field5=209.50&field6=26&field7=85.00&field8=$GNGGA,232712.000,4900.5377,N,00825.3235,E,1,5,6.17,227.8,M,47.9,M,,*46

----
Resp:

OK



+CIPRCV,2:27
CLOSED
----
Msg: Send Completed!
Resp:
AT+CIPSTATUS
+CIPSTATUS:
STATE:CLOSED
----

*****Error No.26

*****Error State.19
Resp:
AT+CREG=1

OK
----
Msg: Netwoek Set!
Resp:
AT+CREG?

+CREG: 1
----
Msg: Network Registered!
Resp:
AT+GPS=1

OK
----
Msg: GPS Set!
Resp:
AT+CGATT=1

+CGATT:1

OK
----
Msg: PS Attached!
Resp:
AT+CGDCONT?

+CGDCONT:1,"IP","pinternet.interkom.de
----
Msg: Context Exists!
Resp:
AT+CGACT=1,1

OK
----
Msg: Context Selected!
Resp:
AT+CGACT?

+CGACT: 1, 1
----
Msg: Context is Correct!
Resp:
AT+CIPSTATUS
+CIPSTATUS:
STATE:CLOSED
----
Msg: Status CLOSED!
Resp:
AT+CIPSTART="TCP","api.thingspeak.com",80
CONNECT OK
----
Msg: Connected!
Resp:
AT+GPSRD=5

OK
----
Msg: GPS Read Set!
Msg: Getting data from GPS using AT Cmd
Resp:
$GNGGA,232753.000,4900.5441,N,00825.3044,E,1,5,6.27,229.1,M,47.9,M,,*41
$GPGSA,A,3,32,22,10,27,,,,,,,,,6.35,6.27,0.97*0A
$BDGSA,A,3,09,,,,,,,,,,,,6.35,6.27,0.97*17
$GPGSV,3,1,10,21,84,000,,01,56,295,,08,50,175,,32,42,083,40*7F
$GPGSV,3,2,10,22,40,109,21,03,27,230,,14,22,298,,27,20,156,19*7A
$GPGSV,3,3,10,10,18,055,16,17,08,318,*73
$BDGSV,2,1,08,30,68,293,,27,54,137,,09,28,078,28,06,27,061,*65
$BDGSV,2,2,08,05,18,121,,29,14,307,,28,04,130,18,02,02,100,*60
$GNRMC,232753.000,A,4900.5441,N,00825.3044,E,5.063,94.28,050222,,,A*77
$GNVTG,94.28,T,,M,5.063,N,9.381,K,A*17
---
Msg: Getting data from GPS using AT done
Resp:
AT+GPSRD=0

OK
----
Msg: GPS Read Off!
Msg: Getting data from Sensors
Temperature for the device 1 (index 0) is: 85.00
Msg: 1
Msg: 2
Resp:
AT+CIPSEND

>
----
Msg: Send Started!
Resp:
GET https://api.thingspeak.com/update?api_key=AYKVFH212TKGNW2B&field1=31.46&field2=18.46&field3=1008.37&field4=197.80&field5=207.70&field6=27&field7=85.00&field8=$GNGGA,232753.000,4900.5441,N,00825.3044,E,1,5,6.27,229.1,M,47.9,M,,*41

----
Resp:

OK



+CIPRCV,2:28
CLOSED
----
Msg: Send Completed!
Resp:
AT+CIPSTATUS
+CIPSTATUS:
STATE:CLOSED
----

*****Error No.27

*****Error State.19
Resp:
AT+CREG=1

OK
----
Msg: Netwoek Set!
Resp:
AT+CREG?

+CREG: 1
----
Msg: Network Registered!
Resp:
AT+GPS=1

OK
----
Msg: GPS Set!
Resp:
AT+CGATT=1

+CGATT:1

OK
----
Msg: PS Attached!
Resp:
AT+CGDCONT?

+CGDCONT:1,"IP","pinternet.interkom.de
----
Msg: Context Exists!
Resp:
AT+CGACT=1,1

OK
----
Msg: Context Selected!
Resp:
AT+CGACT?

+CGACT: 1, 1
----
Msg: Context is Correct!
Resp:
AT+CIPSTATUS
+CIPSTATUS:
STATE:CLOSED
----
Msg: Status CLOSED!
Resp:
AT+CIPSTART="TCP","api.thingspeak.com",80
CONNECT OK
----
Msg: Connected!
Resp:
AT+GPSRD=5

OK
----
Msg: GPS Read Set!
Msg: Getting data from GPS using AT Cmd
Resp:
$GNGGA,232834.000,4900.5617,N,00825.1933,E,1,4,10.63,215.2,M,47.9,M,,*7F
$GPGSA,A,3,32,22,10,,,,,,,,,,10.67,10.63,0.99*06
$BDGSA,A,3,09,,,,,,,,,,,,10.67,10.63,0.99*1E
$GPGSV,3,1,10,21,84,000,16,01,57,295,,08,50,175,,32,42,083,40*79
$GPGSV,3,2,10,22,40,109,22,03,27,231,,14,22,298,,27,20,156,*70
$GPGSV,3,3,10,10,18,055,21,17,08,318,*77
$BDGSV,2,1,08,30,69,292,,27,53,137,,09,28,078,27,06,27,061,*6D
$BDGSV,2,2,08,05,18,121,,29,15,308,,28,04,130,,02,02,100,*67
$GNRMC,232834.000,A,4900.5617,N,00825.1933,E,3.992,106.20,050222,,,A*40
$GNVTG,106.20,T,,M,3.992,N,7.397,K,A*2D
---
Msg: Getting data from GPS using AT done
Resp:
AT+GPSRD=0

OK
----
Msg: GPS Read Off!
Msg: Getting data from Sensors
Temperature for the device 1 (index 0) is: 85.00
Msg: 1
Msg: 2
Resp:
AT+CIPSEND

>
----
Msg: Send Started!
Resp:
GET https://api.thingspeak.com/update?api_key=AYKVFH212TKGNW2B&field1=31.45&field2=18.37&field3=1008.35&field4=199.10&field5=209.10&field6=28&field7=85.00&field8=$GNGGA,232834.000,4900.5617,N,00825.1933,E,1,4,10.63,215.2,M,47.9,M,,*7F

----
Resp:

OK



+CIPRCV,2:29
CLOSED
----
Msg: Send Completed!
Resp:
AT+CIPSTATUS
+CIPSTATUS:
STATE:CLOSED
----

*****Error No.28

*****Error State.19
Resp:
AT+CREG=1

OK
----
Msg: Netwoek Set!
Resp:
AT+CREG?

+CREG: 1
----
Msg: Network Registered!
Resp:
AT+GPS=1

OK
----
Msg: GPS Set!
Resp:
AT+CGATT=1

+CGATT:1

OK
----
Msg: PS Attached!
Resp:
AT+CGDCONT?

+CGDCONT:1,"IP","pinternet.interkom.de
----
Msg: Context Exists!
Resp:
AT+CGACT=1,1

OK
----
Msg: Context Selected!
Resp:
AT+CGACT?

+CGACT: 1, 1
----
Msg: Context is Correct!
Resp:
AT+CIPSTATUS
+CIPSTATUS:
STATE:CLOSED
----
Msg: Status CLOSED!
Resp:
AT+CIPSTART="TCP","api.thingspeak.com",80
CONNECT OK
----
Msg: Connected!
Resp:
AT+GPSRD=5

OK
----
Msg: GPS Read Set!
Msg: Getting data from GPS using AT Cmd
Resp:
$GNGGA,232916.000,4900.5465,N,00825.3909,E,1,5,6.49,204.9,M,47.9,M,,*47
$GPGSA,A,3,32,22,10,27,,,,,,,,,6.56,6.49,0.97*07
$BDGSA,A,3,09,,,,,,,,,,,,6.56,6.49,0.97*1A
$GPGSV,3,1,10,21,84,004,17,01,57,295,,08,49,175,,32,42,083,37*74
$GPGSV,3,2,10,22,41,109,26,03,27,231,,14,22,297,,27,19,156,15*74
$GPGSV,3,3,10,10,17,055,20,17,09,318,*78
$BDGSV,2,1,08,30,69,292,,27,53,137,,09,29,078,29,06,27,061,*62
$BDGSV,2,2,08,05,18,121,,29,15,308,,28,04,130,,02,02,100,*67
$GNRMC,232916.000,A,4900.5465,N,00825.3909,E,13.757,97.68,050222,,,A*4E
$GNVTG,97.68,T,,M,13.757,N,25.491,K,A*1F
---
Msg: Getting data from GPS using AT done
Resp:
AT+GPSRD=0

OK
----
Msg: GPS Read Off!
Msg: Getting data from Sensors
Temperature for the device 1 (index 0) is: 85.00
Msg: 1
Msg: 2
Resp:
AT+CIPSEND

>
----
Msg: Send Started!
Resp:
GET https://api.thingspeak.com/update?api_key=AYKVFH212TKGNW2B&field1=31.44&field2=18.32&field3=1008.31&field4=202.10&field5=212.30&field6=29&field7=85.00&field8=$GNGGA,232916.000,4900.5465,N,00825.3909,E,1,5,6.49,204.9,M,47.9,M,,*47

----
Resp:

OK



+CIPRCV,2:30
CLOSED
----
Msg: Send Completed!
Resp:
AT+CIPSTATUS
+CIPSTATUS:
STATE:CLOSED
----

*****Error No.29

*****Error State.19
A9G Reset....
Resp:

+CREG: 2

^STN: 37
+CTZV:22/02/05,23:30:07,+01

+CREG: 1

+CIEV: "Complete the Charge",100%

A9/A9G
V02.02.20190915R
Ai_Thinker_Co._Ltd.
READY
----
Resp:

----
Resp:
AT

OK
----
Msg: Module READY!
Resp:
AT+CREG=1

OK
----
Msg: Netwoek Set!
Resp:
AT+CREG?

+CREG: 1
----
Msg: Network Registered!
Resp:
AT+GPS=1

OK
----
Msg: GPS Set!
Resp:
AT+CGATT=1

+CGATT:1

OK
----
Msg: PS Attached!
Resp:
AT+CGDCONT?

OK
----
Msg: Context Set!
Resp:
AT+CGDCONT=1,"IP","pinternet.interkom.de"

OK
----
Msg: Context Changed!
Resp:
AT+CGACT=1,1

OK
----
Msg: Context Selected!
Resp:
AT+CGACT?

+CGACT: 1, 1
----
Msg: Context is Correct!
Resp:
AT+CIPSTATUS
+CIPSTATUS:
STATE:IP INITIAL
----
Msg: Status INITIAL!
Resp:
AT+CIPSTART="TCP","api.thingspeak.com",80
CONNECT OK
----
Msg: Connected!
Resp:
AT+GPSRD=5

OK
----
Msg: GPS Read Set!
Msg: Getting data from GPS using AT Cmd
Resp:
$GNGGA,233020.280,4900.5476,N,00825.3567,E,0,2,,134.2,M,47.9,M,,*5E
$GPGSA,A,1,32,22,,,,,,,,,,,,,*1F
$BDGSA,A,1,,,,,,,,,,,,,,,*0F
$GPGSV,2,1,07,01,57,296,,08,48,175,,32,42,082,30,22,41,108,27*73
$GPGSV,2,2,07,03,28,231,,27,19,156,,10,16,055,24*48
$BDGSV,1,1,00*68
$GNRMC,233020.280,V,4900.5476,N,00825.3567,E,2.295,267.25,050222,,,N*58
$GNVTG,267.25,T,,M,2.295,N,4.253,K,N*24
---
Msg: Getting data from GPS using AT done
Resp:
AT+GPSRD=0

OK
----
Msg: GPS Read Off!
Msg: Getting data from Sensors
Temperature for the device 1 (index 0) is: 85.00
Msg: 1
Msg: 2
Resp:
AT+CIPSEND

>
----
Msg: Send Started!
Resp:
GET https://api.thingspeak.com/update?api_key=AYKVFH212TKGNW2B&field1=31.40&field2=18.31&field3=1008.32&field4=201.50&field5=211.60&field6=30&field7=85.00&field8=$GNGGA,233020.280,4900.5476,N,00825.3567,E,0,2,,134.2,M,47.9,M,,*5E

----
Resp:

OK



+CIPRCV,2:31
CLOSED
----
Msg: Send Completed!
Resp:
AT+CIPSTATUS
+CIPSTATUS:
STATE:CLOSED
----

*****Error No.30

*****Error State.19
Resp:
AT+CREG=1

OK
----
Msg: Netwoek Set!
Resp:
AT+CREG?

+CREG: 1
----
Msg: Network Registered!
Resp:
AT+GPS=1

OK
----
Msg: GPS Set!
Resp:
AT+CGATT=1

+CGATT:1

OK
----
Msg: PS Attached!
Resp:
AT+CGDCONT?

+CGDCONT:1,"IP","pinternet.interkom.de
----
Msg: Context Exists!
Resp:
AT+CGACT=1,1

OK
----
Msg: Context Selected!
Resp:
AT+CGACT?

+CGACT: 1, 1
----
Msg: Context is Correct!
Resp:
AT+CIPSTATUS
+CIPSTATUS:
STATE:CLOSED
----
Msg: Status CLOSED!
Resp:
AT+CIPSTART="TCP","api.thingspeak.com",80
CONNECT OK
----
Msg: Connected!
Resp:
AT+GPSRD=5

OK
----
Msg: GPS Read Set!
Msg: Getting data from GPS using AT Cmd
Resp:
$GNGGA,233101.280,4900.5422,N,00825.4260,E,0,4,,176.2,M,47.9,M,,*5A
$GPGSA,A,1,32,10,22,27,,,,,,,,,,,*1B
$BDGSA,A,1,,,,,,,,,,,,,,,*0F
$GPGSV,2,1,08,01,57,296,,08,48,175,,32,42,082,33,22,41,108,19*72
$GPGSV,2,2,08,39,31,158,,03,28,231,,27,19,156,15,10,16,055,20*73
$BDGSV,1,1,01,09,,,27*65
$GNRMC,233101.280,V,4900.5422,N,00825.4260,E,11.041,86.86,050222,,,N*51
$GNVTG,86.86,T,,M,11.041,N,20.459,K,N*13
---
Msg: Getting data from GPS using AT done
Resp:
AT+GPSRD=0

OK
----
Msg: GPS Read Off!
Msg: Getting data from Sensors
Temperature for the device 1 (index 0) is: 85.00
Msg: 1
Msg: 2
Resp:
AT+CIPSEND

>
----
Msg: Send Started!
Resp:
GET https://api.thingspeak.com/update?api_key=AYKVFH212TKGNW2B&field1=31.40&field2=18.47&field3=1008.32&field4=203.60&field5=213.80&field6=31&field7=85.00&field8=$GNGGA,233101.280,4900.5422,N,00825.4260,E,0,4,,176.2,M,47.9,M,,*5A

----
Resp:

OK

+CIPRCV,2:32


CLOSED
----
Msg: Send Completed!
Resp:
AT+CIPSTATUS
+CIPSTATUS:
STATE:CLOSED
----

*****Error No.31

*****Error State.19
Resp:
AT+CREG=1

OK
----
Msg: Netwoek Set!
Resp:
AT+CREG?

+CREG: 1
----
Msg: Network Registered!
Resp:
AT+GPS=1

OK
----
Msg: GPS Set!
Resp:
AT+CGATT=1

+CGATT:1

OK
----
Msg: PS Attached!
Resp:
AT+CGDCONT?

+CGDCONT:1,"IP","pinternet.interkom.de
----
Msg: Context Exists!
Resp:
AT+CGACT=1,1

OK
----
Msg: Context Selected!
Resp:
AT+CGACT?

+CGACT: 1, 1
----
Msg: Context is Correct!
Resp:
AT+CIPSTATUS
+CIPSTATUS:
STATE:CLOSED
----
Msg: Status CLOSED!
Resp:
AT+CIPSTART="TCP","api.thingspeak.com",80
CONNECT OK
----
Msg: Connected!
Resp:
AT+GPSRD=5

OK
----
Msg: GPS Read Set!
Msg: Getting data from GPS using AT Cmd
Resp:
$GNGGA,233142.000,4900.5120,N,00825.6010,E,0,4,,146.5,M,47.9,M,,*53
$GPGSA,A,1,32,10,22,,,,,,,,,,,,*1E
$BDGSA,A,1,09,,,,,,,,,,,,,,*06
$GPGSV,2,1,08,01,58,296,,08,48,175,,32,42,082,35,22,41,108,19*7B
$GPGSV,2,2,08,39,31,158,,03,28,231,,27,19,156,,10,16,055,21*76
$BDGSV,1,1,01,09,29,078,26*50
$GNRMC,233142.000,V,4900.5120,N,00825.6010,E,18.116,92.47,050222,,,N*5E
$GNVTG,92.47,T,,M,18.116,N,33.570,K,N*19
---
Msg: Getting data from GPS using AT done
Resp:
AT+GPSRD=0

OK
----
Msg: GPS Read Off!
Msg: Getting data from Sensors
Temperature for the device 1 (index 0) is: 85.00
Msg: 1
Msg: 2
Resp:
AT+CIPSEND

>
----
Msg: Send Started!
Resp:
GET https://api.thingspeak.com/update?api_key=AYKVFH212TKGNW2B&field1=31.40&field2=18.45&field3=1008.32&field4=207.10&field5=217.50&field6=32&field7=85.00&field8=$GNGGA,233142.000,4900.5120,N,00825.6010,E,0,4,,146.5,M,47.9,M,,*53

----
Resp:

OK



+CIPRCV,2:33
CLOSED
----
Msg: Send Completed!
Resp:
AT+CIPSTATUS
+CIPSTATUS:
STATE:CLOSED
----

*****Error No.32

*****Error State.19
Resp:
AT+CREG=1

OK
----
Msg: Netwoek Set!
Resp:
AT+CREG?

+CREG: 1
----
Msg: Network Registered!
Resp:
AT+GPS=1

OK
----
Msg: GPS Set!
Resp:
AT+CGATT=1

+CGATT:1

OK
----
Msg: PS Attached!
Resp:
AT+CGDCONT?

+CGDCONT:1,"IP","pinternet.interkom.de
----
Msg: Context Exists!
Resp:
AT+CGACT=1,1

OK
----
Msg: Context Selected!
Resp:
AT+CGACT?

+CGACT: 1, 1
----
Msg: Context is Correct!
Resp:
AT+CIPSTATUS
+CIPSTATUS:
STATE:CLOSED
----
Msg: Status CLOSED!
Resp:
AT+CIPSTART="TCP","api.thingspeak.com",80
CONNECT OK
----
Msg: Connected!
Resp:
AT+GPSRD=5

OK
----
Msg: GPS Read Set!
Msg: Getting data from GPS using AT Cmd
Resp:
$GNGGA,233224.000,4900.5168,N,00825.6230,E,0,4,,158.7,M,47.9,M,,*51
$GPGSA,A,1,32,10,22,,,,,,,,,,,,*1E
$BDGSA,A,1,09,,,,,,,,,,,,,,*06
$GPGSV,2,1,07,01,58,296,,08,48,175,,32,42,081,37,22,41,107,17*74
$GPGSV,2,2,07,03,28,231,,27,18,156,,10,16,055,21*4C
$BDGSV,1,1,01,09,29,078,28*5E
$GNRMC,233224.000,V,4900.5168,N,00825.6230,E,0.000,0.00,050222,,,N*56
$GNVTG,0.00,T,,M,0.000,N,0.000,K,N*2C
---
Msg: Getting data from GPS using AT done
Resp:
AT+GPSRD=0

OK
----
Msg: GPS Read Off!
Msg: Getting data from Sensors
Temperature for the device 1 (index 0) is: 85.00
Msg: 1
Msg: 2
Resp:
AT+CIPSEND

>
----
Msg: Send Started!
Resp:
GET https://api.thingspeak.com/update?api_key=AYKVFH212TKGNW2B&field1=31.38&field2=18.34&field3=1008.30&field4=218.80&field5=229.80&field6=33&field7=85.00&field8=$GNGGA,233224.000,4900.5168,N,00825.6230,E,0,4,,158.7,M,47.9,M,,*51

----
Resp:

OK

+CIPRCV,2:34


CLOSED
----
Msg: Send Completed!
Resp:
AT+CIPSTATUS
+CIPSTATUS:
STATE:CLOSED
----

*****Error No.33

*****Error State.19
Resp:
AT+CREG=1

OK
----
Msg: Netwoek Set!
Resp:
AT+CREG?

+CREG: 1
----
Msg: Network Registered!
Resp:
AT+GPS=1

OK
----
Msg: GPS Set!
Resp:
AT+CGATT=1

+CGATT:1

OK
----
Msg: PS Attached!
Resp:
AT+CGDCONT?

+CGDCONT:1,"IP","pinternet.interkom.de
----
Msg: Context Exists!
Resp:
AT+CGACT=1,1

OK
----
Msg: Context Selected!
Resp:
AT+CGACT?

+CGACT: 1, 1
----
Msg: Context is Correct!
Resp:
AT+CIPSTATUS
+CIPSTATUS:
STATE:CLOSED
----
Msg: Status CLOSED!
Resp:
AT+CIPSTART="TCP","api.thingspeak.com",80
CONNECT OK
----
Msg: Connected!
Resp:
AT+GPSRD=5

OK
----
Msg: GPS Read Set!
Msg: Getting data from GPS using AT Cmd
Resp:
$GNGGA,233305.000,4900.5168,N,00825.6230,E,0,4,,158.7,M,47.9,M,,*53
$GPGSA,A,1,32,10,22,,,,,,,,,,,,*1E
$BDGSA,A,1,09,,,,,,,,,,,,,,*06
