created_at,entry_id,field1,field2,field3,field4,field5,field6,field7,field8,latitude,longitude,elevation,status
2022-02-09T20:36:05+01:00,1,23.71,27.58,1011.17,43.10,45.30,0,18.00,"$GNGGA,193600.310,4900.5212,N,00824.7844,E,0,1,,123.7,M,47.9,M,,*56",,,,
2022-02-09T20:36:26+01:00,2,23.39,27.74,1011.18,39.20,41.20,0,17.00,"$GNGGA,193621.310,4900.5569,N,00824.8713,E,0,1,,123.7,M,47.9,M,,*5C",,,,
2022-02-09T20:36:47+01:00,3,23.10,28.61,1011.16,36.20,38.10,0,18.50,"$GNGGA,193642.000,4900.5232,N,00825.3985,E,0,3,,102.1,M,47.9,M,,*5E",,,,
2022-02-09T20:37:08+01:00,4,22.91,29.37,1011.25,27.00,28.40,0,20.50,"$GNGGA,193703.000,4900.5015,N,00825.4503,E,1,4,2.33,103.2,M,47.9,M,,*40",,,,
2022-02-09T20:37:29+01:00,5,22.80,29.19,1011.30,20.90,22.00,0,20.50,"$GNGGA,193724.000,4900.4753,N,00825.3585,E,0,5,,0.0,M,47.9,M,,*54",,,,
2022-02-09T20:37:50+01:00,6,22.77,29.86,1011.36,16.90,17.80,0,20.50,"$GNGGA,193745.000,4900.5281,N,00825.3925,E,1,6,1.41,9.9,M,47.9,M,,*46",,,,
2022-02-09T20:38:11+01:00,7,22.80,30.01,1011.39,16.20,17.10,0,20.50,"$GNGGA,193806.000,4900.5241,N,00825.4047,E,1,5,1.79,49.0,M,47.9,M,,*7D",,,,
2022-02-09T20:38:32+01:00,8,22.86,30.57,1011.80,17.20,18.10,0,20.50,"$GNGGA,193827.000,4900.5285,N,00825.4113,E,0,0,,51.7,M,47.9,M,,*6D",,,,
2022-02-09T20:38:52+01:00,9,22.77,28.77,1012.14,19.60,20.60,0,18.50,"$GNGGA,193847.000,4900.5152,N,00825.4146,E,1,5,1.51,133.4,M,47.9,M,,*4B",,,,
2022-02-09T20:39:13+01:00,10,22.12,28.87,1012.38,23.10,24.30,0,15.50,"$GNGGA,193908.000,4900.5010,N,00825.4152,E,1,6,1.41,135.4,M,47.9,M,,*47",,,,
2022-02-09T20:39:34+01:00,11,21.18,31.29,1012.55,26.10,27.50,0,14.00,"$GNGGA,193929.000,4900.4876,N,00825.4150,E,1,6,1.41,139.8,M,47.9,M,,*4F",,,,
2022-02-09T20:39:54+01:00,12,20.45,32.88,1012.68,26.30,27.70,0,13.50,"$GNGGA,193949.000,4900.4846,N,00825.4106,E,1,6,1.42,138.8,M,47.9,M,,*4B",,,,
2022-02-09T20:40:15+01:00,13,20.01,33.20,1012.77,27.00,28.40,0,14.00,"$GNGGA,194010.000,4900.4768,N,00825.3790,E,1,5,1.51,137.6,M,47.9,M,,*44",,,,
2022-02-09T20:40:36+01:00,14,19.73,32.95,1012.84,27.80,29.20,0,14.50,"$GNGGA,194031.000,4900.4811,N,00825.4026,E,1,5,1.71,144.7,M,47.9,M,,*4C",,,,
2022-02-09T20:40:57+01:00,15,19.53,32.68,1012.89,27.90,29.30,0,15.00,"$GNGGA,194052.000,4900.4854,N,00825.4131,E,1,5,1.70,144.9,M,47.9,M,,*40",,,,
2022-02-09T20:41:18+01:00,16,19.37,32.58,1012.93,26.30,27.70,0,15.00,"$GNGGA,194113.000,4900.4813,N,00825.4090,E,1,6,1.24,146.9,M,47.9,M,,*4D",,,,
2022-02-09T20:41:39+01:00,17,19.21,32.64,1012.96,26.50,27.90,0,14.50,"$GNGGA,194134.000,4900.4853,N,00825.4166,E,2,5,1.69,145.9,M,47.9,M,,*4E",,,,
2022-02-09T20:41:59+01:00,18,19.07,32.75,1012.97,27.20,28.60,0,14.50,"$GNGGA,194154.000,4900.4850,N,00825.4170,E,2,6,1.23,144.3,M,47.9,M,,*4A",,,,
2022-02-09T20:42:20+01:00,19,18.92,32.86,1012.99,28.40,29.90,0,14.50,"$GNGGA,194215.000,4900.4805,N,00825.4014,E,2,5,1.68,146.7,M,47.9,M,,*45",,,,
2022-02-09T20:42:41+01:00,20,18.76,33.15,1013.00,29.10,30.60,0,14.50,"$GNGGA,194236.000,4900.4835,N,00825.4067,E,2,5,1.67,146.1,M,47.9,M,,*4A",,,,
2022-02-09T20:43:02+01:00,21,18.61,33.31,1013.00,27.60,29.00,0,14.00,"$GNGGA,194257.000,4900.4840,N,00825.4088,E,2,6,1.23,146.2,M,47.9,M,,*4E",,,,
2022-02-09T20:43:23+01:00,22,18.46,33.52,1013.01,26.40,27.80,0,14.50,"$GNGGA,194318.000,4900.4853,N,00825.4131,E,2,7,1.14,145.3,M,47.9,M,,*42",,,,
2022-02-09T20:43:44+01:00,23,18.10,34.68,1013.02,26.20,27.60,0,13.00,"$GNGGA,194339.000,4900.4740,N,00825.4100,E,2,7,1.14,140.5,M,47.9,M,,*4D",,,,
2022-02-09T20:44:05+01:00,24,17.56,36.22,1013.03,27.20,28.60,0,12.50,"$GNGGA,194400.000,4900.4610,N,00825.4097,E,2,7,1.23,138.6,M,47.9,M,,*43",,,,
2022-02-09T20:44:26+01:00,25,16.92,37.73,1013.03,28.70,30.20,0,11.50,"$GNGGA,194421.000,4900.4677,N,00825.4155,E,2,8,1.01,134.3,M,47.9,M,,*48",,,,
2022-02-09T20:44:47+01:00,26,16.10,39.85,1013.04,29.70,31.20,0,11.00,"$GNGGA,194442.000,4900.4779,N,00825.4050,E,2,8,1.01,127.1,M,47.9,M,,*46",,,,
2022-02-09T20:45:08+01:00,27,15.38,41.88,1013.05,29.90,31.40,0,10.50,"$GNGGA,194503.000,4900.4810,N,00825.3899,E,2,8,1.01,127.5,M,47.9,M,,*4C",,,,
2022-02-09T20:45:29+01:00,28,14.69,43.45,1013.05,30.10,31.70,0,10.50,"$GNGGA,194524.000,4900.4854,N,00825.3680,E,2,8,1.01,122.5,M,47.9,M,,*4A",,,,
2022-02-09T20:45:50+01:00,29,14.07,44.90,1013.06,29.50,31.00,0,10.00,"$GNGGA,194545.000,4900.4907,N,00825.3482,E,2,8,1.01,122.7,M,47.9,M,,*48",,,,
2022-02-09T20:46:11+01:00,30,13.55,45.84,1013.06,29.00,30.50,0,10.00,"$GNGGA,194606.000,4900.4934,N,00825.3275,E,2,8,1.01,123.3,M,47.9,M,,*47",,,,
2022-02-09T20:46:32+01:00,31,13.08,46.68,1013.05,28.20,29.70,0,10.00,"$GNGGA,194627.000,4900.4969,N,00825.3075,E,2,8,1.01,123.5,M,47.9,M,,*48",,,,
2022-02-09T20:46:53+01:00,32,12.70,47.56,1013.05,28.80,30.30,0,10.00,"$GNGGA,194648.000,4900.5015,N,00825.2872,E,2,8,1.01,125.4,M,47.9,M,,*4B",,,,
2022-02-09T20:47:14+01:00,33,12.31,48.25,1013.06,28.70,30.20,0,9.50,"$GNGGA,194709.000,4900.5064,N,00825.2675,E,2,8,1.01,126.4,M,47.9,M,,*43",,,,
2022-02-09T20:47:35+01:00,34,12.02,49.10,1013.07,28.00,29.50,0,9.50,"$GNGGA,194730.000,4900.5057,N,00825.2548,E,2,8,1.01,127.4,M,47.9,M,,*45",,,,
2022-02-09T20:47:56+01:00,35,11.76,48.95,1013.08,27.90,29.30,0,9.50,"$GNGGA,194751.000,4900.5078,N,00825.2476,E,2,8,1.01,126.7,M,47.9,M,,*41",,,,
2022-02-09T20:48:17+01:00,36,11.44,49.78,1013.08,27.70,29.10,0,9.00,"$GNGGA,194812.000,4900.5125,N,00825.2230,E,2,8,1.01,128.3,M,47.9,M,,*4E",,,,
2022-02-09T20:48:38+01:00,37,11.14,50.73,1013.08,27.70,29.10,0,9.00,"$GNGGA,194833.000,4900.5180,N,00825.2034,E,2,8,1.09,126.3,M,47.9,M,,*42",,,,
2022-02-09T20:48:59+01:00,38,10.83,51.68,1013.06,27.00,28.40,0,8.50,"$GNGGA,194854.000,4900.5209,N,00825.1839,E,2,8,1.01,125.6,M,47.9,M,,*49",,,,
2022-02-09T20:49:20+01:00,39,10.55,52.45,1013.05,27.50,28.90,0,8.50,"$GNGGA,194915.000,4900.5246,N,00825.1639,E,2,8,1.01,123.2,M,47.9,M,,*4A",,,,
2022-02-09T20:49:41+01:00,40,10.31,52.96,1013.04,28.10,29.60,0,8.50,"$GNGGA,194936.000,4900.5260,N,00825.1428,E,2,8,1.01,124.8,M,47.9,M,,*40",,,,
2022-02-09T20:50:02+01:00,41,10.07,53.59,1013.04,27.20,28.60,0,8.00,"$GNGGA,194957.000,4900.5266,N,00825.1235,E,2,8,1.01,124.8,M,47.9,M,,*4B",,,,
2022-02-09T20:50:23+01:00,42,9.86,54.04,1013.03,26.50,27.90,0,8.00,"$GNGGA,195018.000,4900.5323,N,00825.1071,E,2,8,1.01,119.3,M,47.9,M,,*4F",,,,
2022-02-09T20:50:44+01:00,43,9.65,54.57,1013.02,26.70,28.10,0,8.00,"$GNGGA,195039.000,4900.5364,N,00825.0905,E,2,8,1.01,118.0,M,47.9,M,,*46",,,,
2022-02-09T20:51:05+01:00,44,9.48,54.91,1013.02,28.10,29.60,0,8.00,"$GNGGA,195100.000,4900.5396,N,00825.0743,E,2,8,1.01,114.7,M,47.9,M,,*47",,,,
2022-02-09T20:51:26+01:00,45,9.34,55.13,1013.02,28.30,29.80,0,8.00,"$GNGGA,195121.000,4900.5452,N,00825.0563,E,2,8,1.01,115.3,M,47.9,M,,*4E",,,,
2022-02-09T20:51:47+01:00,46,9.29,54.97,1013.01,27.60,29.00,0,8.00,"$GNGGA,195142.000,4900.5475,N,00825.0533,E,2,8,1.01,111.9,M,47.9,M,,*45",,,,
2022-02-09T20:52:08+01:00,47,9.24,54.71,1013.03,25.90,27.20,0,8.00,"$GNGGA,195203.000,4900.5532,N,00825.0392,E,2,8,1.01,112.6,M,47.9,M,,*40",,,,
2022-02-09T20:52:29+01:00,48,9.13,54.92,1013.02,26.70,28.10,0,7.50,"$GNGGA,195224.000,4900.5648,N,00825.0307,E,2,8,1.01,114.7,M,47.9,M,,*40",,,,
2022-02-09T20:52:50+01:00,49,9.06,55.45,1013.02,27.80,29.20,0,8.00,"$GNGGA,195245.000,4900.5657,N,00825.0119,E,2,7,1.12,118.6,M,47.9,M,,*44",,,,
2022-02-09T20:53:11+01:00,50,9.00,55.92,1013.01,28.20,29.70,0,8.00,"$GNGGA,195306.000,4900.5707,N,00824.9931,E,2,8,1.01,119.2,M,47.9,M,,*44",,,,
2022-02-09T20:53:32+01:00,51,8.95,56.12,1013.00,27.30,28.70,0,7.50,"$GNGGA,195327.000,4900.5706,N,00824.9711,E,2,8,1.01,130.0,M,47.9,M,,*43",,,,
2022-02-09T20:53:53+01:00,52,8.90,56.46,1012.99,26.90,28.30,0,7.50,"$GNGGA,195348.000,4900.5783,N,00824.9681,E,2,8,1.01,126.8,M,47.9,M,,*40",,,,
2022-02-09T20:54:14+01:00,53,8.85,56.56,1013.00,28.10,29.60,0,7.50,"$GNGGA,195409.000,4900.5873,N,00824.9470,E,2,8,1.01,124.6,M,47.9,M,,*42",,,,
2022-02-09T20:54:35+01:00,54,8.79,56.61,1013.00,28.60,30.10,0,7.50,"$GNGGA,195430.000,4900.5948,N,00824.9270,E,2,8,1.01,123.8,M,47.9,M,,*4E",,,,
2022-02-09T20:54:56+01:00,55,8.70,56.88,1013.00,29.30,30.80,0,7.50,"$GNGGA,195451.000,4900.5941,N,00824.9057,E,2,8,1.01,124.6,M,47.9,M,,*4E",,,,
2022-02-09T20:55:17+01:00,56,8.59,57.38,1013.01,26.80,28.20,0,7.00,"$GNGGA,195512.000,4900.5820,N,00824.8836,E,2,8,1.01,125.3,M,47.9,M,,*44",,,,
2022-02-09T20:55:38+01:00,57,8.49,57.55,1013.01,26.30,27.70,0,7.00,"$GNGGA,195533.000,4900.5731,N,00824.8659,E,2,8,1.01,125.4,M,47.9,M,,*48",,,,
2022-02-09T20:55:59+01:00,58,8.46,57.69,1013.02,25.70,27.00,0,7.50,"$GNGGA,195554.000,4900.5764,N,00824.8605,E,2,8,1.01,123.0,M,47.9,M,,*42",,,,
2022-02-09T20:56:20+01:00,59,8.50,57.46,1013.01,27.00,28.40,0,8.00,"$GNGGA,195615.000,4900.5782,N,00824.8274,E,2,8,1.01,119.9,M,47.9,M,,*4E",,,,
2022-02-09T20:56:41+01:00,60,8.58,57.05,1013.00,26.80,28.20,0,8.00,"$GNGGA,195636.000,4900.5767,N,00824.8080,E,2,7,1.09,117.6,M,47.9,M,,*4B",,,,
2022-02-09T20:57:02+01:00,61,8.66,56.90,1013.00,27.00,28.40,0,8.00,"$GNGGA,195657.000,4900.5922,N,00824.7922,E,2,7,1.09,121.4,M,47.9,M,,*4A",,,,
2022-02-09T20:57:23+01:00,62,8.75,56.80,1013.00,26.90,28.30,0,8.00,"$GNGGA,195718.000,4900.5873,N,00824.7715,E,2,8,1.01,133.6,M,47.9,M,,*49",,,,
2022-02-09T21:02:00+01:00,63,9.86,57.23,1013.03,29.50,31.00,0,8.00,"$GNGGA,200155.000,4900.5642,N,00824.7741,E,1,7,1.09,141.2,M,47.9,M,,*41",,,,
2022-02-09T21:02:21+01:00,64,9.65,57.02,1013.05,27.50,28.90,0,8.00,"$GNGGA,200216.000,4900.5609,N,00824.7935,E,1,7,1.09,139.4,M,47.9,M,,*4E",,,,
2022-02-09T21:03:21+01:00,65,9.85,56.67,1013.05,26.50,27.90,0,8.00,"$GNGGA,200316.000,4900.5675,N,00824.8533,E,1,8,1.02,144.1,M,47.9,M,,*4A",,,,
2022-02-09T21:03:42+01:00,66,9.61,56.77,1013.06,25.70,27.00,0,8.00,"$GNGGA,200337.000,4900.5661,N,00824.8746,E,1,6,1.14,145.6,M,47.9,M,,*43",,,,
2022-02-09T21:04:03+01:00,67,9.43,56.79,1013.05,26.00,27.40,0,7.50,"$GNGGA,200358.000,4900.5695,N,00824.8931,E,1,8,1.02,151.5,M,47.9,M,,*40",,,,
2022-02-09T21:04:24+01:00,68,9.30,56.75,1013.06,25.70,27.00,0,7.50,"$GNGGA,200419.000,4900.5658,N,00824.9169,E,1,7,1.06,155.1,M,47.9,M,,*4C",,,,
2022-02-09T21:04:45+01:00,69,9.17,56.85,1013.05,25.00,26.30,0,7.50,"$GNGGA,200440.000,4900.5678,N,00824.9343,E,1,7,1.06,152.3,M,47.9,M,,*4D",,,,
2022-02-09T21:05:06+01:00,70,9.07,57.10,1013.06,24.40,25.70,0,7.50,"$GNGGA,200501.000,4900.5738,N,00824.9498,E,1,7,1.06,153.3,M,47.9,M,,*4C",,,,
2022-02-09T21:05:27+01:00,71,9.02,57.26,1013.05,24.80,26.10,0,7.50,"$GNGGA,200522.000,4900.5554,N,00824.9729,E,1,7,1.08,145.6,M,47.9,M,,*40",,,,
2022-02-09T21:05:48+01:00,72,8.94,57.14,1013.04,27.00,28.40,0,7.50,"$GNGGA,200543.000,4900.5360,N,00824.9884,E,1,8,1.03,140.6,M,47.9,M,,*4F",,,,
2022-02-09T21:06:09+01:00,73,8.87,57.25,1013.04,27.50,28.90,0,7.50,"$GNGGA,200604.000,4900.5319,N,00825.0052,E,1,8,1.03,130.4,M,47.9,M,,*4F",,,,
2022-02-09T21:06:30+01:00,74,8.84,57.30,1013.04,26.50,27.90,0,7.50,"$GNGGA,200625.000,4900.5315,N,00825.0059,E,1,8,1.03,128.2,M,47.9,M,,*44",,,,
2022-02-09T21:06:51+01:00,75,8.85,57.13,1013.03,25.00,26.30,0,7.50,"$GNGGA,200646.000,4900.5304,N,00825.0025,E,1,9,0.99,112.2,M,47.9,M,,*40",,,,
2022-02-09T21:07:12+01:00,76,8.84,56.93,1013.02,24.30,25.60,0,7.50,"$GNGGA,200707.000,4900.5286,N,00825.0133,E,1,9,1.00,112.3,M,47.9,M,,*49",,,,
2022-02-09T21:07:33+01:00,77,8.81,57.10,1013.03,26.00,27.40,0,7.00,"$GNGGA,200728.000,4900.5249,N,00825.0347,E,1,9,1.00,110.4,M,47.9,M,,*43",,,,
2022-02-09T21:07:54+01:00,78,8.78,57.31,1013.02,25.90,27.20,0,7.00,"$GNGGA,200749.000,4900.5222,N,00825.0557,E,1,9,1.00,112.8,M,47.9,M,,*40",,,,
2022-02-09T21:08:15+01:00,79,8.74,57.52,1013.01,27.70,29.10,0,7.50,"$GNGGA,200810.000,4900.5219,N,00825.0753,E,1,8,1.03,119.2,M,47.9,M,,*4E",,,,
2022-02-09T21:08:36+01:00,80,8.71,57.63,1013.01,27.80,29.20,0,7.50,"$GNGGA,200831.000,4900.5258,N,00825.0967,E,1,8,1.03,128.2,M,47.9,M,,*43",,,,
2022-02-09T21:08:57+01:00,81,8.71,57.69,1013.02,28.70,30.20,0,7.50,"$GNGGA,200852.000,4900.5367,N,00825.1203,E,1,9,1.00,150.7,M,47.9,M,,*4B",,,,
2022-02-09T21:09:18+01:00,82,8.72,57.59,1013.01,27.50,28.90,0,7.50,"$GNGGA,200913.000,4900.5375,N,00825.1396,E,1,8,1.03,157.4,M,47.9,M,,*47",,,,
2022-02-09T21:09:39+01:00,83,8.75,57.51,1013.02,26.90,28.30,0,7.50,"$GNGGA,200934.000,4900.5163,N,00825.1590,E,1,7,1.25,142.8,M,47.9,M,,*44",,,,
2022-02-09T21:10:00+01:00,84,8.75,57.69,1013.02,29.60,31.10,0,7.50,"$GNGGA,200955.000,4900.5074,N,00825.1758,E,1,8,1.21,133.4,M,47.9,M,,*43",,,,
2022-02-09T21:10:21+01:00,85,8.75,57.96,1013.02,31.30,32.90,0,7.50,"$GNGGA,201016.000,4900.5015,N,00825.1948,E,1,8,1.21,125.4,M,47.9,M,,*43",,,,
2022-02-09T21:10:42+01:00,86,8.76,57.96,1013.02,31.50,33.10,0,7.50,"$GNGGA,201037.000,4900.4961,N,00825.2122,E,1,9,1.00,121.3,M,47.9,M,,*4D",,,,
2022-02-09T21:11:03+01:00,87,8.80,57.81,1013.02,28.50,30.00,0,7.50,"$GNGGA,201058.000,4900.4932,N,00825.2322,E,1,9,1.01,121.7,M,47.9,M,,*45",,,,
2022-02-09T21:11:24+01:00,88,8.84,57.71,1013.01,29.00,30.50,0,8.00,"$GNGGA,201119.000,4900.4901,N,00825.2538,E,1,9,1.01,124.6,M,47.9,M,,*48",,,,
2022-02-09T21:11:45+01:00,89,8.88,57.54,1013.02,28.90,30.40,0,8.00,"$GNGGA,201140.000,4900.4856,N,00825.2743,E,1,9,1.01,126.6,M,47.9,M,,*4B",,,,
2022-02-09T21:12:06+01:00,90,8.93,57.32,1013.01,30.10,31.70,0,8.00,"$GNGGA,201201.000,4900.4824,N,00825.2961,E,1,9,1.06,130.9,M,47.9,M,,*49",,,,
2022-02-09T21:12:27+01:00,91,8.98,57.12,1013.01,29.90,31.40,0,8.00,"$GNGGA,201222.000,4900.4802,N,00825.3143,E,1,9,1.01,130.7,M,47.9,M,,*4C",,,,
2022-02-09T21:12:48+01:00,92,9.02,57.12,1013.01,28.80,30.30,0,8.00,"$GNGGA,201243.000,4900.4764,N,00825.3357,E,1,9,1.01,129.5,M,47.9,M,,*49",,,,
2022-02-09T21:13:09+01:00,93,9.03,57.12,1013.00,28.30,29.80,0,8.00,"$GNGGA,201304.000,4900.4727,N,00825.3555,E,1,9,1.01,132.2,M,47.9,M,,*45",,,,
2022-02-09T21:13:30+01:00,94,9.04,57.09,1013.00,29.70,31.20,0,8.00,"$GNGGA,201325.000,4900.4664,N,00825.3755,E,1,9,1.01,131.6,M,47.9,M,,*45",,,,
2022-02-09T21:13:51+01:00,95,9.04,57.07,1013.00,30.00,31.60,0,8.00,"$GNGGA,201346.000,4900.4599,N,00825.3926,E,1,9,1.05,126.9,M,47.9,M,,*46",,,,
2022-02-09T21:14:14+01:00,96,9.02,57.14,1012.99,29.60,31.10,0,8.00,"$GNGGA,201409.000,4900.4548,N,00825.4166,E,1,9,1.01,123.4,M,47.9,M,,*41",,,,
2022-02-09T21:14:35+01:00,97,9.02,57.23,1012.97,29.40,30.90,0,8.00,"$GNGGA,201430.000,4900.4655,N,00825.4257,E,1,8,1.09,120.8,M,47.9,M,,*43",,,,
2022-02-09T21:14:56+01:00,98,9.03,57.17,1012.96,29.70,31.20,0,8.00,"$GNGGA,201451.000,4900.4794,N,00825.4323,E,1,9,1.02,125.5,M,47.9,M,,*48",,,,
2022-02-09T21:15:17+01:00,99,9.06,57.15,1012.96,28.20,29.70,0,8.00,"$GNGGA,201512.000,4900.4860,N,00825.4404,E,1,8,1.05,135.7,M,47.9,M,,*4D",,,,
2022-02-09T21:15:38+01:00,100,9.12,56.99,1012.96,28.10,29.60,0,8.00,"$GNGGA,201533.000,4900.4950,N,00825.4381,E,1,7,1.11,131.5,M,47.9,M,,*4A",,,,
2022-02-09T21:15:59+01:00,101,9.21,56.74,1012.95,26.60,28.00,0,8.50,"$GNGGA,201554.000,4900.4910,N,00825.4196,E,1,8,1.05,136.2,M,47.9,M,,*41",,,,
2022-02-09T21:16:20+01:00,102,9.32,56.36,1012.96,27.20,28.60,0,8.50,"$GNGGA,201615.000,4900.4908,N,00825.4194,E,1,8,1.05,138.0,M,47.9,M,,*40",,,,
2022-02-09T21:16:41+01:00,103,9.44,55.82,1012.97,26.60,28.00,0,8.50,"$GNGGA,201636.000,4900.4905,N,00825.4224,E,1,8,1.06,136.8,M,47.9,M,,*41",,,,
2022-02-09T21:17:02+01:00,104,9.56,55.49,1012.97,27.90,29.30,0,8.50,"$GNGGA,201657.000,4900.4920,N,00825.4248,E,1,8,1.06,133.8,M,47.9,M,,*4E",,,,
2022-02-09T21:17:23+01:00,105,9.69,55.10,1012.98,28.60,30.10,0,8.50,"$GNGGA,201718.000,4900.4909,N,00825.4248,E,1,8,1.06,133.5,M,47.9,M,,*42",,,,
2022-02-09T21:17:44+01:00,106,9.78,54.76,1012.98,29.30,30.80,0,8.50,"$GNGGA,201739.000,4900.4893,N,00825.4239,E,1,7,1.12,135.3,M,47.9,M,,*4F",,,,
2022-02-09T21:18:05+01:00,107,9.89,54.69,1012.98,29.60,31.10,0,8.50,"$GNGGA,201800.000,4900.4905,N,00825.4209,E,1,7,1.12,136.1,M,47.9,M,,*46",,,,
2022-02-09T21:18:26+01:00,108,10.00,54.47,1012.98,29.30,30.80,0,8.50,"$GNGGA,201821.000,4900.4925,N,00825.4228,E,1,8,1.06,135.1,M,47.9,M,,*4D",,,,
2022-02-09T21:18:47+01:00,109,10.09,53.95,1012.99,29.00,30.50,0,8.50,"$GNGGA,201842.000,4900.4910,N,00825.4286,E,1,8,1.06,133.7,M,47.9,M,,*4A",,,,
2022-02-09T21:19:08+01:00,110,10.13,53.72,1012.98,28.20,29.70,0,8.50,"$GNGGA,201903.000,4900.4913,N,00825.4280,E,2,8,1.06,134.5,M,47.9,M,,*4D",,,,
2022-02-09T21:19:28+01:00,111,10.16,53.71,1012.98,28.90,30.40,0,8.50,"$GNGGA,201923.000,4900.4894,N,00825.4287,E,2,8,1.07,132.7,M,47.9,M,,*43",,,,
2022-02-09T21:19:49+01:00,112,10.20,53.64,1012.98,29.20,30.70,0,8.50,"$GNGGA,201944.000,4900.4931,N,00825.4276,E,2,8,1.07,132.1,M,47.9,M,,*44",,,,
2022-02-09T21:20:10+01:00,113,10.22,53.50,1012.97,29.50,31.00,0,8.00,"$GNGGA,202005.000,4900.4904,N,00825.4236,E,2,9,0.95,132.9,M,47.9,M,,*4A",,,,
2022-02-09T21:20:31+01:00,114,10.26,53.49,1012.97,30.10,31.70,0,8.50,"$GNGGA,202026.000,4900.4913,N,00825.4158,E,2,9,0.95,139.9,M,47.9,M,,*4D",,,,
2022-02-09T21:20:52+01:00,115,10.32,53.41,1012.95,29.60,31.10,0,8.50,"$GNGGA,202047.000,4900.4863,N,00825.4161,E,2,9,0.95,137.0,M,47.9,M,,*41",,,,
2022-02-09T21:21:13+01:00,116,10.39,53.21,1012.93,28.50,30.00,0,8.50,"$GNGGA,202108.000,4900.4872,N,00825.4207,E,2,9,0.95,134.0,M,47.9,M,,*4B",,,,
2022-02-09T21:21:33+01:00,117,10.47,53.07,1012.91,26.70,28.10,0,9.00,"$GNGGA,202128.000,4900.4882,N,00825.4176,E,2,9,0.96,134.6,M,47.9,M,,*46",,,,
