created_at,entry_id,field1,field2,field3,field4,field5,field6,field7,field8,latitude,longitude,elevation,status
2022-02-07T20:12:14+01:00,1,26.09,23.97,1015.29,464.30,487.60,0,21.00,"$GNGGA,000027.263,4900.5239,N,00825.4612,E,0,0,,135.4,M,47.9,M,,*58",,,,
2022-02-07T20:13:00+01:00,2,26.94,22.58,1015.28,260.70,273.80,0,22.00,"$GNGGA,191255.085,4900.5239,N,00825.4612,E,0,0,,135.4,M,47.9,M,,*5C",,,,
2022-02-07T20:13:21+01:00,3,26.88,21.71,1015.29,175.10,183.90,0,21.50,"$GNGGA,191316.081,4900.5280,N,00825.3470,E,0,1,,135.4,M,47.9,M,,*5C",,,,
2022-02-07T20:13:42+01:00,4,26.96,21.24,1015.31,166.60,175.00,0,21.50,"$GNGGA,191337.000,4900.5208,N,00825.4613,E,1,4,2.86,141.0,M,47.9,M,,*47",,,,
2022-02-07T20:14:03+01:00,5,27.10,20.70,1015.31,158.30,166.30,0,21.50,"$GNGGA,191358.000,4900.5221,N,00825.4597,E,1,4,2.86,139.9,M,47.9,M,,*4C",,,,
2022-02-07T20:14:23+01:00,6,27.29,19.95,1015.33,159.60,167.60,0,21.00,"$GNGGA,191418.000,4900.5238,N,00825.4532,E,1,4,2.87,133.7,M,47.9,M,,*4D",,,,
2022-02-07T20:14:44+01:00,7,27.49,19.77,1015.34,160.80,168.90,0,21.50,"$GNGGA,191439.000,4900.5249,N,00825.4553,E,1,4,2.87,135.8,M,47.9,M,,*46",,,,
2022-02-07T20:15:05+01:00,8,27.71,19.69,1015.34,160.70,168.80,0,21.50,"$GNGGA,191500.000,4900.5226,N,00825.4605,E,1,4,2.87,141.2,M,47.9,M,,*4D",,,,
2022-02-07T20:15:25+01:00,9,27.92,19.62,1015.34,163.60,171.80,0,21.50,"$GNGGA,191520.000,4900.5222,N,00825.4594,E,1,4,2.87,142.5,M,47.9,M,,*44",,,,
2022-02-07T20:15:46+01:00,10,28.13,18.87,1015.35,169.20,177.70,0,21.50,"$GNGGA,191541.000,4900.5225,N,00825.4572,E,1,4,2.88,140.6,M,47.9,M,,*42",,,,
2022-02-07T20:16:06+01:00,11,28.33,18.46,1015.35,170.70,179.30,0,21.00,"$GNGGA,191601.000,4900.5185,N,00825.4517,E,1,4,2.88,139.6,M,47.9,M,,*41",,,,
2022-02-07T20:16:27+01:00,12,28.52,18.33,1015.35,169.70,178.20,0,21.50,"$GNGGA,191622.000,4900.5164,N,00825.4582,E,1,4,2.88,141.8,M,47.9,M,,*42",,,,
2022-02-07T20:16:48+01:00,13,28.70,18.54,1015.35,171.80,180.40,0,22.00,"$GNGGA,191643.000,4900.5159,N,00825.4621,E,1,4,2.89,146.8,M,47.9,M,,*47",,,,
2022-02-07T20:17:09+01:00,14,28.88,18.71,1015.35,170.00,178.60,0,22.00,"$GNGGA,191704.000,4900.5183,N,00825.4690,E,1,4,2.89,150.2,M,47.9,M,,*45",,,,
2022-02-07T20:17:30+01:00,15,29.05,18.76,1015.36,177.80,186.70,0,22.50,"$GNGGA,191725.000,4900.5173,N,00825.4663,E,1,4,2.89,149.3,M,47.9,M,,*4C",,,,
2022-02-07T20:17:51+01:00,16,29.23,18.78,1015.37,181.00,190.10,0,22.50,"$GNGGA,191746.000,4900.5157,N,00825.4637,E,1,4,2.90,147.3,M,47.9,M,,*48",,,,
2022-02-07T20:18:11+01:00,17,29.40,18.03,1015.39,189.10,198.60,0,22.00,"$GNGGA,191806.000,4900.5174,N,00825.4559,E,1,4,2.90,141.3,M,47.9,M,,*4F",,,,
2022-02-07T20:18:32+01:00,18,29.56,18.10,1015.42,182.00,191.20,0,22.50,"$GNGGA,191827.000,4900.5181,N,00825.4590,E,1,6,2.26,139.5,M,47.9,M,,*45",,,,
2022-02-07T20:18:53+01:00,19,29.72,18.19,1015.42,176.50,185.40,0,22.50,"$GNGGA,191848.000,4900.5157,N,00825.4543,E,1,6,2.26,137.4,M,47.9,M,,*46",,,,
2022-02-07T20:19:13+01:00,20,29.87,18.21,1015.43,174.30,183.10,0,22.50,"$GNGGA,191908.000,4900.5192,N,00825.4622,E,0,1,,138.1,M,47.9,M,,*5A",,,,
2022-02-07T20:19:34+01:00,21,29.81,18.09,1015.48,40.60,42.70,0,23.00,"$GNGGA,191929.000,4900.5190,N,00825.4625,E,0,0,,138.1,M,47.9,M,,*5D",,,,
2022-02-07T20:19:55+01:00,22,29.49,17.98,1015.55,30.00,31.60,0,22.50,"$GNGGA,191950.000,4900.5299,N,00825.4662,E,0,2,,138.1,M,47.9,M,,*58",,,,
2022-02-07T20:20:15+01:00,23,29.15,18.80,1015.60,21.90,23.00,0,21.50,"$GNGGA,192010.000,4900.5636,N,00825.5886,E,0,3,,122.6,M,47.9,M,,*5F",,,,
2022-02-07T20:20:36+01:00,24,28.79,19.18,1015.86,21.80,22.90,0,21.50,"$GNGGA,192031.000,4900.5712,N,00825.5862,E,0,0,,122.6,M,47.9,M,,*52",,,,
2022-02-07T20:20:57+01:00,25,27.71,17.90,1016.25,26.10,27.50,0,17.00,"$GNGGA,192052.000,4900.5195,N,00825.4618,E,0,0,,138.1,M,47.9,M,,*50",,,,
2022-02-07T20:21:17+01:00,26,25.37,18.93,1016.55,28.60,30.10,0,12.00,"$GNGGA,192112.000,4900.4881,N,00825.4924,E,1,4,6.60,52.4,M,47.9,M,,*7B",,,,
2022-02-07T20:21:38+01:00,27,22.56,22.75,1016.77,30.00,31.60,0,9.00,"$GNGGA,192133.000,4900.4917,N,00825.4078,E,1,5,2.61,124.9,M,47.9,M,,*4F",,,,
2022-02-07T20:21:59+01:00,28,20.03,26.68,1016.92,30.70,32.30,0,8.50,"$GNGGA,192154.000,4900.4838,N,00825.3980,E,1,6,1.83,135.0,M,47.9,M,,*4E",,,,
2022-02-07T20:22:20+01:00,29,17.91,29.70,1017.03,30.50,32.10,0,8.00,"$GNGGA,192215.000,4900.4635,N,00825.4095,E,1,6,1.58,137.5,M,47.9,M,,*40",,,,
2022-02-07T20:22:41+01:00,30,16.38,31.31,1017.12,30.20,31.80,0,8.50,"$GNGGA,192236.000,4900.4534,N,00825.4255,E,1,7,1.57,149.9,M,47.9,M,,*46",,,,
2022-02-07T20:23:02+01:00,31,15.24,31.90,1017.16,28.70,30.20,0,8.50,"$GNGGA,192257.000,4900.4515,N,00825.4374,E,1,9,1.09,163.2,M,47.9,M,,*46",,,,
2022-02-07T20:23:23+01:00,32,14.04,32.60,1017.20,28.80,30.30,0,8.00,"$GNGGA,192318.000,4900.4461,N,00825.4550,E,1,9,1.04,154.9,M,47.9,M,,*4C",,,,
2022-02-07T20:23:44+01:00,33,12.95,34.26,1017.24,28.20,29.70,0,7.50,"$GNGGA,192339.000,4900.4413,N,00825.4570,E,1,8,1.08,156.1,M,47.9,M,,*4F",,,,
2022-02-07T20:24:05+01:00,34,12.02,35.74,1017.29,27.80,29.20,0,7.50,"$GNGGA,192400.000,4900.4240,N,00825.4510,E,1,9,1.04,146.3,M,47.9,M,,*4A",,,,
2022-02-07T20:24:26+01:00,35,11.11,37.08,1017.32,26.40,27.80,0,7.00,"$GNGGA,192421.000,4900.4110,N,00825.4520,E,1,9,0.99,142.9,M,47.9,M,,*47",,,,
2022-02-07T20:24:47+01:00,36,10.26,38.64,1017.35,26.20,27.60,0,6.50,"$GNGGA,192442.000,4900.3988,N,00825.4584,E,1,9,1.12,144.7,M,47.9,M,,*48",,,,
2022-02-07T20:25:08+01:00,37,9.47,40.35,1017.38,26.20,27.60,0,6.50,"$GNGGA,192503.000,4900.3813,N,00825.4473,E,2,8,1.14,142.1,M,47.9,M,,*42",,,,
2022-02-07T20:25:29+01:00,38,8.80,41.76,1017.41,26.00,27.40,0,6.00,"$GNGGA,192524.000,4900.3670,N,00825.4473,E,2,8,1.14,140.6,M,47.9,M,,*49",,,,
2022-02-07T20:25:50+01:00,39,8.31,42.79,1017.43,25.40,26.70,0,6.00,"$GNGGA,192545.000,4900.3558,N,00825.4549,E,2,8,1.03,136.1,M,47.9,M,,*4F",,,,
2022-02-07T20:26:11+01:00,40,7.88,43.47,1017.45,25.10,26.40,0,6.00,"$GNGGA,192606.000,4900.3472,N,00825.4658,E,2,8,1.03,123.6,M,47.9,M,,*42",,,,
2022-02-07T20:26:32+01:00,41,7.51,44.33,1017.45,24.80,26.10,0,5.50,"$GNGGA,192627.000,4900.3338,N,00825.4668,E,2,9,0.99,118.8,M,47.9,M,,*4E",,,,
2022-02-07T20:26:53+01:00,42,7.18,45.11,1017.46,23.40,24.60,0,5.50,"$GNGGA,192648.000,4900.3201,N,00825.4671,E,2,8,1.04,123.1,M,47.9,M,,*41",,,,
2022-02-07T20:27:14+01:00,43,6.94,45.66,1017.46,23.10,24.30,0,5.50,"$GNGGA,192709.000,4900.3082,N,00825.4651,E,2,8,1.04,125.0,M,47.9,M,,*49",,,,
2022-02-07T20:27:35+01:00,44,6.74,46.06,1017.46,22.80,24.00,0,5.50,"$GNGGA,192730.000,4900.2965,N,00825.4657,E,2,8,1.09,126.3,M,47.9,M,,*49",,,,
2022-02-07T20:27:56+01:00,45,6.55,46.54,1017.45,24.20,25.50,0,5.00,"$GNGGA,192751.000,4900.2858,N,00825.4648,E,2,9,0.99,125.1,M,47.9,M,,*47",,,,
2022-02-07T20:28:17+01:00,46,6.35,46.86,1017.45,23.10,24.30,0,5.00,"$GNGGA,192812.000,4900.2735,N,00825.4673,E,2,8,1.09,125.8,M,47.9,M,,*43",,,,
2022-02-07T20:28:38+01:00,47,6.14,47.45,1017.45,22.60,23.80,0,5.00,"$GNGGA,192833.000,4900.2602,N,00825.4677,E,2,9,1.00,128.6,M,47.9,M,,*4A",,,,
2022-02-07T20:28:59+01:00,48,5.93,48.04,1017.45,23.90,25.10,0,5.00,"$GNGGA,192854.000,4900.2470,N,00825.4657,E,2,9,1.00,122.2,M,47.9,M,,*40",,,,
2022-02-07T20:29:20+01:00,49,5.77,48.54,1017.46,24.00,25.30,0,5.00,"$GNGGA,192915.000,4900.2348,N,00825.4668,E,2,9,1.00,122.1,M,47.9,M,,*47",,,,
2022-02-07T20:29:41+01:00,50,5.60,49.16,1017.46,23.70,24.90,0,4.50,"$GNGGA,192936.000,4900.2231,N,00825.4681,E,2,9,1.00,119.9,M,47.9,M,,*4E",,,,
2022-02-07T20:30:02+01:00,51,5.54,49.58,1017.46,21.40,22.50,0,4.50,"$GNGGA,192957.000,4900.2207,N,00825.4517,E,2,9,0.94,120.2,M,47.9,M,,*4D",,,,
2022-02-07T20:30:23+01:00,52,5.51,49.52,1017.46,21.30,22.40,0,4.50,"$GNGGA,193018.000,4900.2155,N,00825.4350,E,2,10,0.90,119.9,M,47.9,M,,*72",,,,
2022-02-07T20:30:44+01:00,53,5.53,49.39,1017.45,21.20,22.30,0,5.00,"$GNGGA,193039.000,4900.2128,N,00825.4316,E,2,9,0.99,119.7,M,47.9,M,,*46",,,,
2022-02-07T20:31:05+01:00,54,5.61,48.95,1017.46,20.40,21.50,0,5.00,"$GNGGA,193100.000,4900.2133,N,00825.4322,E,2,11,0.84,119.5,M,47.9,M,,*77",,,,
2022-02-07T20:31:26+01:00,55,5.66,48.49,1017.47,20.70,21.80,0,5.00,"$GNGGA,193121.000,4900.2097,N,00825.4277,E,2,12,0.82,119.4,M,47.9,M,,*7E",,,,
2022-02-07T20:31:47+01:00,56,5.67,48.51,1017.48,21.20,22.30,0,5.00,"$GNGGA,193142.000,4900.2020,N,00825.4207,E,2,13,0.81,120.0,M,47.9,M,,*7C",,,,
2022-02-07T20:32:08+01:00,57,5.71,48.52,1017.48,22.50,23.70,0,5.00,"$GNGGA,193203.000,4900.2012,N,00825.4223,E,2,13,0.81,124.5,M,47.9,M,,*7C",,,,
2022-02-07T20:32:29+01:00,58,5.76,48.45,1017.49,21.50,22.60,0,5.00,"$GNGGA,193224.000,4900.2011,N,00825.4220,E,2,12,0.81,124.8,M,47.9,M,,*75",,,,
2022-02-07T20:32:50+01:00,59,5.77,48.27,1017.50,21.20,22.30,0,5.00,"$GNGGA,193245.000,4900.1925,N,00825.4186,E,2,13,0.75,122.6,M,47.9,M,,*72",,,,
2022-02-07T20:33:12+01:00,60,5.81,48.33,1017.49,19.80,20.80,0,5.00,"$GNGGA,193307.000,4900.1859,N,00825.4072,E,2,13,0.76,117.2,M,47.9,M,,*74",,,,
2022-02-07T20:33:33+01:00,61,5.83,48.19,1017.41,20.30,21.40,0,5.00,"$GNGGA,193328.000,4900.1895,N,00825.4028,E,2,13,0.76,118.3,M,47.9,M,,*78",,,,
2022-02-07T20:33:55+01:00,62,5.81,48.10,1017.24,20.20,21.30,0,5.00,"$GNGGA,193349.000,4900.1918,N,00825.3940,E,2,14,0.72,121.3,M,47.9,M,,*72",,,,
2022-02-07T20:34:16+01:00,63,5.72,48.27,1017.13,21.00,22.10,0,5.00,"$GNGGA,193411.000,4900.1881,N,00825.3802,E,2,14,0.72,129.0,M,47.9,M,,*75",,,,
2022-02-07T20:34:37+01:00,64,5.63,48.73,1017.05,21.10,22.20,0,5.00,"$GNGGA,193432.000,4900.1866,N,00825.3557,E,2,12,0.81,134.2,M,47.9,M,,*74",,,,
2022-02-07T20:35:00+01:00,65,5.56,49.12,1016.98,20.70,21.80,0,5.00,"$GNGGA,193455.000,4900.1962,N,00825.3394,E,2,12,0.81,131.0,M,47.9,M,,*7E",,,,
2022-02-07T20:35:21+01:00,66,5.54,49.11,1016.92,20.10,21.20,0,5.00,"$GNGGA,193516.000,4900.1966,N,00825.3198,E,2,11,0.88,133.4,M,47.9,M,,*7E",,,,
2022-02-07T20:35:42+01:00,67,5.52,48.97,1016.89,20.50,21.60,0,5.00,"$GNGGA,193537.000,4900.1978,N,00825.3014,E,2,10,0.98,131.5,M,47.9,M,,*74",,,,
2022-02-07T20:36:03+01:00,68,5.53,48.95,1016.87,20.70,21.80,0,5.00,"$GNGGA,193558.000,4900.2033,N,00825.2886,E,2,12,0.81,131.1,M,47.9,M,,*74",,,,
2022-02-07T20:36:24+01:00,69,5.59,48.70,1016.85,20.90,22.00,0,5.00,"$GNGGA,193619.000,4900.2062,N,00825.2732,E,2,11,0.88,131.5,M,47.9,M,,*78",,,,
2022-02-07T20:36:45+01:00,70,5.69,48.49,1016.85,19.30,20.30,0,5.00,"$GNGGA,193640.000,4900.2097,N,00825.2629,E,2,13,0.77,129.1,M,47.9,M,,*7A",,,,
2022-02-07T20:37:06+01:00,71,5.71,48.34,1016.85,21.00,22.10,0,5.00,"$GNGGA,193701.000,4900.2133,N,00825.2463,E,2,14,0.73,125.1,M,47.9,M,,*72",,,,
2022-02-07T20:37:27+01:00,72,5.69,48.44,1016.83,22.00,23.20,0,5.00,"$GNGGA,193722.000,4900.2192,N,00825.2294,E,2,14,0.73,134.5,M,47.9,M,,*72",,,,
2022-02-07T20:37:48+01:00,73,5.65,48.55,1016.83,23.10,24.30,0,5.00,"$GNGGA,193743.000,4900.2228,N,00825.2145,E,2,11,0.89,133.8,M,47.9,M,,*72",,,,
2022-02-07T20:38:09+01:00,74,5.62,48.81,1016.83,22.60,23.80,0,5.00,"$GNGGA,193804.000,4900.2262,N,00825.1977,E,2,12,0.81,129.3,M,47.9,M,,*71",,,,
2022-02-07T20:38:30+01:00,75,5.59,48.88,1016.84,21.90,23.00,0,5.00,"$GNGGA,193825.000,4900.2273,N,00825.1800,E,2,13,0.76,125.2,M,47.9,M,,*77",,,,
2022-02-07T20:38:51+01:00,76,5.54,49.05,1016.84,21.50,22.60,0,4.50,"$GNGGA,193846.000,4900.2297,N,00825.1622,E,2,15,0.71,123.9,M,47.9,M,,*7A",,,,
2022-02-07T20:39:12+01:00,77,5.49,49.45,1016.84,21.80,22.90,0,4.50,"$GNGGA,193907.000,4900.2333,N,00825.1430,E,2,14,0.75,123.7,M,47.9,M,,*7B",,,,
2022-02-07T20:39:33+01:00,78,5.47,49.70,1016.84,21.90,23.00,0,4.50,"$GNGGA,193928.000,4900.2386,N,00825.1245,E,2,14,0.73,125.3,M,47.9,M,,*78",,,,
2022-02-07T20:39:55+01:00,79,5.49,49.62,1016.84,20.90,22.00,0,4.50,"$GNGGA,193949.000,4900.2422,N,00825.1072,E,2,13,0.81,125.5,M,47.9,M,,*7C",,,,
2022-02-07T20:40:16+01:00,80,5.50,49.47,1016.83,21.70,22.80,0,4.50,"$GNGGA,194011.000,4900.2459,N,00825.0883,E,2,13,0.81,123.4,M,47.9,M,,*73",,,,
2022-02-07T20:40:37+01:00,81,5.54,49.33,1016.84,22.20,23.40,0,4.50,"$GNGGA,194032.000,4900.2482,N,00825.0720,E,2,13,0.78,124.2,M,47.9,M,,*75",,,,
2022-02-07T20:40:58+01:00,82,5.60,49.18,1016.85,21.70,22.80,0,4.50,"$GNGGA,194053.000,4900.2536,N,00825.0526,E,2,15,0.70,124.8,M,47.9,M,,*7C",,,,
2022-02-07T20:41:20+01:00,83,5.66,48.95,1016.85,21.10,22.20,0,4.50,"$GNGGA,194114.000,4900.2578,N,00825.0344,E,2,14,0.74,121.6,M,47.9,M,,*78",,,,
2022-02-07T20:41:40+01:00,84,5.71,48.82,1016.85,20.50,21.60,0,4.50,"$GNGGA,194135.000,4900.2603,N,00825.0164,E,2,16,0.67,119.4,M,47.9,M,,*7D",,,,
2022-02-07T20:42:02+01:00,85,5.67,48.85,1016.86,20.50,21.60,0,4.50,"$GNGGA,194156.000,4900.2634,N,00824.9989,E,2,16,0.67,119.8,M,47.9,M,,*73",,,,
2022-02-07T20:42:23+01:00,86,5.57,49.26,1016.87,20.60,21.70,0,4.50,"$GNGGA,194217.000,4900.2685,N,00824.9811,E,2,16,0.67,121.0,M,47.9,M,,*7C",,,,
2022-02-07T20:42:43+01:00,87,5.52,49.54,1016.87,20.60,21.70,0,4.50,"$GNGGA,194238.000,4900.2747,N,00824.9622,E,2,14,0.74,123.6,M,47.9,M,,*74",,,,
2022-02-07T20:43:04+01:00,88,5.48,49.82,1016.87,20.00,21.10,0,5.00,"$GNGGA,194259.000,4900.2836,N,00824.9505,E,2,15,0.70,123.3,M,47.9,M,,*7C",,,,
2022-02-07T20:43:25+01:00,89,5.49,49.94,1016.86,19.40,20.40,0,5.00,"$GNGGA,194320.000,4900.2896,N,00824.9353,E,2,15,0.70,123.1,M,47.9,M,,*7E",,,,
2022-02-07T20:43:46+01:00,90,5.53,49.71,1016.86,18.70,19.70,0,4.50,"$GNGGA,194341.000,4900.2908,N,00824.9158,E,2,16,0.67,126.3,M,47.9,M,,*74",,,,
2022-02-07T20:44:08+01:00,91,5.56,49.51,1016.85,18.70,19.70,0,4.50,"$GNGGA,194402.000,4900.2954,N,00824.8979,E,2,16,0.67,126.6,M,47.9,M,,*72",,,,
2022-02-07T20:44:28+01:00,92,5.58,49.49,1016.85,18.70,19.70,0,4.50,"$GNGGA,194423.000,4900.2957,N,00824.8805,E,2,14,0.74,126.8,M,47.9,M,,*76",,,,
2022-02-07T20:44:49+01:00,93,5.54,49.39,1016.81,18.60,19.60,0,5.00,"$GNGGA,194444.000,4900.2943,N,00824.8623,E,2,15,0.70,142.1,M,47.9,M,,*76",,,,
2022-02-07T20:45:10+01:00,94,5.50,49.42,1016.82,18.50,19.50,0,5.00,"$GNGGA,194505.000,4900.2988,N,00824.8438,E,2,12,0.88,139.1,M,47.9,M,,*71",,,,
2022-02-07T20:45:31+01:00,95,5.49,49.51,1016.83,18.60,19.60,0,5.00,"$GNGGA,194526.000,4900.3039,N,00824.8232,E,2,14,0.82,130.8,M,47.9,M,,*72",,,,
2022-02-07T20:45:53+01:00,96,5.49,49.53,1016.82,19.80,20.80,0,5.00,"$GNGGA,194547.000,4900.3075,N,00824.8066,E,2,14,0.73,129.6,M,47.9,M,,*76",,,,
2022-02-07T20:46:14+01:00,97,5.42,49.65,1016.82,20.00,21.10,0,5.00,"$GNGGA,194608.000,4900.3095,N,00824.7876,E,2,16,0.71,131.3,M,47.9,M,,*7A",,,,
2022-02-07T20:46:34+01:00,98,5.37,49.94,1016.82,19.30,20.30,0,5.00,"$GNGGA,194629.000,4900.3082,N,00824.7686,E,2,15,0.71,128.4,M,47.9,M,,*72",,,,
2022-02-07T20:46:56+01:00,99,5.33,50.10,1016.82,19.30,20.30,0,5.00,"$GNGGA,194650.000,4900.3072,N,00824.7484,E,2,15,0.77,127.5,M,47.9,M,,*7B",,,,
2022-02-07T20:47:17+01:00,100,5.30,50.27,1016.83,18.90,19.90,0,5.00,"$GNGGA,194711.000,4900.3124,N,00824.7310,E,2,16,0.67,127.6,M,47.9,M,,*76",,,,
2022-02-07T20:47:37+01:00,101,5.29,50.29,1016.83,19.50,20.50,0,5.00,"$GNGGA,194732.000,4900.3150,N,00824.7166,E,2,16,0.71,126.5,M,47.9,M,,*72",,,,
2022-02-07T20:47:59+01:00,102,5.27,50.35,1016.82,19.50,20.50,0,5.00,"$GNGGA,194753.000,4900.3204,N,00824.6998,E,2,16,0.71,131.5,M,47.9,M,,*79",,,,
2022-02-07T20:48:20+01:00,103,5.25,50.48,1016.87,19.20,20.20,0,5.00,"$GNGGA,194814.000,4900.3229,N,00824.6798,E,2,15,0.69,141.7,M,47.9,M,,*7B",,,,
2022-02-07T20:48:41+01:00,104,5.24,50.51,1017.05,19.80,20.80,0,5.00,"$GNGGA,194835.000,4900.3231,N,00824.6671,E,2,16,0.67,135.7,M,47.9,M,,*79",,,,
2022-02-07T20:49:02+01:00,105,5.25,50.51,1017.19,20.10,21.20,0,5.00,"$GNGGA,194856.000,4900.3295,N,00824.6491,E,2,16,0.67,129.3,M,47.9,M,,*77",,,,
2022-02-07T20:49:23+01:00,106,5.32,50.32,1017.31,19.70,20.70,0,5.00,"$GNGGA,194917.000,4900.3453,N,00824.6552,E,2,16,0.73,123.4,M,47.9,M,,*79",,,,
2022-02-07T20:49:44+01:00,107,5.41,50.05,1017.39,17.30,18.20,0,5.00,"$GNGGA,194938.000,4900.3499,N,00824.6490,E,2,15,0.73,117.3,M,47.9,M,,*7E",,,,
2022-02-07T20:50:05+01:00,108,5.51,49.67,1017.45,16.80,17.70,0,5.00,"$GNGGA,194959.000,4900.3632,N,00824.6446,E,2,15,0.70,123.1,M,47.9,M,,*77",,,,
2022-02-07T20:50:26+01:00,109,5.61,49.40,1017.50,16.00,16.90,0,5.50,"$GNGGA,195020.000,4900.3742,N,00824.6418,E,2,16,0.71,129.3,M,47.9,M,,*76",,,,
2022-02-07T20:50:47+01:00,110,5.71,49.11,1017.54,17.20,18.10,0,5.00,"$GNGGA,195041.000,4900.3739,N,00824.6413,E,2,17,0.60,127.3,M,47.9,M,,*79",,,,
2022-02-07T20:51:08+01:00,111,5.73,48.92,1017.58,17.20,18.10,0,5.00,"$GNGGA,195102.000,4900.3790,N,00824.6370,E,2,17,0.61,122.0,M,47.9,M,,*79",,,,
2022-02-07T20:51:29+01:00,112,5.76,49.01,1017.60,17.80,18.70,0,5.00,"$GNGGA,195123.000,4900.3846,N,00824.6224,E,2,17,0.61,117.7,M,47.9,M,,*7F",,,,
2022-02-07T20:51:50+01:00,113,5.80,48.99,1017.62,17.30,18.20,0,5.00,"$GNGGA,195144.000,4900.3920,N,00824.6086,E,2,17,0.61,124.2,M,47.9,M,,*70",,,,
2022-02-07T20:52:11+01:00,114,5.81,48.92,1017.62,17.10,18.00,0,5.00,"$GNGGA,195205.000,4900.3994,N,00824.6049,E,2,17,0.60,134.3,M,47.9,M,,*7B",,,,
2022-02-07T20:52:31+01:00,115,5.85,49.00,1017.62,17.60,18.50,0,5.50,"$GNGGA,195226.000,4900.4107,N,00824.6020,E,2,17,0.60,148.3,M,47.9,M,,*7B",,,,
2022-02-07T20:52:53+01:00,116,5.87,48.93,1017.62,18.00,19.00,0,5.00,"$GNGGA,195247.000,4900.4205,N,00824.6002,E,2,17,0.60,143.3,M,47.9,M,,*76",,,,
2022-02-07T20:53:14+01:00,117,5.93,48.95,1017.63,18.30,19.30,0,5.50,"$GNGGA,195308.000,4900.4373,N,00824.5960,E,2,15,0.65,127.8,M,47.9,M,,*7C",,,,
2022-02-07T20:53:35+01:00,118,6.00,48.84,1017.63,18.30,19.30,0,5.50,"$GNGGA,195329.000,4900.4509,N,00824.5925,E,2,17,0.60,122.1,M,47.9,M,,*7E",,,,
2022-02-07T20:53:56+01:00,119,6.07,48.55,1017.63,18.70,19.70,0,5.50,"$GNGGA,195350.000,4900.4671,N,00824.6114,E,2,16,0.62,128.5,M,47.9,M,,*78",,,,
2022-02-07T20:54:17+01:00,120,6.09,48.28,1017.64,19.40,20.40,0,5.50,"$GNGGA,195411.000,4900.4744,N,00824.6040,E,2,15,0.73,129.6,M,47.9,M,,*7C",,,,
2022-02-07T20:54:38+01:00,121,6.11,48.34,1017.65,19.20,20.20,0,5.50,"$GNGGA,195432.000,4900.4835,N,00824.5948,E,2,16,0.68,133.6,M,47.9,M,,*74",,,,
2022-02-07T20:55:00+01:00,122,6.19,48.38,1017.67,18.40,19.40,0,5.50,"$GNGGA,195453.000,4900.5003,N,00824.5935,E,2,15,0.74,139.6,M,47.9,M,,*71",,,,
2022-02-07T20:58:48+01:00,123,7.36,48.32,1017.72,20.30,21.70,0,6.50,"$GNGGA,195843.000,4900.5861,N,00824.7414,E,1,9,0.91,147.0,M,47.9,M,,*46",,,,
2022-02-07T20:59:09+01:00,124,7.10,48.45,1017.73,19.10,20.70,0,5.00,"$GNGGA,195904.000,4900.5802,N,00824.7568,E,1,9,0.91,136.1,M,47.9,M,,*4C",,,,
2022-02-07T20:59:30+01:00,125,6.85,48.41,1017.74,18.10,19.10,0,5.00,"$GNGGA,195925.000,4900.5801,N,00824.7792,E,1,9,0.91,130.8,M,47.9,M,,*44",,,,
2022-02-07T20:59:52+01:00,126,6.63,48.68,1017.76,17.90,18.80,0,5.00,"$GNGGA,195946.000,4900.5811,N,00824.8001,E,1,9,0.91,131.0,M,47.9,M,,*4B",,,,
2022-02-07T21:00:12+01:00,127,6.42,49.16,1017.78,18.20,19.20,0,5.00,"$GNGGA,200007.000,4900.5865,N,00824.8247,E,1,9,0.91,140.3,M,47.9,M,,*4E",,,,
2022-02-07T21:00:33+01:00,128,6.22,49.36,1017.80,19.20,20.20,0,5.00,"$GNGGA,200028.000,4900.5779,N,00824.8392,E,1,9,0.91,132.1,M,47.9,M,,*4F",,,,
2022-02-07T21:00:54+01:00,129,6.12,49.38,1017.80,18.80,19.80,0,5.50,"$GNGGA,200049.000,4900.5793,N,00824.8546,E,1,9,0.91,129.9,M,47.9,M,,*41",,,,
2022-02-07T21:01:15+01:00,130,6.04,49.39,1017.81,18.80,19.80,0,5.50,"$GNGGA,200110.000,4900.5758,N,00824.8810,E,1,9,0.91,128.3,M,47.9,M,,*4E",,,,
2022-02-07T21:01:36+01:00,131,5.98,49.55,1017.81,18.30,19.30,0,5.50,"$GNGGA,200131.000,4900.5857,N,00824.8969,E,1,9,0.91,127.1,M,47.9,M,,*4F",,,,
2022-02-07T21:01:57+01:00,132,5.93,49.63,1017.82,18.60,19.60,0,5.50,"$GNGGA,200152.000,4900.5909,N,00824.9172,E,1,9,0.91,126.6,M,47.9,M,,*45",,,,
2022-02-07T21:02:18+01:00,133,5.89,49.72,1017.84,18.30,19.30,0,5.00,"$GNGGA,200213.000,4900.5944,N,00824.9401,E,1,9,0.91,131.5,M,47.9,M,,*4E",,,,
2022-02-07T21:02:39+01:00,134,5.85,49.71,1017.84,17.90,18.80,0,5.00,"$GNGGA,200234.000,4900.5895,N,00824.9583,E,1,9,0.91,131.2,M,47.9,M,,*4A",,,,
2022-02-07T21:03:00+01:00,135,5.82,49.83,1017.83,18.30,19.30,0,5.00,"$GNGGA,200255.000,4900.5751,N,00824.9692,E,1,9,0.91,126.5,M,47.9,M,,*48",,,,
2022-02-07T21:03:21+01:00,136,5.79,49.99,1017.83,18.10,19.10,0,5.00,"$GNGGA,200316.000,4900.5691,N,00824.9906,E,1,9,0.91,123.1,M,47.9,M,,*40",,,,
2022-02-07T21:03:42+01:00,137,5.74,50.01,1017.84,18.30,19.30,0,5.00,"$GNGGA,200337.000,4900.5632,N,00825.0057,E,1,9,0.91,121.7,M,47.9,M,,*4B",,,,
2022-02-07T21:04:03+01:00,138,5.74,49.88,1017.85,18.50,19.50,0,5.00,"$GNGGA,200358.000,4900.5644,N,00825.0282,E,1,7,1.07,118.1,M,47.9,M,,*45",,,,
2022-02-07T21:04:24+01:00,139,5.75,49.79,1017.86,19.10,20.10,0,5.00,"$GNGGA,200419.000,4900.5569,N,00825.0326,E,1,9,0.91,118.8,M,47.9,M,,*4D",,,,
2022-02-07T21:04:45+01:00,140,5.74,49.70,1017.87,18.10,19.10,0,5.00,"$GNGGA,200440.000,4900.5566,N,00825.0347,E,1,10,0.89,132.2,M,47.9,M,,*7A",,,,
2022-02-07T21:05:06+01:00,141,5.73,49.68,1017.88,18.80,19.80,0,5.00,"$GNGGA,200501.000,4900.5566,N,00825.0349,E,1,10,0.89,132.1,M,47.9,M,,*73",,,,
2022-02-07T21:05:27+01:00,142,5.72,49.73,1017.88,18.10,19.10,0,5.00,"$GNGGA,200522.000,4900.5479,N,00825.0502,E,1,10,0.89,131.7,M,47.9,M,,*71",,,,
2022-02-07T21:05:48+01:00,143,5.70,49.74,1017.90,18.00,19.00,0,5.00,"$GNGGA,200543.000,4900.5419,N,00825.0685,E,1,10,0.89,131.5,M,47.9,M,,*7E",,,,
2022-02-07T21:06:09+01:00,144,5.69,49.84,1017.89,17.30,18.20,0,5.00,"$GNGGA,200604.000,4900.5364,N,00825.0869,E,1,10,0.89,130.2,M,47.9,M,,*79",,,,
2022-02-07T21:06:30+01:00,145,5.65,49.99,1017.89,17.80,18.70,0,5.00,"$GNGGA,200625.000,4900.5323,N,00825.1072,E,1,10,0.89,129.3,M,47.9,M,,*73",,,,
2022-02-07T21:06:51+01:00,146,5.62,50.04,1017.91,18.40,19.40,0,5.00,"$GNGGA,200646.000,4900.5281,N,00825.1275,E,1,10,0.89,128.9,M,47.9,M,,*71",,,,
2022-02-07T21:07:12+01:00,147,5.57,50.08,1017.94,18.40,19.40,0,4.50,"$GNGGA,200707.000,4900.5264,N,00825.1460,E,1,10,0.89,117.7,M,47.9,M,,*7E",,,,
2022-02-07T21:07:33+01:00,148,5.47,50.28,1017.93,17.90,18.80,0,5.00,"$GNGGA,200728.000,4900.5243,N,00825.1646,E,1,10,0.89,113.0,M,47.9,M,,*73",,,,
2022-02-07T21:07:54+01:00,149,5.42,50.69,1017.94,17.80,18.70,0,5.00,"$GNGGA,200749.000,4900.5202,N,00825.1845,E,1,10,0.89,113.2,M,47.9,M,,*7E",,,,
2022-02-07T21:08:15+01:00,150,5.42,50.87,1017.95,18.50,19.50,0,5.00,"$GNGGA,200810.000,4900.5163,N,00825.2042,E,1,10,0.89,121.0,M,47.9,M,,*76",,,,
2022-02-07T21:08:36+01:00,151,5.45,50.56,1017.95,17.40,18.30,0,5.00,"$GNGGA,200831.000,4900.5130,N,00825.2271,E,1,10,0.89,122.7,M,47.9,M,,*75",,,,
2022-02-07T21:08:57+01:00,152,5.51,50.31,1017.96,16.90,17.80,0,5.00,"$GNGGA,200852.000,4900.5063,N,00825.2449,E,1,10,0.89,126.1,M,47.9,M,,*78",,,,
2022-02-07T21:09:18+01:00,153,5.55,50.13,1017.96,15.50,16.30,0,5.00,"$GNGGA,200913.000,4900.5013,N,00825.2627,E,2,10,0.88,133.9,M,47.9,M,,*7F",,,,
2022-02-07T21:09:39+01:00,154,5.57,50.11,1017.97,16.50,17.40,0,5.00,"$GNGGA,200934.000,4900.4960,N,00825.2843,E,2,9,1.01,144.8,M,47.9,M,,*43",,,,
2022-02-07T21:10:00+01:00,155,5.56,50.22,1017.96,17.00,17.90,0,5.00,"$GNGGA,200955.000,4900.4919,N,00825.3019,E,2,10,0.88,151.8,M,47.9,M,,*70",,,,
2022-02-07T21:10:21+01:00,156,5.59,50.30,1017.94,17.20,18.10,0,5.00,"$GNGGA,201016.000,4900.4887,N,00825.3198,E,2,9,0.96,153.9,M,47.9,M,,*45",,,,
2022-02-07T21:10:42+01:00,157,5.68,50.10,1017.94,16.00,16.90,0,5.00,"$GNGGA,201037.000,4900.4856,N,00825.3381,E,2,10,0.88,146.1,M,47.9,M,,*7B",,,,
2022-02-07T21:11:03+01:00,158,5.80,49.86,1017.94,15.00,15.80,0,5.00,"$GNGGA,201058.000,4900.4845,N,00825.3548,E,2,9,1.31,140.5,M,47.9,M,,*4A",,,,
2022-02-07T21:11:24+01:00,159,5.93,49.64,1017.94,15.20,16.00,0,5.50,"$GNGGA,201119.000,4900.4842,N,00825.3761,E,2,10,0.88,127.7,M,47.9,M,,*78",,,,
2022-02-07T21:11:51+01:00,160,6.04,49.23,1017.95,17.10,18.00,0,5.50,"$GNGGA,201140.000,4900.4919,N,00825.3843,E,2,8,1.02,127.5,M,47.9,M,,*4C",,,,
2022-02-07T21:12:12+01:00,161,6.09,49.06,1017.94,18.30,19.30,0,5.00,"$GNGGA,201207.000,4900.5082,N,00825.4006,E,2,8,1.20,143.9,M,47.9,M,,*46",,,,
2022-02-07T21:12:33+01:00,162,6.11,48.85,1017.93,17.50,18.40,0,5.00,"$GNGGA,201228.000,4900.5106,N,00825.4213,E,2,10,0.88,148.8,M,47.9,M,,*70",,,,
2022-02-07T21:12:54+01:00,163,6.13,48.91,1017.93,17.80,18.70,0,5.00,"$GNGGA,201249.000,4900.5120,N,00825.4351,E,2,9,0.96,151.5,M,47.9,M,,*46",,,,
2022-02-07T21:13:15+01:00,164,6.16,49.04,1017.91,17.80,18.70,0,5.50,"$GNGGA,201310.000,4900.5167,N,00825.4256,E,2,10,0.88,144.0,M,47.9,M,,*78",,,,
2022-02-07T21:13:36+01:00,165,6.21,49.50,1017.90,17.50,18.40,0,6.00,"$GNGGA,201331.000,4900.5199,N,00825.4245,E,2,10,0.88,141.7,M,47.9,M,,*7A",,,,
2022-02-07T21:13:57+01:00,166,6.33,51.36,1017.87,16.50,17.40,0,7.00,"$GNGGA,201352.000,4900.5188,N,00825.4247,E,2,8,1.08,138.5,M,47.9,M,,*41",,,,
2022-02-07T21:14:18+01:00,167,6.50,52.91,1017.74,17.00,17.90,0,8.00,"$GNGGA,201413.000,4900.5174,N,00825.4303,E,2,5,1.70,137.9,M,47.9,M,,*40",,,,
2022-02-07T21:14:39+01:00,168,6.74,54.88,1017.54,18.40,19.40,0,9.00,"$GNGGA,201434.000,4900.5201,N,00825.4439,E,0,4,,114.8,M,47.9,M,,*51",,,,
2022-02-07T21:15:00+01:00,169,7.04,56.95,1017.22,18.70,19.70,0,10.00,"$GNGGA,201455.000,4900.5307,N,00825.4372,E,0,0,,147.3,M,47.9,M,,*50",,,,
2022-02-07T21:15:21+01:00,170,7.55,56.91,1016.99,21.10,22.20,0,12.50,"$GNGGA,201516.000,4900.5337,N,00825.4431,E,0,0,,145.7,M,47.9,M,,*53",,,,
2022-02-07T21:15:42+01:00,171,8.14,53.28,1016.74,22.20,23.40,0,14.50,"$GNGGA,201537.000,4900.5337,N,00825.4431,E,0,0,,145.7,M,47.9,M,,*50",,,,
2022-02-07T21:16:02+01:00,172,8.68,49.92,1016.59,24.20,25.50,0,14.00,"$GNGGA,201557.000,4900.7321,N,00825.5413,E,2,6,1.45,505.7,M,47.9,M,,*48",,,,
2022-02-07T21:16:23+01:00,173,9.19,48.35,1016.45,24.50,25.80,0,14.00,"$GNGGA,201618.000,4900.7249,N,00825.5526,E,2,8,1.30,529.0,M,47.9,M,,*4D",,,,
2022-02-07T21:16:44+01:00,174,9.66,47.38,1016.36,26.90,28.30,0,14.00,"$GNGGA,201639.000,4900.7408,N,00825.5535,E,2,10,0.89,542.5,M,47.9,M,,*7D",,,,
2022-02-07T21:17:06+01:00,175,10.11,46.54,1016.30,28.00,29.50,0,14.00,"$GNGGA,201700.000,4900.7626,N,00825.5524,E,2,7,1.39,568.6,M,47.9,M,,*4F",,,,
2022-02-07T21:17:27+01:00,176,10.53,45.73,1016.25,27.90,29.30,0,14.50,"$GNGGA,201722.000,4900.7646,N,00825.5374,E,2,8,1.95,561.3,M,47.9,M,,*4F",,,,
2022-02-07T21:17:48+01:00,177,10.93,45.13,1016.21,26.90,28.30,0,14.50,"$GNGGA,201743.000,4900.7655,N,00825.5364,E,2,9,2.15,559.6,M,47.9,M,,*4F",,,,
2022-02-07T21:18:15+01:00,178,11.31,44.57,1016.19,26.60,28.00,0,15.00,"$GNGGA,201807.000,4900.7665,N,00825.5531,E,2,7,2.27,571.6,M,47.9,M,,*40",,,,
2022-02-07T21:18:36+01:00,179,11.69,43.85,1016.16,27.90,29.30,0,14.50,"$GNGGA,201831.000,4900.7720,N,00825.5403,E,2,7,2.51,580.9,M,47.9,M,,*45",,,,
2022-02-07T21:18:57+01:00,180,12.05,43.34,1016.15,29.50,31.00,0,15.00,"$GNGGA,201852.000,4900.7772,N,00825.5582,E,2,6,2.28,590.5,M,47.9,M,,*4D",,,,
2022-02-07T21:19:18+01:00,181,12.39,43.06,1016.12,30.20,31.80,0,15.00,"$GNGGA,201913.000,4900.7840,N,00825.5464,E,2,7,2.25,593.8,M,47.9,M,,*4C",,,,
2022-02-07T21:19:39+01:00,182,12.72,42.75,1016.12,29.80,31.30,0,15.50,"$GNGGA,201934.000,4900.7853,N,00825.5410,E,2,9,1.25,593.6,M,47.9,M,,*4B",,,,
2022-02-07T21:20:00+01:00,183,13.04,42.54,1016.12,29.30,30.80,0,16.00,"$GNGGA,201955.000,4900.7821,N,00825.5287,E,2,9,1.08,592.4,M,47.9,M,,*4D",,,,
2022-02-07T21:20:21+01:00,184,13.34,42.29,1016.12,29.00,30.50,0,16.00,"$GNGGA,202016.000,4900.7750,N,00825.5331,E,2,8,2.26,591.5,M,47.9,M,,*49",,,,
2022-02-07T21:20:42+01:00,185,13.63,42.00,1016.12,29.30,30.80,0,16.00,"$GNGGA,202037.000,4900.7648,N,00825.5564,E,2,9,1.40,566.9,M,47.9,M,,*42",,,,
2022-02-07T21:21:03+01:00,186,13.91,41.77,1016.12,29.50,31.00,0,16.50,"$GNGGA,202058.000,4900.7625,N,00825.5615,E,2,9,0.93,556.3,M,47.9,M,,*43",,,,
2022-02-07T21:21:24+01:00,187,14.18,41.50,1016.12,30.20,31.80,0,16.50,"$GNGGA,202119.000,4900.7948,N,00825.5875,E,2,8,1.27,613.8,M,47.9,M,,*4D",,,,
2022-02-07T21:21:45+01:00,188,14.44,41.24,1016.12,29.50,31.00,0,16.50,"$GNGGA,202140.000,4900.7266,N,00825.5417,E,2,10,1.03,480.5,M,47.9,M,,*74",,,,
2022-02-07T21:22:06+01:00,189,14.70,41.07,1016.11,29.80,31.30,0,16.50,"$GNGGA,202201.000,4900.5481,N,00825.4803,E,2,11,0.83,183.6,M,47.9,M,,*7A",,,,
2022-02-07T21:22:27+01:00,190,14.95,40.87,1016.12,29.50,31.00,0,16.50,"$GNGGA,202222.000,4900.5440,N,00825.4968,E,2,9,1.18,177.6,M,47.9,M,,*4B",,,,
2022-02-07T21:22:48+01:00,191,15.19,40.65,1016.12,29.90,31.40,0,17.00,"$GNGGA,202243.000,4900.5329,N,00825.4975,E,2,9,1.18,161.8,M,47.9,M,,*41",,,,
2022-02-07T21:23:18+01:00,192,15.44,39.79,1016.12,29.80,31.30,0,16.50,"$GNGGA,202304.000,4900.5284,N,00825.5113,E,2,11,0.91,144.0,M,47.9,M,,*7A",,,,
