created_at,entry_id,field1,field2,field3,field4,field5,field6,field7,field8,latitude,longitude,elevation,status
2022-03-04T18:12:07+01:00,1,22,18.63,1006.37,40.4,42.5,0,-127,"$GNGGA,171202.302,4857.8265,N,00822.8391,E,0,2,,444.5,M,47.9,M,,*5E",,,,
2022-03-04T18:12:27+01:00,2,21.84,18.22,1006.38,37.7,39.6,0,-127,"$GNGGA,171222.302,4859.1475,N,00824.0577,E,0,2,,112.4,M,47.9,M,,*5B",,,,
2022-03-04T18:12:48+01:00,3,21.79,19.31,1006.4,36.7,38.6,0,-127,"$GNGGA,171243.000,4900.5237,N,00825.4693,E,1,7,1.18,146.2,M,47.9,M,,*4D",,,,
2022-03-04T18:13:08+01:00,4,21.81,18.57,1006.4,36.1,38,0,-127,"$GNGGA,171303.000,4900.5241,N,00825.4657,E,1,8,1.15,136.7,M,47.9,M,,*41",,,,
2022-03-04T18:13:28+01:00,5,21.86,18.57,1006.42,35.8,37.6,0,-127,"$GNGGA,171323.000,4900.5252,N,00825.4613,E,1,7,1.18,124.3,M,47.9,M,,*44",,,,
2022-03-04T18:13:49+01:00,6,21.91,17.95,1006.42,35.2,37,0,-127,"$GNGGA,171344.000,4900.5261,N,00825.4491,E,1,8,1.14,121.5,M,47.9,M,,*4D",,,,
2022-03-04T18:14:09+01:00,7,21.83,16.55,1006.42,32.4,34.1,0,-127,"$GNGGA,171404.000,4900.5357,N,00825.4230,E,1,6,1.78,117.4,M,47.9,M,,*47",,,,
2022-03-04T18:14:29+01:00,8,21.27,15.93,1006.41,32.5,34.2,0,-127,"$GNGGA,171424.000,4900.5757,N,00825.4172,E,1,7,1.23,108.9,M,47.9,M,,*48",,,,
2022-03-04T18:14:50+01:00,9,20.61,16.47,1006.45,32.2,33.9,0,-127,"$GNGGA,171445.000,4900.5682,N,00825.4882,E,1,8,1.15,109.6,M,47.9,M,,*44",,,,
2022-03-04T18:15:10+01:00,10,19.92,17.02,1006.48,33.7,35.4,0,-127,"$GNGGA,171505.000,4900.5493,N,00825.5774,E,1,7,1.23,110.4,M,47.9,M,,*44",,,,
2022-03-04T18:15:34+01:00,11,19.17,17.74,1006.5,35,36.8,0,-127,"$GNGGA,171526.000,4900.5308,N,00825.6758,E,1,8,1.14,114.7,M,47.9,M,,*41",,,,
2022-03-04T18:34:45+01:00,12,10.23,27.81,1006.52,38.3,40.3,0,-127,"$GNGGA,173440.000,4900.5369,N,00825.7044,E,1,6,1.50,124.0,M,47.9,M,,*44",,,,
2022-03-04T18:35:28+01:00,13,9.98,28.22,1006.54,38.2,40.2,0,-127,"$GNGGA,173520.000,4900.4372,N,00825.6213,E,1,5,1.95,130.2,M,47.9,M,,*44",,,,
2022-03-04T18:35:50+01:00,14,9.9,28.39,1006.55,36.2,38.1,0,-127,"$GNGGA,173545.000,4900.4191,N,00825.6124,E,1,6,1.49,127.5,M,47.9,M,,*4C",,,,
2022-03-04T18:36:11+01:00,15,9.75,28.37,1006.58,33.2,34.9,0,-127,"$GNGGA,173606.000,4900.4351,N,00825.5352,E,1,6,1.49,123.7,M,47.9,M,,*40",,,,
2022-03-04T18:36:35+01:00,16,9.61,28.36,1006.59,33,34.7,0,-127,"$GNGGA,173627.000,4900.4397,N,00825.4620,E,1,6,1.49,121.0,M,47.9,M,,*4D",,,,
2022-03-04T18:36:56+01:00,17,9.7,28.73,1006.59,38,40,0,-127,"$GNGGA,173651.000,4900.4208,N,00825.4467,E,1,6,1.49,121.7,M,47.9,M,,*4D",,,,
2022-03-04T18:37:16+01:00,18,9.92,28.39,1006.6,34,35.8,0,-127,"$GNGGA,173711.000,4900.4258,N,00825.4499,E,1,6,1.49,125.3,M,47.9,M,,*4C",,,,
2022-03-04T18:37:36+01:00,19,10.19,27.73,1006.62,38,40,0,-127,"$GNGGA,173731.000,4900.4353,N,00825.4612,E,1,7,1.38,121.6,M,47.9,M,,*43",,,,
2022-03-04T18:37:57+01:00,20,10.46,27.03,1006.62,36.6,38.5,0,-127,"$GNGGA,173752.000,4900.4367,N,00825.4553,E,1,8,1.13,132.0,M,47.9,M,,*45",,,,
2022-03-04T18:38:17+01:00,21,10.72,26.39,1006.63,37,38.9,0,-127,"$GNGGA,173812.000,4900.4389,N,00825.4640,E,1,9,0.99,133.9,M,47.9,M,,*45",,,,
2022-03-04T18:38:38+01:00,22,10.95,25.87,1006.65,32.4,34.1,0,-127,"$GNGGA,173833.000,4900.4350,N,00825.4627,E,1,9,0.99,132.9,M,47.9,M,,*42",,,,
2022-03-04T18:38:59+01:00,23,11.18,25.58,1006.65,31.7,33.3,0,-127,"$GNGGA,173854.000,4900.4428,N,00825.4637,E,2,9,0.99,133.1,M,47.9,M,,*40",,,,
2022-03-04T18:39:19+01:00,24,11.4,25.43,1006.65,32,33.7,0,-127,"$GNGGA,173914.000,4900.4456,N,00825.4683,E,2,9,0.99,130.1,M,47.9,M,,*40",,,,
2022-03-04T18:39:39+01:00,25,11.62,25.36,1006.65,31.8,33.4,0,-127,"$GNGGA,173934.000,4900.4268,N,00825.4527,E,2,9,0.99,127.5,M,47.9,M,,*46",,,,
2022-03-04T18:40:00+01:00,26,11.82,25.07,1006.66,31,32.6,0,-127,"$GNGGA,173955.000,4900.4302,N,00825.4448,E,2,9,0.99,128.6,M,47.9,M,,*48",,,,
2022-03-04T18:40:20+01:00,27,12.02,24.8,1006.65,30.8,32.4,0,-127,"$GNGGA,174015.000,4900.4395,N,00825.4533,E,2,9,0.99,138.4,M,47.9,M,,*42",,,,
2022-03-04T18:40:40+01:00,28,12.2,24.51,1006.65,29.9,31.4,0,-127,"$GNGGA,174035.000,4900.4382,N,00825.4683,E,2,9,0.99,142.1,M,47.9,M,,*46",,,,
2022-03-04T18:41:01+01:00,29,12.36,24.32,1006.66,30,31.6,0,-127,"$GNGGA,174056.000,4900.4328,N,00825.4666,E,2,9,0.99,133.3,M,47.9,M,,*4C",,,,
2022-03-04T18:41:21+01:00,30,12.51,24,1006.66,30.8,32.4,0,-127,"$GNGGA,174116.000,4900.4309,N,00825.4575,E,2,9,0.99,132.0,M,47.9,M,,*49",,,,
2022-03-04T18:41:41+01:00,31,12.64,23.88,1006.66,30.4,32,0,-127,"$GNGGA,174136.000,4900.4307,N,00825.4505,E,2,9,0.99,132.2,M,47.9,M,,*40",,,,
2022-03-04T18:42:02+01:00,32,12.78,23.9,1006.67,30.2,31.8,0,-127,"$GNGGA,174157.000,4900.4286,N,00825.4529,E,2,9,0.99,131.1,M,47.9,M,,*41",,,,
2022-03-04T18:42:22+01:00,33,12.91,23.99,1006.67,28.9,30.4,0,-127,"$GNGGA,174217.000,4900.4273,N,00825.4563,E,2,9,0.99,132.9,M,47.9,M,,*49",,,,
2022-03-04T18:42:42+01:00,34,13.06,23.9,1006.67,29.3,30.8,0,-127,"$GNGGA,174237.000,4900.4333,N,00825.4607,E,2,9,0.99,132.9,M,47.9,M,,*4F",,,,
2022-03-04T18:43:03+01:00,35,13.21,23.88,1006.67,28.7,30.2,0,-127,"$GNGGA,174258.000,4900.4319,N,00825.4609,E,2,9,0.99,133.4,M,47.9,M,,*4C",,,,
2022-03-04T18:43:23+01:00,36,13.37,23.86,1006.66,28.6,30.1,0,-127,"$GNGGA,174318.000,4900.4313,N,00825.4546,E,2,9,0.99,132.3,M,47.9,M,,*4D",,,,
2022-03-04T18:43:43+01:00,37,13.51,23.62,1006.67,27.9,29.3,0,-127,"$GNGGA,174338.000,4900.4284,N,00825.4581,E,2,9,0.99,136.9,M,47.9,M,,*45",,,,
2022-03-04T18:44:04+01:00,38,13.64,23.21,1006.67,28,29.5,0,-127,"$GNGGA,174359.000,4900.4321,N,00825.4498,E,2,9,0.99,141.0,M,47.9,M,,*4C",,,,
2022-03-04T18:44:24+01:00,39,13.76,23.16,1006.66,31.3,32.9,0,-127,"$GNGGA,174419.000,4900.4240,N,00825.4420,E,2,9,0.99,142.4,M,47.9,M,,*4D",,,,
2022-03-04T18:44:44+01:00,40,13.87,23.13,1006.65,31.7,33.3,0,-127,"$GNGGA,174439.000,4900.4225,N,00825.4380,E,2,8,1.20,141.7,M,47.9,M,,*43",,,,
2022-03-04T18:45:05+01:00,41,13.86,22.66,1006.67,31.3,32.9,0,-127,"$GNGGA,174500.000,4900.4335,N,00825.4476,E,2,9,1.08,142.9,M,47.9,M,,*40",,,,
2022-03-04T18:45:25+01:00,42,13.72,22.57,1006.67,29.2,30.7,0,-127,"$GNGGA,174520.000,4900.4512,N,00825.4544,E,2,8,1.13,154.6,M,47.9,M,,*42",,,,
2022-03-04T18:45:46+01:00,43,13.39,22.93,1006.68,29,30.5,0,-127,"$GNGGA,174541.000,4900.4916,N,00825.4353,E,2,8,1.09,134.4,M,47.9,M,,*42",,,,
2022-03-04T18:46:07+01:00,44,13.09,23.79,1006.64,28.2,29.7,0,-127,"$GNGGA,174602.000,4900.5164,N,00825.4237,E,2,7,1.22,136.3,M,47.9,M,,*4A",,,,
2022-03-04T18:46:27+01:00,45,12.92,25.35,1006.61,28.2,29.7,0,-127,"$GNGGA,174622.000,4900.5139,N,00825.4148,E,2,8,1.09,144.6,M,47.9,M,,*4D",,,,
2022-03-04T18:46:48+01:00,46,12.85,24.76,1006.61,28.5,30,0,-127,"$GNGGA,174643.000,4900.5275,N,00825.4569,E,2,7,1.21,146.0,M,47.9,M,,*47",,,,
2022-03-04T18:47:08+01:00,47,12.91,24.46,1006.61,29.6,31.1,0,-127,"$GNGGA,174703.000,4900.5275,N,00825.4573,E,2,7,1.21,146.2,M,47.9,M,,*4B",,,,
2022-03-04T18:47:29+01:00,48,13.05,24.26,1006.61,29,30.5,0,-127,"$GNGGA,174724.000,4900.5276,N,00825.4574,E,2,7,1.21,146.2,M,47.9,M,,*4A",,,,
2022-03-04T18:47:50+01:00,49,13.22,24.05,1006.62,28.3,29.8,0,-127,"$GNGGA,174745.000,4900.5282,N,00825.4574,E,2,8,1.07,146.4,M,47.9,M,,*4B",,,,
